{
  "name": "AUSA 2023",
  "series": "AUSA",
  "edition": "2023",
  "startDate": "2023-10-09",
  "endDate": "2023-10-11",
  "alias": "The Association of the United States Army, Annual Meeting & Exposition 2023",
  "address": {
    "text": "Walter E Washington Convention Center\n801 Mt Vernon Place, NW\nWashington\nDC 20001\nUSA",
    "iso2": "US",
    "lat": 38.9050275,
    "lon": -77.0229632
  },
  "website": "https://meetings.ausa.org/annual/2023/",
  "social": [
    {
      "platform": "facebook",
      "url": "https://www.facebook.com/AUSA.org"
    },
    {
      "platform": "twitter",
      "url": "https://twitter.com/ausaorg"
    },
    {
      "platform": "linkedin",
      "url": "https://www.linkedin.com/company/ausaorg/"
    },
    {
      "platform": "youtube",
      "url": "https://www.youtube.com/user/AUSANational"
    },
    {
      "platform": "instagram",
      "url": "https://www.instagram.com/ausaorg/"
    }
  ],
  "organiser": [
    {
      "name": "The Association of the United States Army",
      "website": "https://www.ausa.org/"
    }
  ],
  "exhibitorListUrl": "https://s19.a2zinc.net/clients/ausa/annual2023/Public/exhibitors.aspx",
  "exhibitorListDate": "2023-11-08T11:42:59+00:00",
  "exhibitor": [
    {
      "name": "3D Perception",
      "exhibitorUrl": "https://s19.a2zinc.net/clients/ausa/annual2023/Public/eBooth.aspx?IndexInList=0&FromPage=Exhibitors.aspx&ParentBoothID=&ListByBooth=true&BoothID=105165",
      "address": {
        "text": "Hvalstad,\nNorway",
        "iso2": "NO",
        "lat": 59.8576293,
        "lon": 10.4781181
      }
    },
    {
      "name": "AAFMAA",
      "exhibitorUrl": "https://s19.a2zinc.net/clients/ausa/annual2023/Public/eBooth.aspx?IndexInList=1&FromPage=Exhibitors.aspx&ParentBoothID=&ListByBooth=true&BoothID=106049",
      "address": {
        "text": "Reston,\nVA\nUnited States",
        "iso2": "US",
        "lat": 38.9586307,
        "lon": -77.35700279999999
      },
      "website": "http://www.aafmaa.com"
    },
    {
      "name": "AAR Mobility Systems",
      "exhibitorUrl": "https://s19.a2zinc.net/clients/ausa/annual2023/Public/eBooth.aspx?IndexInList=2&FromPage=Exhibitors.aspx&ParentBoothID=&ListByBooth=true&BoothID=106078",
      "address": {
        "text": "Cadillac,\nMI\nUnited States",
        "iso2": "US",
        "lat": 44.2519526,
        "lon": -85.40116189999999
      },
      "website": "http://aarmobilitysystems.com"
    },
    {
      "name": "ADROITA",
      "exhibitorUrl": "https://s19.a2zinc.net/clients/ausa/annual2023/Public/eBooth.aspx?IndexInList=9&FromPage=Exhibitors.aspx&ParentBoothID=&ListByBooth=true&BoothID=105895",
      "address": {
        "text": "Potts Point / Sydney,\nNSW\nAustralia",
        "iso2": "AU",
        "lat": -33.8687038,
        "lon": 151.223479
      },
      "website": "http://www.adroita.com.au"
    },
    {
      "name": "ADS, Inc.",
      "exhibitorUrl": "https://s19.a2zinc.net/clients/ausa/annual2023/Public/eBooth.aspx?IndexInList=10&FromPage=Exhibitors.aspx&ParentBoothID=&ListByBooth=true&BoothID=103652",
      "address": {
        "text": "Virginia Beach,\nVA\nUnited States",
        "iso2": "US",
        "lat": 36.8516437,
        "lon": -75.97921939999999
      },
      "website": "http://www.adstactical.com"
    },
    {
      "name": "ADYTON",
      "exhibitorUrl": "https://s19.a2zinc.net/clients/ausa/annual2023/Public/eBooth.aspx?IndexInList=16&FromPage=Exhibitors.aspx&ParentBoothID=&ListByBooth=true&BoothID=102307",
      "address": {
        "text": "Pflugerville,\nTX\nUnited States",
        "iso2": "US",
        "lat": 30.4548451,
        "lon": -97.6222665
      },
      "website": "https://www.adyton.io"
    },
    {
      "name": "AEROVEL CORPORATION",
      "exhibitorUrl": "https://s19.a2zinc.net/clients/ausa/annual2023/Public/eBooth.aspx?IndexInList=20&FromPage=Exhibitors.aspx&ParentBoothID=&ListByBooth=true&BoothID=106172",
      "address": {
        "text": "Bingen, WA,\nWA\nUnited States",
        "iso2": "US",
        "lat": 45.7148051,
        "lon": -121.466437
      },
      "website": "www.aerovel.com"
    },
    {
      "name": "AEVEX Aerospace",
      "exhibitorUrl": "https://s19.a2zinc.net/clients/ausa/annual2023/Public/eBooth.aspx?IndexInList=22&FromPage=Exhibitors.aspx&ParentBoothID=&ListByBooth=true&BoothID=105251",
      "address": {
        "text": "Solana Beach,\nCA\nUnited States",
        "iso2": "US",
        "lat": 32.991155,
        "lon": -117.2711481
      },
      "website": "http://www.aevex.com"
    },
    {
      "name": "AIRBUS",
      "exhibitorUrl": "https://s19.a2zinc.net/clients/ausa/annual2023/Public/eBooth.aspx?IndexInList=26&FromPage=Exhibitors.aspx&ParentBoothID=&ListByBooth=true&BoothID=103445",
      "address": {
        "text": "Herndon,\nVA\nUnited States",
        "iso2": "US",
        "lat": 38.9695545,
        "lon": -77.3860976
      }
    },
    {
      "name": "ALTUS LSA",
      "exhibitorUrl": "https://s19.a2zinc.net/clients/ausa/annual2023/Public/eBooth.aspx?IndexInList=34&FromPage=Exhibitors.aspx&ParentBoothID=&ListByBooth=true&BoothID=105873",
      "address": {
        "text": "Souda, Crete,\nGreece",
        "iso2": "GR",
        "lat": 35.4874818,
        "lon": 24.0742105
      },
      "website": "https://altus-lsa.com"
    },
    {
      "name": "AM General LLC",
      "exhibitorUrl": "https://s19.a2zinc.net/clients/ausa/annual2023/Public/eBooth.aspx?IndexInList=35&FromPage=Exhibitors.aspx&ParentBoothID=&ListByBooth=true&BoothID=101648",
      "address": {
        "text": "South Bend,\nIN\nUnited States",
        "iso2": "US",
        "lat": 41.6763545,
        "lon": -86.25198979999999
      },
      "website": "http://www.amgeneral.com"
    },
    {
      "name": "AMC/TRADOC Assembly Area",
      "exhibitorUrl": "https://s19.a2zinc.net/clients/ausa/annual2023/Public/eBooth.aspx?IndexInList=38&FromPage=Exhibitors.aspx&ParentBoothID=&ListByBooth=true&BoothID=102243",
      "address": {
        "text": "Redstone Arsenal,\nAL\nUnited States",
        "iso2": "US",
        "lat": 34.6950842,
        "lon": -86.65103289999999
      }
    },
    {
      "name": "AML3D",
      "exhibitorUrl": "https://s19.a2zinc.net/clients/ausa/annual2023/Public/eBooth.aspx?IndexInList=46&FromPage=Exhibitors.aspx&ParentBoothID=&ListByBooth=true&BoothID=105898",
      "address": {
        "text": "Edinburgh,\nSA\nAustralia",
        "iso2": "AU",
        "lat": -34.738053,
        "lon": 138.6332525
      },
      "website": "https://aml3d.com"
    },
    {
      "name": "AMS AERO",
      "exhibitorUrl": "https://s19.a2zinc.net/clients/ausa/annual2023/Public/eBooth.aspx?IndexInList=48&FromPage=Exhibitors.aspx&ParentBoothID=&ListByBooth=true&BoothID=105844",
      "address": {
        "text": "Spata,\nGreece",
        "iso2": "GR",
        "lat": 37.96464080000001,
        "lon": 23.9070776
      },
      "website": "http://www.amsaero.eu"
    },
    {
      "name": "ANYWISE",
      "exhibitorUrl": "https://s19.a2zinc.net/clients/ausa/annual2023/Public/eBooth.aspx?IndexInList=51&FromPage=Exhibitors.aspx&ParentBoothID=&ListByBooth=true&BoothID=105899",
      "address": {
        "text": "Raleigh,\nNC\nUnited States",
        "iso2": "US",
        "lat": 35.7795897,
        "lon": -78.6381787
      },
      "website": "https://www.anywiseamerica.com"
    },
    {
      "name": "APPI",
      "exhibitorUrl": "https://s19.a2zinc.net/clients/ausa/annual2023/Public/eBooth.aspx?IndexInList=52&FromPage=Exhibitors.aspx&ParentBoothID=&ListByBooth=true&BoothID=105605",
      "address": {
        "text": "Nimes,\nFrance",
        "iso2": "FR",
        "lat": 43.836699,
        "lon": 4.360054
      },
      "website": "http://www.appi-technology.com"
    },
    {
      "name": "APV Corporation Pty Ltd",
      "exhibitorUrl": "https://s19.a2zinc.net/clients/ausa/annual2023/Public/eBooth.aspx?IndexInList=58&FromPage=Exhibitors.aspx&ParentBoothID=&ListByBooth=true&BoothID=105900",
      "address": {
        "text": "Melbourne,\nVIC\nAustralia",
        "iso2": "AU",
        "lat": -37.8136276,
        "lon": 144.9630576
      },
      "website": "https://www.apvus.com"
    },
    {
      "name": "AR Modular RF",
      "exhibitorUrl": "https://s19.a2zinc.net/clients/ausa/annual2023/Public/eBooth.aspx?IndexInList=59&FromPage=Exhibitors.aspx&ParentBoothID=&ListByBooth=true&BoothID=103975",
      "address": {
        "text": "Bothell,\nWA\nUnited States",
        "iso2": "US",
        "lat": 47.76011099999999,
        "lon": -122.2054452
      },
      "website": "http://arww-modularrf.com"
    },
    {
      "name": "ARA-Inc.",
      "exhibitorUrl": "https://s19.a2zinc.net/clients/ausa/annual2023/Public/eBooth.aspx?IndexInList=60&FromPage=Exhibitors.aspx&ParentBoothID=&ListByBooth=true&BoothID=103174",
      "address": {
        "text": "Nashua,\nNH\nUnited States",
        "iso2": "US",
        "lat": 42.7653662,
        "lon": -71.46756599999999
      },
      "website": "http://www.aqyrtech.com"
    },
    {
      "name": "ARMED SERVICES YMCA",
      "exhibitorUrl": "https://s19.a2zinc.net/clients/ausa/annual2023/Public/eBooth.aspx?IndexInList=63&FromPage=Exhibitors.aspx&ParentBoothID=&ListByBooth=true&BoothID=102242",
      "address": {
        "text": "Woodbridge,\nVA\nUnited States",
        "iso2": "US",
        "lat": 38.6581722,
        "lon": -77.2497049
      }
    },
    {
      "name": "ASA (ALT)/AFC Assembly Area",
      "exhibitorUrl": "https://s19.a2zinc.net/clients/ausa/annual2023/Public/eBooth.aspx?IndexInList=73&FromPage=Exhibitors.aspx&ParentBoothID=&ListByBooth=true&BoothID=102128",
      "address": {
        "text": "Washington,\nDC\nUnited States",
        "iso2": "US",
        "lat": 38.9071923,
        "lon": -77.0368707
      }
    },
    {
      "name": "ASRC Federal",
      "exhibitorUrl": "https://s19.a2zinc.net/clients/ausa/annual2023/Public/eBooth.aspx?IndexInList=76&FromPage=Exhibitors.aspx&ParentBoothID=&ListByBooth=true&BoothID=104291",
      "address": {
        "text": "Reston,\nVA\nUnited States",
        "iso2": "US",
        "lat": 38.9586307,
        "lon": -77.35700279999999
      },
      "website": "http://www.asrcfederal.com"
    },
    {
      "name": "ATI",
      "exhibitorUrl": "https://s19.a2zinc.net/clients/ausa/annual2023/Public/eBooth.aspx?IndexInList=80&FromPage=Exhibitors.aspx&ParentBoothID=&ListByBooth=true&BoothID=103450",
      "address": {
        "text": "Pittsburgh,\nPA\nUnited States",
        "iso2": "US",
        "lat": 40.44062479999999,
        "lon": -79.9958864
      },
      "website": "http://www.atimaterials.com"
    },
    {
      "name": "AUSA Insurance Programs - Pearl Insurance",
      "exhibitorUrl": "https://s19.a2zinc.net/clients/ausa/annual2023/Public/eBooth.aspx?IndexInList=83&FromPage=Exhibitors.aspx&ParentBoothID=&ListByBooth=true&BoothID=106068",
      "address": {
        "text": "Peoria Heights,\nIL\nUnited States",
        "iso2": "US",
        "lat": 40.7472594,
        "lon": -89.5739845
      },
      "website": "http://ausacoverage.com"
    },
    {
      "name": "AUSA Membership Pavilion",
      "exhibitorUrl": "https://s19.a2zinc.net/clients/ausa/annual2023/Public/eBooth.aspx?IndexInList=84&FromPage=Exhibitors.aspx&ParentBoothID=&ListByBooth=true&BoothID=106039",
      "address": {
        "text": "Arlington,\nVA\nUnited States",
        "iso2": "US",
        "lat": 38.8816208,
        "lon": -77.09098089999999
      },
      "website": "https://www.ausa.org/join"
    },
    {
      "name": "AUSA Potomac-Liberty Chapter",
      "exhibitorUrl": "https://s19.a2zinc.net/clients/ausa/annual2023/Public/eBooth.aspx?IndexInList=85&FromPage=Exhibitors.aspx&ParentBoothID=&ListByBooth=true&BoothID=102395",
      "address": {
        "text": "Fort Belvoir,\nVA\nUnited States",
        "iso2": "US",
        "lat": 38.71887160000001,
        "lon": -77.15426839999999
      }
    },
    {
      "name": "AVI",
      "exhibitorUrl": "https://s19.a2zinc.net/clients/ausa/annual2023/Public/eBooth.aspx?IndexInList=88&FromPage=Exhibitors.aspx&ParentBoothID=&ListByBooth=true&BoothID=105903",
      "address": {
        "text": "Myaree,\nWestern Australia\nAustralia",
        "iso2": "AU",
        "lat": -32.0435639,
        "lon": 115.8157324
      },
      "website": "http://www.avi.com.au"
    },
    {
      "name": "AVT Australia",
      "exhibitorUrl": "https://s19.a2zinc.net/clients/ausa/annual2023/Public/eBooth.aspx?IndexInList=91&FromPage=Exhibitors.aspx&ParentBoothID=&ListByBooth=true&BoothID=105904",
      "address": {
        "text": "North Melbourne,\nVIC\nAustralia",
        "iso2": "AU",
        "lat": -37.8008004,
        "lon": 144.9485049
      }
    },
    {
      "name": "AZAK",
      "exhibitorUrl": "https://s19.a2zinc.net/clients/ausa/annual2023/Public/eBooth.aspx?IndexInList=96&FromPage=Exhibitors.aspx&ParentBoothID=&ListByBooth=true&BoothID=102364",
      "address": {
        "text": "Driggs,\nID\nUnited States",
        "iso2": "US",
        "lat": 43.72312160000001,
        "lon": -111.1110708
      },
      "website": "http://azak.co"
    },
    {
      "name": "Abaco Systems | AMETEK",
      "exhibitorUrl": "https://s19.a2zinc.net/clients/ausa/annual2023/Public/eBooth.aspx?IndexInList=3&FromPage=Exhibitors.aspx&ParentBoothID=&ListByBooth=true&BoothID=104181",
      "address": {
        "text": "Huntsville,\nAL\nUnited States",
        "iso2": "US",
        "lat": 34.7303688,
        "lon": -86.5861037
      },
      "website": "http://www.abaco.com"
    },
    {
      "name": "Acapulka",
      "exhibitorUrl": "https://s19.a2zinc.net/clients/ausa/annual2023/Public/eBooth.aspx?IndexInList=4&FromPage=Exhibitors.aspx&ParentBoothID=&ListByBooth=true&BoothID=105166",
      "address": {
        "text": "Gvarv,\nNorway",
        "iso2": "NO",
        "lat": 59.38787550000001,
        "lon": 9.170028199999999
      }
    },
    {
      "name": "Accenture Federal Services",
      "exhibitorUrl": "https://s19.a2zinc.net/clients/ausa/annual2023/Public/eBooth.aspx?IndexInList=5&FromPage=Exhibitors.aspx&ParentBoothID=&ListByBooth=true&BoothID=103142",
      "address": {
        "text": "Arlington,\nVA\nUnited States",
        "iso2": "US",
        "lat": 38.8816208,
        "lon": -77.09098089999999
      },
      "website": "http://www.Accenture.com/usdefense"
    },
    {
      "name": "AccuBeat",
      "exhibitorUrl": "https://s19.a2zinc.net/clients/ausa/annual2023/Public/eBooth.aspx?IndexInList=6&FromPage=Exhibitors.aspx&ParentBoothID=&ListByBooth=true&BoothID=106091",
      "address": {
        "text": "Jerusalem,\nIsrael",
        "iso2": "IL",
        "lat": 31.768319,
        "lon": 35.21371
      },
      "website": "http://www.accubeat.com"
    },
    {
      "name": "Accurate Energetic Systems, LLC",
      "exhibitorUrl": "https://s19.a2zinc.net/clients/ausa/annual2023/Public/eBooth.aspx?IndexInList=7&FromPage=Exhibitors.aspx&ParentBoothID=&ListByBooth=true&BoothID=103855",
      "address": {
        "text": "McEwen,\nTN\nUnited States",
        "iso2": "US",
        "lat": 36.1078375,
        "lon": -87.63307449999999
      },
      "website": "http://www.aesys.biz"
    },
    {
      "name": "Action Electronics",
      "exhibitorUrl": "https://s19.a2zinc.net/clients/ausa/annual2023/Public/eBooth.aspx?IndexInList=8&FromPage=Exhibitors.aspx&ParentBoothID=&ListByBooth=true&BoothID=102354",
      "address": {
        "text": "Walpole,\nMA\nUnited States",
        "iso2": "US",
        "lat": 42.1417442,
        "lon": -71.2495096
      },
      "website": "https://actionelectronics.com"
    },
    {
      "name": "Advanced Cooling Technologies, Inc.",
      "exhibitorUrl": "https://s19.a2zinc.net/clients/ausa/annual2023/Public/eBooth.aspx?IndexInList=11&FromPage=Exhibitors.aspx&ParentBoothID=&ListByBooth=true&BoothID=102989",
      "address": {
        "text": "Lancaster,\nPA\nUnited States",
        "iso2": "US",
        "lat": 40.0378755,
        "lon": -76.3055144
      },
      "website": "https://www.1-act.com"
    },
    {
      "name": "Advanced Navigation",
      "exhibitorUrl": "https://s19.a2zinc.net/clients/ausa/annual2023/Public/eBooth.aspx?IndexInList=12&FromPage=Exhibitors.aspx&ParentBoothID=&ListByBooth=true&BoothID=105896",
      "address": {
        "text": "Sydney,\nNew South Wales\nAustralia",
        "iso2": "AU",
        "lat": -33.8688197,
        "lon": 151.2092955
      },
      "website": "http://www.advancednavigation.com"
    },
    {
      "name": "Advanced Technology International (ATI)",
      "exhibitorUrl": "https://s19.a2zinc.net/clients/ausa/annual2023/Public/eBooth.aspx?IndexInList=13&FromPage=Exhibitors.aspx&ParentBoothID=&ListByBooth=true&BoothID=104850",
      "address": {
        "text": "Summerville,\nSC\nUnited States",
        "iso2": "US",
        "lat": 33.0185039,
        "lon": -80.17564809999999
      },
      "website": "http://www.ati.org"
    },
    {
      "name": "Advanced Technology Systems Company",
      "exhibitorUrl": "https://s19.a2zinc.net/clients/ausa/annual2023/Public/eBooth.aspx?IndexInList=14&FromPage=Exhibitors.aspx&ParentBoothID=&ListByBooth=true&BoothID=106077",
      "address": {
        "text": "Mc Lean,\nVA\nUnited States",
        "iso2": "US",
        "lat": 38.9338676,
        "lon": -77.1772604
      },
      "website": "http://atscva.com"
    },
    {
      "name": "Advantech Corp.",
      "exhibitorUrl": "https://s19.a2zinc.net/clients/ausa/annual2023/Public/eBooth.aspx?IndexInList=15&FromPage=Exhibitors.aspx&ParentBoothID=&ListByBooth=true&BoothID=103163",
      "address": {
        "text": "Irvine,\nCA\nUnited States",
        "iso2": "US",
        "lat": 33.6845673,
        "lon": -117.8265049
      },
      "website": "http://www.advantechusa.com/military"
    },
    {
      "name": "AeroGlow LLC",
      "exhibitorUrl": "https://s19.a2zinc.net/clients/ausa/annual2023/Public/eBooth.aspx?IndexInList=17&FromPage=Exhibitors.aspx&ParentBoothID=&ListByBooth=true&BoothID=103951",
      "address": {
        "text": "Fredericksburg,\nVA\nUnited States",
        "iso2": "US",
        "lat": 38.3031837,
        "lon": -77.4605399
      },
      "website": "http://www.aeroglowinternational.com"
    },
    {
      "name": "AeroVironment, Inc.",
      "exhibitorUrl": "https://s19.a2zinc.net/clients/ausa/annual2023/Public/eBooth.aspx?IndexInList=21&FromPage=Exhibitors.aspx&ParentBoothID=&ListByBooth=true&BoothID=104496",
      "address": {
        "text": "Arlington,\nVA\nUnited States",
        "iso2": "US",
        "lat": 38.8816208,
        "lon": -77.09098089999999
      },
      "website": "http://www.avinc.com"
    },
    {
      "name": "Aeronix, Inc",
      "exhibitorUrl": "https://s19.a2zinc.net/clients/ausa/annual2023/Public/eBooth.aspx?IndexInList=18&FromPage=Exhibitors.aspx&ParentBoothID=&ListByBooth=true&BoothID=105649",
      "address": {
        "text": "Melbourne,\nFL\nUnited States",
        "iso2": "US",
        "lat": 28.0836269,
        "lon": -80.60810889999999
      },
      "website": "www.aeronix.com"
    },
    {
      "name": "Aeroservices S.A.",
      "exhibitorUrl": "https://s19.a2zinc.net/clients/ausa/annual2023/Public/eBooth.aspx?IndexInList=19&FromPage=Exhibitors.aspx&ParentBoothID=&ListByBooth=true&BoothID=105847",
      "address": {
        "text": "Megara,\nGreece",
        "iso2": "GR",
        "lat": 37.9943201,
        "lon": 23.3430496
      },
      "website": "https://www.aeroservices.gr"
    },
    {
      "name": "AimLock Inc.",
      "exhibitorUrl": "https://s19.a2zinc.net/clients/ausa/annual2023/Public/eBooth.aspx?IndexInList=23&FromPage=Exhibitors.aspx&ParentBoothID=&ListByBooth=true&BoothID=104306",
      "address": {
        "text": "Littleton,\nCO\nUnited States",
        "iso2": "US",
        "lat": 39.613321,
        "lon": -105.0166498
      },
      "website": "http://www.aim-lock.com"
    },
    {
      "name": "Aimpoint Inc.",
      "exhibitorUrl": "https://s19.a2zinc.net/clients/ausa/annual2023/Public/eBooth.aspx?IndexInList=24&FromPage=Exhibitors.aspx&ParentBoothID=&ListByBooth=true&BoothID=103941",
      "address": {
        "text": "Manassas,\nVA\nUnited States",
        "iso2": "US",
        "lat": 38.7509488,
        "lon": -77.47526669999999
      },
      "website": "http://www.aimpoint.com"
    },
    {
      "name": "Airborne Systems",
      "exhibitorUrl": "https://s19.a2zinc.net/clients/ausa/annual2023/Public/eBooth.aspx?IndexInList=25&FromPage=Exhibitors.aspx&ParentBoothID=&ListByBooth=true&BoothID=104492",
      "address": {
        "text": "Pennsauken,\nNJ\nUnited States",
        "iso2": "US",
        "lat": 39.9562052,
        "lon": -75.058009
      },
      "website": "http://www.airborne-sys.com"
    },
    {
      "name": "Akmon S.A.",
      "exhibitorUrl": "https://s19.a2zinc.net/clients/ausa/annual2023/Public/eBooth.aspx?IndexInList=27&FromPage=Exhibitors.aspx&ParentBoothID=&ListByBooth=true&BoothID=105848",
      "address": {
        "text": "Ano Liossia,\nGreece",
        "iso2": "GR",
        "lat": 38.0810715,
        "lon": 23.697774
      },
      "website": "https://akmonsa.gr"
    },
    {
      "name": "Alaska Defense",
      "exhibitorUrl": "https://s19.a2zinc.net/clients/ausa/annual2023/Public/eBooth.aspx?IndexInList=28&FromPage=Exhibitors.aspx&ParentBoothID=&ListByBooth=true&BoothID=103828",
      "address": {
        "text": "Scottsdale,\nAZ\nUnited States",
        "iso2": "US",
        "lat": 33.4948764,
        "lon": -111.9216734
      },
      "website": "https://www.alaskadefense.com"
    },
    {
      "name": "Alien Gear Holsters",
      "exhibitorUrl": "https://s19.a2zinc.net/clients/ausa/annual2023/Public/eBooth.aspx?IndexInList=29&FromPage=Exhibitors.aspx&ParentBoothID=&ListByBooth=true&BoothID=105272",
      "address": {
        "text": "Post Falls,\nID\nUnited States",
        "iso2": "US",
        "lat": 47.7179578,
        "lon": -116.9515856
      },
      "website": "http://aliengearholsters.com"
    },
    {
      "name": "Allient",
      "exhibitorUrl": "https://s19.a2zinc.net/clients/ausa/annual2023/Public/eBooth.aspx?IndexInList=30&FromPage=Exhibitors.aspx&ParentBoothID=&ListByBooth=true&BoothID=104026",
      "address": {
        "text": "Amherst,\nNY\nUnited States",
        "iso2": "US",
        "lat": 42.9754691,
        "lon": -78.7922335
      },
      "website": "https://allient.com"
    },
    {
      "name": "Allison Transmission, Inc.",
      "exhibitorUrl": "https://s19.a2zinc.net/clients/ausa/annual2023/Public/eBooth.aspx?IndexInList=31&FromPage=Exhibitors.aspx&ParentBoothID=&ListByBooth=true&BoothID=101621",
      "address": {
        "text": "Indianapolis,\nIN\nUnited States",
        "iso2": "US",
        "lat": 39.768403,
        "lon": -86.158068
      }
    },
    {
      "name": "Altaeros",
      "exhibitorUrl": "https://s19.a2zinc.net/clients/ausa/annual2023/Public/eBooth.aspx?IndexInList=32&FromPage=Exhibitors.aspx&ParentBoothID=&ListByBooth=true&BoothID=104951",
      "address": {
        "text": "Somerville,\nMA\nUnited States",
        "iso2": "US",
        "lat": 42.3875968,
        "lon": -71.0994968
      },
      "website": "https://www.altaeros.com"
    },
    {
      "name": "Althom Engineering EPE",
      "exhibitorUrl": "https://s19.a2zinc.net/clients/ausa/annual2023/Public/eBooth.aspx?IndexInList=33&FromPage=Exhibitors.aspx&ParentBoothID=&ListByBooth=true&BoothID=105845",
      "address": {
        "text": "Patras,\nAchaia\nGreece",
        "iso2": "GR",
        "lat": 38.2466395,
        "lon": 21.734574
      },
      "website": "http://www.althom.eu"
    },
    {
      "name": "Amazon Business",
      "exhibitorUrl": "https://s19.a2zinc.net/clients/ausa/annual2023/Public/eBooth.aspx?IndexInList=36&FromPage=Exhibitors.aspx&ParentBoothID=&ListByBooth=true&BoothID=102020",
      "address": {
        "text": "Atlanta,\nGA\nUnited States",
        "iso2": "US",
        "lat": 33.748752,
        "lon": -84.38768449999999
      },
      "website": "https://business.amazon.com/en/work-with-us/government"
    },
    {
      "name": "Amazon Web Services",
      "exhibitorUrl": "https://s19.a2zinc.net/clients/ausa/annual2023/Public/eBooth.aspx?IndexInList=37&FromPage=Exhibitors.aspx&ParentBoothID=&ListByBooth=true&BoothID=101236",
      "address": {
        "text": "Herndon,\nVA\nUnited States",
        "iso2": "US",
        "lat": 38.9695545,
        "lon": -77.3860976
      },
      "website": "http://aws.amazon.com"
    },
    {
      "name": "Amentum",
      "exhibitorUrl": "https://s19.a2zinc.net/clients/ausa/annual2023/Public/eBooth.aspx?IndexInList=39&FromPage=Exhibitors.aspx&ParentBoothID=&ListByBooth=true&BoothID=102877",
      "address": {
        "text": "Chantilly,\nVA\nUnited States",
        "iso2": "US",
        "lat": 38.8942786,
        "lon": -77.43109919999999
      },
      "website": "https://www.amentum.com"
    },
    {
      "name": "Amerex Defense",
      "exhibitorUrl": "https://s19.a2zinc.net/clients/ausa/annual2023/Public/eBooth.aspx?IndexInList=40&FromPage=Exhibitors.aspx&ParentBoothID=&ListByBooth=true&BoothID=103678",
      "address": {
        "text": "Trussville,\nAL\nUnited States",
        "iso2": "US",
        "lat": 33.6198251,
        "lon": -86.60887559999999
      },
      "website": "http://www.amerex-fire.com"
    },
    {
      "name": "American Battle Monuments Foundation",
      "exhibitorUrl": "https://s19.a2zinc.net/clients/ausa/annual2023/Public/eBooth.aspx?IndexInList=41&FromPage=Exhibitors.aspx&ParentBoothID=&ListByBooth=true&BoothID=102394",
      "address": {
        "text": "Denver,\nCO\nUnited States",
        "iso2": "US",
        "lat": 39.7392358,
        "lon": -104.990251
      },
      "website": "https://www.abmf.org"
    },
    {
      "name": "American Freedom Foundation",
      "exhibitorUrl": "https://s19.a2zinc.net/clients/ausa/annual2023/Public/eBooth.aspx?IndexInList=42&FromPage=Exhibitors.aspx&ParentBoothID=&ListByBooth=true&BoothID=102323",
      "address": {
        "text": "Riverview,\nFL\nUnited States",
        "iso2": "US",
        "lat": 27.8661364,
        "lon": -82.32648089999999
      }
    },
    {
      "name": "American Red Cross - Washington DC",
      "exhibitorUrl": "https://s19.a2zinc.net/clients/ausa/annual2023/Public/eBooth.aspx?IndexInList=43&FromPage=Exhibitors.aspx&ParentBoothID=&ListByBooth=true&BoothID=102346",
      "address": {
        "text": "Washington,\nDC\nUnited States",
        "iso2": "US",
        "lat": 38.9071923,
        "lon": -77.0368707
      },
      "website": "http://www.redcross.org"
    },
    {
      "name": "American Rheinmetall",
      "exhibitorUrl": "https://s19.a2zinc.net/clients/ausa/annual2023/Public/eBooth.aspx?IndexInList=44&FromPage=Exhibitors.aspx&ParentBoothID=&ListByBooth=true&BoothID=103076",
      "address": {
        "text": "Reston,\nVA\nUnited States",
        "iso2": "US",
        "lat": 38.9586307,
        "lon": -77.35700279999999
      },
      "website": "http://www.rheinmetall-us.com"
    },
    {
      "name": "Amiga Engineering Pty Ltd",
      "exhibitorUrl": "https://s19.a2zinc.net/clients/ausa/annual2023/Public/eBooth.aspx?IndexInList=45&FromPage=Exhibitors.aspx&ParentBoothID=&ListByBooth=true&BoothID=105897",
      "address": {
        "text": "Tullamarine,\nVIC\nAustralia",
        "iso2": "AU",
        "lat": -37.6994841,
        "lon": 144.8803113
      },
      "website": "http://www.amigaeng.com.au"
    },
    {
      "name": "Amphenol Military and Aerospace Operations",
      "exhibitorUrl": "https://s19.a2zinc.net/clients/ausa/annual2023/Public/eBooth.aspx?IndexInList=47&FromPage=Exhibitors.aspx&ParentBoothID=&ListByBooth=true&BoothID=101497",
      "address": {
        "text": "Sidney,\nNY\nUnited States",
        "iso2": "US",
        "lat": 42.3148024,
        "lon": -75.39156650000001
      },
      "website": "http://www.amphenolmao.com"
    },
    {
      "name": "Anduril",
      "exhibitorUrl": "https://s19.a2zinc.net/clients/ausa/annual2023/Public/eBooth.aspx?IndexInList=49&FromPage=Exhibitors.aspx&ParentBoothID=&ListByBooth=true&BoothID=104303",
      "address": {
        "text": "Irvine,\nCA\nUnited States",
        "iso2": "US",
        "lat": 33.6845673,
        "lon": -117.8265049
      },
      "website": "http://anduril.com"
    },
    {
      "name": "Ansys",
      "exhibitorUrl": "https://s19.a2zinc.net/clients/ausa/annual2023/Public/eBooth.aspx?IndexInList=50&FromPage=Exhibitors.aspx&ParentBoothID=&ListByBooth=true&BoothID=103895",
      "address": {
        "text": "Exton,\nPA\nUnited States",
        "iso2": "US",
        "lat": 40.0325817,
        "lon": -75.6274583
      },
      "website": "http://www.ansys.com"
    },
    {
      "name": "Appian",
      "exhibitorUrl": "https://s19.a2zinc.net/clients/ausa/annual2023/Public/eBooth.aspx?IndexInList=53&FromPage=Exhibitors.aspx&ParentBoothID=&ListByBooth=true&BoothID=105172",
      "address": {
        "text": "McLean,\nVA\nUnited States",
        "iso2": "US",
        "lat": 38.9338676,
        "lon": -77.1772604
      }
    },
    {
      "name": "Applied Companies",
      "exhibitorUrl": "https://s19.a2zinc.net/clients/ausa/annual2023/Public/eBooth.aspx?IndexInList=54&FromPage=Exhibitors.aspx&ParentBoothID=&ListByBooth=true&BoothID=103798",
      "address": {
        "text": "Valencia,\nCA\nUnited States",
        "iso2": "US",
        "lat": 34.419837,
        "lon": -118.5627013
      },
      "website": "https://www.appliedcompanies.net"
    },
    {
      "name": "Applied Intuition",
      "exhibitorUrl": "https://s19.a2zinc.net/clients/ausa/annual2023/Public/eBooth.aspx?IndexInList=55&FromPage=Exhibitors.aspx&ParentBoothID=&ListByBooth=true&BoothID=104947",
      "address": {
        "text": "Mountain View,\nCA\nUnited States",
        "iso2": "US",
        "lat": 37.3860517,
        "lon": -122.0838511
      },
      "website": "https://www.appliedintuition.com"
    },
    {
      "name": "Applied Navigation",
      "exhibitorUrl": "https://s19.a2zinc.net/clients/ausa/annual2023/Public/eBooth.aspx?IndexInList=56&FromPage=Exhibitors.aspx&ParentBoothID=&ListByBooth=true&BoothID=106176",
      "address": {
        "text": "Bothell,\nWA\nUnited States",
        "iso2": "US",
        "lat": 47.76011099999999,
        "lon": -122.2054452
      },
      "website": "www.appliednav.com"
    },
    {
      "name": "Applied Research Associates, Inc.",
      "exhibitorUrl": "https://s19.a2zinc.net/clients/ausa/annual2023/Public/eBooth.aspx?IndexInList=57&FromPage=Exhibitors.aspx&ParentBoothID=&ListByBooth=true&BoothID=105115",
      "address": {
        "text": "Albuquerque,\nNM\nUnited States",
        "iso2": "US",
        "lat": 35.0843859,
        "lon": -106.650422
      },
      "website": "http://www.ara.com"
    },
    {
      "name": "Arete Associates",
      "exhibitorUrl": "https://s19.a2zinc.net/clients/ausa/annual2023/Public/eBooth.aspx?IndexInList=61&FromPage=Exhibitors.aspx&ParentBoothID=&ListByBooth=true&BoothID=103932",
      "address": {
        "text": "Longmont,\nCO\nUnited States",
        "iso2": "US",
        "lat": 40.1672068,
        "lon": -105.1019275
      },
      "website": "http://www.arete.com"
    },
    {
      "name": "Armed Forces Vacation Club",
      "exhibitorUrl": "https://s19.a2zinc.net/clients/ausa/annual2023/Public/eBooth.aspx?IndexInList=62&FromPage=Exhibitors.aspx&ParentBoothID=&ListByBooth=true&BoothID=106040",
      "address": {
        "text": "Orlando,\nFL\nUnited States",
        "iso2": "US",
        "lat": 28.5383832,
        "lon": -81.3789269
      },
      "website": "http://www.afvclub.com"
    },
    {
      "name": "ArmorWorks",
      "exhibitorUrl": "https://s19.a2zinc.net/clients/ausa/annual2023/Public/eBooth.aspx?IndexInList=64&FromPage=Exhibitors.aspx&ParentBoothID=&ListByBooth=true&BoothID=103086",
      "address": {
        "text": "Chandler,\nAZ\nUnited States",
        "iso2": "US",
        "lat": 33.3061605,
        "lon": -111.8412502
      },
      "website": "http://www.armorworks.com"
    },
    {
      "name": "Army Air Force Exchange Service",
      "exhibitorUrl": "https://s19.a2zinc.net/clients/ausa/annual2023/Public/eBooth.aspx?IndexInList=65&FromPage=Exhibitors.aspx&ParentBoothID=&ListByBooth=true&BoothID=103882",
      "address": {
        "text": "Dallas,\nTX\nUnited States",
        "iso2": "US",
        "lat": 32.7766642,
        "lon": -96.79698789999999
      },
      "website": "http://shopmyexchange.com/vets"
    },
    {
      "name": "Army Enterprise Marketing Office (AEMO)",
      "exhibitorUrl": "https://s19.a2zinc.net/clients/ausa/annual2023/Public/eBooth.aspx?IndexInList=66&FromPage=Exhibitors.aspx&ParentBoothID=&ListByBooth=true&BoothID=101523",
      "address": {
        "text": "Fort Knox,\nKY\nUnited States",
        "iso2": "US",
        "lat": 37.8836637,
        "lon": -85.9652686
      }
    },
    {
      "name": "Army Fisher House",
      "exhibitorUrl": "https://s19.a2zinc.net/clients/ausa/annual2023/Public/eBooth.aspx?IndexInList=67&FromPage=Exhibitors.aspx&ParentBoothID=&ListByBooth=true&BoothID=102297",
      "address": {
        "text": "Ft. Sam Houston,\nTX\nUnited States",
        "iso2": "US",
        "lat": 29.4549745,
        "lon": -98.44217350000001
      },
      "website": "https://fisherhouse.org/programs/houses/current-houses/"
    },
    {
      "name": "Army Historical Foundation",
      "exhibitorUrl": "https://s19.a2zinc.net/clients/ausa/annual2023/Public/eBooth.aspx?IndexInList=68&FromPage=Exhibitors.aspx&ParentBoothID=&ListByBooth=true&BoothID=106112",
      "address": {
        "text": "Fort Belvoir,\nVA\nUnited States",
        "iso2": "US",
        "lat": 38.71887160000001,
        "lon": -77.15426839999999
      },
      "website": "http://armyhistory.org"
    },
    {
      "name": "Army Installation Operations Enterprise Assembly Area",
      "exhibitorUrl": "https://s19.a2zinc.net/clients/ausa/annual2023/Public/eBooth.aspx?IndexInList=69&FromPage=Exhibitors.aspx&ParentBoothID=&ListByBooth=true&BoothID=103591",
      "address": {
        "text": "Washington,\nDC\nUnited States",
        "iso2": "US",
        "lat": 38.9071923,
        "lon": -77.0368707
      }
    },
    {
      "name": "Army Space Professionals Association",
      "exhibitorUrl": "https://s19.a2zinc.net/clients/ausa/annual2023/Public/eBooth.aspx?IndexInList=70&FromPage=Exhibitors.aspx&ParentBoothID=&ListByBooth=true&BoothID=106050",
      "address": {
        "text": "Annapolis,\nMD\nUnited States",
        "iso2": "US",
        "lat": 38.9784453,
        "lon": -76.4921829
      },
      "website": "https://www.armyspace.pro/home"
    },
    {
      "name": "Army Strategist Association",
      "exhibitorUrl": "https://s19.a2zinc.net/clients/ausa/annual2023/Public/eBooth.aspx?IndexInList=71&FromPage=Exhibitors.aspx&ParentBoothID=&ListByBooth=true&BoothID=106051",
      "address": {
        "text": "Arlington,\nVA\nUnited States",
        "iso2": "US",
        "lat": 38.8816208,
        "lon": -77.09098089999999
      },
      "website": "http://www.armystrategist.org"
    },
    {
      "name": "Arrow Electronics",
      "exhibitorUrl": "https://s19.a2zinc.net/clients/ausa/annual2023/Public/eBooth.aspx?IndexInList=72&FromPage=Exhibitors.aspx&ParentBoothID=&ListByBooth=true&BoothID=104919",
      "address": {
        "text": "Peabody,\nMA\nUnited States",
        "iso2": "US",
        "lat": 42.5278731,
        "lon": -70.9286609
      }
    },
    {
      "name": "Asension Pty Ltd",
      "exhibitorUrl": "https://s19.a2zinc.net/clients/ausa/annual2023/Public/eBooth.aspx?IndexInList=74&FromPage=Exhibitors.aspx&ParentBoothID=&ListByBooth=true&BoothID=105901",
      "address": {
        "text": "Mawson Lakes,\nSA\nAustralia",
        "iso2": "AU",
        "lat": -34.8111486,
        "lon": 138.6149026
      },
      "website": "http://www.asension.com.au"
    },
    {
      "name": "Asio Technologies Ltd.",
      "exhibitorUrl": "https://s19.a2zinc.net/clients/ausa/annual2023/Public/eBooth.aspx?IndexInList=75&FromPage=Exhibitors.aspx&ParentBoothID=&ListByBooth=true&BoothID=105664",
      "address": {
        "text": "Roash-HaAyin,\nIsrael",
        "iso2": "IL",
        "lat": 32.095838,
        "lon": 34.952177
      },
      "website": "http://www.asiotech.com"
    },
    {
      "name": "Association of U.S. Cyber Forces",
      "exhibitorUrl": "https://s19.a2zinc.net/clients/ausa/annual2023/Public/eBooth.aspx?IndexInList=77&FromPage=Exhibitors.aspx&ParentBoothID=&ListByBooth=true&BoothID=106052",
      "address": {
        "text": "Washington,\nDC\nUnited States",
        "iso2": "US",
        "lat": 38.9071923,
        "lon": -77.0368707
      },
      "website": "http://www.auscf.org"
    },
    {
      "name": "Astronics",
      "exhibitorUrl": "https://s19.a2zinc.net/clients/ausa/annual2023/Public/eBooth.aspx?IndexInList=78&FromPage=Exhibitors.aspx&ParentBoothID=&ListByBooth=true&BoothID=104295",
      "address": {
        "text": "East Aurora,\nNY\nUnited States",
        "iso2": "US",
        "lat": 42.7678376,
        "lon": -78.6133589
      },
      "website": "http://www.astronics.com"
    },
    {
      "name": "Athena AI",
      "exhibitorUrl": "https://s19.a2zinc.net/clients/ausa/annual2023/Public/eBooth.aspx?IndexInList=79&FromPage=Exhibitors.aspx&ParentBoothID=&ListByBooth=true&BoothID=105902",
      "address": {
        "text": "Brisbane,\nQLD\nAustralia",
        "iso2": "AU",
        "lat": -27.4704528,
        "lon": 153.0260341
      },
      "website": "http://www.athenadefence.ai"
    },
    {
      "name": "Atlantic Signal, LLC",
      "exhibitorUrl": "https://s19.a2zinc.net/clients/ausa/annual2023/Public/eBooth.aspx?IndexInList=81&FromPage=Exhibitors.aspx&ParentBoothID=&ListByBooth=true&BoothID=103907",
      "address": {
        "text": "Topeka,\nKS\nUnited States",
        "iso2": "US",
        "lat": 39.0473451,
        "lon": -95.67515759999999
      },
      "website": "http://www.atlanticsignal.com"
    },
    {
      "name": "Atrenne",
      "exhibitorUrl": "https://s19.a2zinc.net/clients/ausa/annual2023/Public/eBooth.aspx?IndexInList=82&FromPage=Exhibitors.aspx&ParentBoothID=&ListByBooth=true&BoothID=106101",
      "address": {
        "text": "Brockton,\nMA\nUnited States",
        "iso2": "US",
        "lat": 42.0834335,
        "lon": -71.0183787
      },
      "website": "www.atrenne.com"
    },
    {
      "name": "Australian Department of Defence",
      "exhibitorUrl": "https://s19.a2zinc.net/clients/ausa/annual2023/Public/eBooth.aspx?IndexInList=86&FromPage=Exhibitors.aspx&ParentBoothID=&ListByBooth=true&BoothID=104802",
      "address": {
        "text": "Canberra,\nAustralia",
        "iso2": "AU",
        "lat": -35.2801903,
        "lon": 149.1310038
      }
    },
    {
      "name": "Auterion Government Solutions",
      "exhibitorUrl": "https://s19.a2zinc.net/clients/ausa/annual2023/Public/eBooth.aspx?IndexInList=87&FromPage=Exhibitors.aspx&ParentBoothID=&ListByBooth=true&BoothID=102208",
      "address": {
        "text": "Moorpark,\nCA\nUnited States",
        "iso2": "US",
        "lat": 34.285558,
        "lon": -118.8820414
      }
    },
    {
      "name": "Aviation Procurement Systems",
      "exhibitorUrl": "https://s19.a2zinc.net/clients/ausa/annual2023/Public/eBooth.aspx?IndexInList=89&FromPage=Exhibitors.aspx&ParentBoothID=&ListByBooth=true&BoothID=105257",
      "address": {
        "text": "Gaithersburg,\nMD\nUnited States",
        "iso2": "US",
        "lat": 39.1439689,
        "lon": -77.2016062
      },
      "website": "http://www.aviprosys.com"
    },
    {
      "name": "Avon Protection and Team Wendy",
      "exhibitorUrl": "https://s19.a2zinc.net/clients/ausa/annual2023/Public/eBooth.aspx?IndexInList=90&FromPage=Exhibitors.aspx&ParentBoothID=&ListByBooth=true&BoothID=103026",
      "address": {
        "text": "Cadillac,\nMI\nUnited States",
        "iso2": "US",
        "lat": 44.2519526,
        "lon": -85.40116189999999
      },
      "website": "http://www.avon-protection.com"
    },
    {
      "name": "Axiom Holographics North America INC",
      "exhibitorUrl": "https://s19.a2zinc.net/clients/ausa/annual2023/Public/eBooth.aspx?IndexInList=92&FromPage=Exhibitors.aspx&ParentBoothID=&ListByBooth=true&BoothID=105905",
      "address": {
        "text": "Austin,\nTX\nUnited States",
        "iso2": "US",
        "lat": 30.267153,
        "lon": -97.7430608
      },
      "website": "http://www.axiomholographics.com"
    },
    {
      "name": "Axiom Precision Manufacturing",
      "exhibitorUrl": "https://s19.a2zinc.net/clients/ausa/annual2023/Public/eBooth.aspx?IndexInList=93&FromPage=Exhibitors.aspx&ParentBoothID=&ListByBooth=true&BoothID=105906",
      "address": {
        "text": "Adelaide,\nSouth Australia\nAustralia",
        "iso2": "AU",
        "lat": -34.9284989,
        "lon": 138.6007456
      },
      "website": "http://www.axiompm.com.au"
    },
    {
      "name": "Axnes",
      "exhibitorUrl": "https://s19.a2zinc.net/clients/ausa/annual2023/Public/eBooth.aspx?IndexInList=94&FromPage=Exhibitors.aspx&ParentBoothID=&ListByBooth=true&BoothID=105160",
      "address": {
        "text": "Colorado Springs,\nCO\nUnited States",
        "iso2": "US",
        "lat": 38.8338816,
        "lon": -104.8213634
      },
      "website": "http://www.axnes.com"
    },
    {
      "name": "Axon",
      "exhibitorUrl": "https://s19.a2zinc.net/clients/ausa/annual2023/Public/eBooth.aspx?IndexInList=95&FromPage=Exhibitors.aspx&ParentBoothID=&ListByBooth=true&BoothID=103297",
      "address": {
        "text": "Scottsdale,\nAZ\nUnited States",
        "iso2": "US",
        "lat": 33.4948764,
        "lon": -111.9216734
      },
      "website": "http://www.axon.com"
    },
    {
      "name": "B.E. Meyers & Co., Inc.",
      "exhibitorUrl": "https://s19.a2zinc.net/clients/ausa/annual2023/Public/eBooth.aspx?IndexInList=97&FromPage=Exhibitors.aspx&ParentBoothID=&ListByBooth=true&BoothID=103753",
      "address": {
        "text": "Redmond,\nWA\nUnited States",
        "iso2": "US",
        "lat": 47.6739881,
        "lon": -122.121512
      },
      "website": "http://www.bemeyers.com"
    },
    {
      "name": "BAE Systems",
      "exhibitorUrl": "https://s19.a2zinc.net/clients/ausa/annual2023/Public/eBooth.aspx?IndexInList=98&FromPage=Exhibitors.aspx&ParentBoothID=&ListByBooth=true&BoothID=104720",
      "address": {
        "text": "Falls Church,\nVA\nUnited States",
        "iso2": "US",
        "lat": 38.88233400000001,
        "lon": -77.1710914
      },
      "website": "http://www.baesystems.com/us"
    },
    {
      "name": "BERNIER",
      "exhibitorUrl": "https://s19.a2zinc.net/clients/ausa/annual2023/Public/eBooth.aspx?IndexInList=108&FromPage=Exhibitors.aspx&ParentBoothID=&ListByBooth=true&BoothID=105610",
      "address": {
        "text": "Saint Michel Sur Orge,\nFrance",
        "iso2": "FR",
        "lat": 48.63263999999999,
        "lon": 2.312884
      },
      "website": "http://www.bernier.tm.fr"
    },
    {
      "name": "BIA5",
      "exhibitorUrl": "https://s19.a2zinc.net/clients/ausa/annual2023/Public/eBooth.aspx?IndexInList=110&FromPage=Exhibitors.aspx&ParentBoothID=&ListByBooth=true&BoothID=105908",
      "address": {
        "text": "Murarrie,\nQLD\nAustralia",
        "iso2": "AU",
        "lat": -27.4568601,
        "lon": 153.0985626
      },
      "website": "http://www.bia5.com"
    },
    {
      "name": "BILT Incorporated",
      "exhibitorUrl": "https://s19.a2zinc.net/clients/ausa/annual2023/Public/eBooth.aspx?IndexInList=112&FromPage=Exhibitors.aspx&ParentBoothID=&ListByBooth=true&BoothID=105148",
      "address": {
        "text": "Grapevine,\nTX\nUnited States",
        "iso2": "US",
        "lat": 32.9342919,
        "lon": -97.0780654
      },
      "website": "https://BILTapp.com"
    },
    {
      "name": "BIRN A/S",
      "exhibitorUrl": "https://s19.a2zinc.net/clients/ausa/annual2023/Public/eBooth.aspx?IndexInList=113&FromPage=Exhibitors.aspx&ParentBoothID=&ListByBooth=true&BoothID=105877",
      "address": {
        "text": "Holstebro,\nDenmark",
        "iso2": "DK",
        "lat": 56.36153400000001,
        "lon": 8.621727
      },
      "website": "http://www.birn.com"
    },
    {
      "name": "BOH Solutions",
      "exhibitorUrl": "https://s19.a2zinc.net/clients/ausa/annual2023/Public/eBooth.aspx?IndexInList=122&FromPage=Exhibitors.aspx&ParentBoothID=&ListByBooth=true&BoothID=103892",
      "address": {
        "text": "Covington,\nLA\nUnited States",
        "iso2": "US",
        "lat": 30.4754702,
        "lon": -90.1009108
      },
      "website": "http://www.bohsolutions.com"
    },
    {
      "name": "BRELYON",
      "exhibitorUrl": "https://s19.a2zinc.net/clients/ausa/annual2023/Public/eBooth.aspx?IndexInList=128&FromPage=Exhibitors.aspx&ParentBoothID=&ListByBooth=true&BoothID=104923",
      "address": {
        "text": "San Mateo,\nCA\nUnited States",
        "iso2": "US",
        "lat": 37.5629917,
        "lon": -122.3255254
      },
      "website": "http://www.brelyon.com"
    },
    {
      "name": "Baker Industries, a Lincoln Electric Company",
      "exhibitorUrl": "https://s19.a2zinc.net/clients/ausa/annual2023/Public/eBooth.aspx?IndexInList=99&FromPage=Exhibitors.aspx&ParentBoothID=&ListByBooth=true&BoothID=105128",
      "address": {
        "text": "Macomb,\nMI\nUnited States",
        "iso2": "US",
        "lat": 42.6651965,
        "lon": -82.92864279999999
      },
      "website": "https://bakerindustriesinc.com"
    },
    {
      "name": "Bale Defence",
      "exhibitorUrl": "https://s19.a2zinc.net/clients/ausa/annual2023/Public/eBooth.aspx?IndexInList=100&FromPage=Exhibitors.aspx&ParentBoothID=&ListByBooth=true&BoothID=105907",
      "address": {
        "text": "Port Macquarie,\nNSW\nAustralia",
        "iso2": "AU",
        "lat": -31.4580174,
        "lon": 152.8974657
      },
      "website": "http://www.baledefence.com"
    },
    {
      "name": "Barrett Firearms Manufacturing, Inc.",
      "exhibitorUrl": "https://s19.a2zinc.net/clients/ausa/annual2023/Public/eBooth.aspx?IndexInList=101&FromPage=Exhibitors.aspx&ParentBoothID=&ListByBooth=true&BoothID=103561",
      "address": {
        "text": "Murfreesboro,\nTN\nUnited States",
        "iso2": "US",
        "lat": 35.8456213,
        "lon": -86.39027
      }
    },
    {
      "name": "Bascom Hunter",
      "exhibitorUrl": "https://s19.a2zinc.net/clients/ausa/annual2023/Public/eBooth.aspx?IndexInList=102&FromPage=Exhibitors.aspx&ParentBoothID=&ListByBooth=true&BoothID=105269",
      "address": {
        "text": "Baton Rouge,\nLA\nUnited States",
        "iso2": "US",
        "lat": 30.4514677,
        "lon": -91.18714659999999
      },
      "website": "https://bascomhunter.com"
    },
    {
      "name": "Battelle",
      "exhibitorUrl": "https://s19.a2zinc.net/clients/ausa/annual2023/Public/eBooth.aspx?IndexInList=103&FromPage=Exhibitors.aspx&ParentBoothID=&ListByBooth=true&BoothID=102341",
      "address": {
        "text": "Columbus,\nOH\nUnited States",
        "iso2": "US",
        "lat": 39.9611755,
        "lon": -82.99879419999999
      },
      "website": "https://www.battelle.org/markets/national-security"
    },
    {
      "name": "Belcan Government Solutions",
      "exhibitorUrl": "https://s19.a2zinc.net/clients/ausa/annual2023/Public/eBooth.aspx?IndexInList=104&FromPage=Exhibitors.aspx&ParentBoothID=&ListByBooth=true&BoothID=105633",
      "address": {
        "text": "Sterling,\nVA\nUnited States",
        "iso2": "US",
        "lat": 39.0066993,
        "lon": -77.4291298
      },
      "website": "https://www.belcan.com/solutions/government-solutions/"
    },
    {
      "name": "Bell",
      "exhibitorUrl": "https://s19.a2zinc.net/clients/ausa/annual2023/Public/eBooth.aspx?IndexInList=105&FromPage=Exhibitors.aspx&ParentBoothID=&ListByBooth=true&BoothID=104664",
      "address": {
        "text": "Fort Worth,\nTX\nUnited States",
        "iso2": "US",
        "lat": 32.7554883,
        "lon": -97.3307658
      }
    },
    {
      "name": "Benchmark",
      "exhibitorUrl": "https://s19.a2zinc.net/clients/ausa/annual2023/Public/eBooth.aspx?IndexInList=106&FromPage=Exhibitors.aspx&ParentBoothID=&ListByBooth=true&BoothID=105033",
      "address": {
        "text": "Tempe,\nAZ\nUnited States",
        "iso2": "US",
        "lat": 33.4255104,
        "lon": -111.9400054
      },
      "website": "http://bench.com/defense"
    },
    {
      "name": "Beretta USA Corp.",
      "exhibitorUrl": "https://s19.a2zinc.net/clients/ausa/annual2023/Public/eBooth.aspx?IndexInList=107&FromPage=Exhibitors.aspx&ParentBoothID=&ListByBooth=true&BoothID=102413",
      "address": {
        "text": "Accokeek,\nMD\nUnited States",
        "iso2": "US",
        "lat": 38.6676168,
        "lon": -77.0283092
      },
      "website": "http://www.berettadefensetechnologies.com"
    },
    {
      "name": "Beth-El Industries. Ltd.",
      "exhibitorUrl": "https://s19.a2zinc.net/clients/ausa/annual2023/Public/eBooth.aspx?IndexInList=109&FromPage=Exhibitors.aspx&ParentBoothID=&ListByBooth=true&BoothID=105855",
      "address": {
        "text": "Zikhron Yaaqov,\nIsrael",
        "iso2": "IL",
        "lat": 32.573905,
        "lon": 34.951977
      },
      "website": "https://www.beind.com"
    },
    {
      "name": "BigBear.ai",
      "exhibitorUrl": "https://s19.a2zinc.net/clients/ausa/annual2023/Public/eBooth.aspx?IndexInList=111&FromPage=Exhibitors.aspx&ParentBoothID=&ListByBooth=true&BoothID=104076",
      "address": {
        "text": "Columbia,\nMD\nUnited States",
        "iso2": "US",
        "lat": 39.2037144,
        "lon": -76.86104619999999
      }
    },
    {
      "name": "Bisalloy Steels",
      "exhibitorUrl": "https://s19.a2zinc.net/clients/ausa/annual2023/Public/eBooth.aspx?IndexInList=114&FromPage=Exhibitors.aspx&ParentBoothID=&ListByBooth=true&BoothID=105909",
      "address": {
        "text": "UNANDERRA,\nNSW\nAustralia",
        "iso2": "AU",
        "lat": -34.4545933,
        "lon": 150.8451519
      },
      "website": "http://www.bisalloy.com.au"
    },
    {
      "name": "Black Diamond Advanced Technology (BDATech)",
      "exhibitorUrl": "https://s19.a2zinc.net/clients/ausa/annual2023/Public/eBooth.aspx?IndexInList=115&FromPage=Exhibitors.aspx&ParentBoothID=&ListByBooth=true&BoothID=102309",
      "address": {
        "text": "Chandler,\nAZ\nUnited States",
        "iso2": "US",
        "lat": 33.3061605,
        "lon": -111.8412502
      },
      "website": "http://www.bdatech.com"
    },
    {
      "name": "Bliss Munitions Equipment",
      "exhibitorUrl": "https://s19.a2zinc.net/clients/ausa/annual2023/Public/eBooth.aspx?IndexInList=116&FromPage=Exhibitors.aspx&ParentBoothID=&ListByBooth=true&BoothID=105273",
      "address": {
        "text": "Kentwood,\nMI\nUnited States",
        "iso2": "US",
        "lat": 42.8694731,
        "lon": -85.64474919999999
      },
      "website": "https://blissmunitions.com"
    },
    {
      "name": "Blue Cross Blue Shield Association",
      "exhibitorUrl": "https://s19.a2zinc.net/clients/ausa/annual2023/Public/eBooth.aspx?IndexInList=117&FromPage=Exhibitors.aspx&ParentBoothID=&ListByBooth=true&BoothID=102261",
      "address": {
        "text": "Washington,\nDC\nUnited States",
        "iso2": "US",
        "lat": 38.9071923,
        "lon": -77.0368707
      },
      "website": "https://www.fepblue.org/our-plans/dental-vision"
    },
    {
      "name": "Blue Raven Solutions",
      "exhibitorUrl": "https://s19.a2zinc.net/clients/ausa/annual2023/Public/eBooth.aspx?IndexInList=118&FromPage=Exhibitors.aspx&ParentBoothID=&ListByBooth=true&BoothID=103153",
      "address": {
        "text": "Yonkers,\nNY\nUnited States",
        "iso2": "US",
        "lat": 40.9312099,
        "lon": -73.89874689999999
      }
    },
    {
      "name": "BlueHalo",
      "exhibitorUrl": "https://s19.a2zinc.net/clients/ausa/annual2023/Public/eBooth.aspx?IndexInList=119&FromPage=Exhibitors.aspx&ParentBoothID=&ListByBooth=true&BoothID=102196",
      "address": {
        "text": "Arlington,\nVA\nUnited States",
        "iso2": "US",
        "lat": 38.8816208,
        "lon": -77.09098089999999
      },
      "website": "https://bluehalo.com"
    },
    {
      "name": "BlueSky Innovations",
      "exhibitorUrl": "https://s19.a2zinc.net/clients/ausa/annual2023/Public/eBooth.aspx?IndexInList=120&FromPage=Exhibitors.aspx&ParentBoothID=&ListByBooth=true&BoothID=103309",
      "address": {
        "text": "Largo,\nFL\nUnited States",
        "iso2": "US",
        "lat": 27.9094665,
        "lon": -82.7873244
      },
      "website": "http://www.blueskyinnovations.com"
    },
    {
      "name": "Boeing Company",
      "exhibitorUrl": "https://s19.a2zinc.net/clients/ausa/annual2023/Public/eBooth.aspx?IndexInList=121&FromPage=Exhibitors.aspx&ParentBoothID=&ListByBooth=true&BoothID=102572",
      "address": {
        "text": "Arlington,\nVA\nUnited States",
        "iso2": "US",
        "lat": 38.8816208,
        "lon": -77.09098089999999
      }
    },
    {
      "name": "Bombardier Defense",
      "exhibitorUrl": "https://s19.a2zinc.net/clients/ausa/annual2023/Public/eBooth.aspx?IndexInList=123&FromPage=Exhibitors.aspx&ParentBoothID=&ListByBooth=true&BoothID=101888",
      "address": {
        "text": "Wichita,\nKS\nUnited States",
        "iso2": "US",
        "lat": 37.68717609999999,
        "lon": -97.33005299999999
      },
      "website": "http://www.defense.bombardier.com"
    },
    {
      "name": "Booz Allen Hamilton, Inc.",
      "exhibitorUrl": "https://s19.a2zinc.net/clients/ausa/annual2023/Public/eBooth.aspx?IndexInList=124&FromPage=Exhibitors.aspx&ParentBoothID=&ListByBooth=true&BoothID=101444",
      "address": {
        "text": "McLean,\nVA\nUnited States",
        "iso2": "US",
        "lat": 38.9338676,
        "lon": -77.1772604
      }
    },
    {
      "name": "Boresight Aerial Targets",
      "exhibitorUrl": "https://s19.a2zinc.net/clients/ausa/annual2023/Public/eBooth.aspx?IndexInList=125&FromPage=Exhibitors.aspx&ParentBoothID=&ListByBooth=true&BoothID=105910",
      "address": {
        "text": "Fyshwick,\nACT\nAustralia",
        "iso2": "AU",
        "lat": -35.3233205,
        "lon": 149.1693652
      },
      "website": "http://www.boresighttargets.com"
    },
    {
      "name": "Boston Dynamics",
      "exhibitorUrl": "https://s19.a2zinc.net/clients/ausa/annual2023/Public/eBooth.aspx?IndexInList=126&FromPage=Exhibitors.aspx&ParentBoothID=&ListByBooth=true&BoothID=104272",
      "address": {
        "text": "Waltham,\nMA\nUnited States",
        "iso2": "US",
        "lat": 42.3764852,
        "lon": -71.2356113
      }
    },
    {
      "name": "BrainGu",
      "exhibitorUrl": "https://s19.a2zinc.net/clients/ausa/annual2023/Public/eBooth.aspx?IndexInList=127&FromPage=Exhibitors.aspx&ParentBoothID=&ListByBooth=true&BoothID=105026",
      "address": {
        "text": "Grand Rapids,\nMI\nUnited States",
        "iso2": "US",
        "lat": 42.9633599,
        "lon": -85.6680863
      },
      "website": "https://www.braingu.com"
    },
    {
      "name": "Bren-Tronics, Inc.",
      "exhibitorUrl": "https://s19.a2zinc.net/clients/ausa/annual2023/Public/eBooth.aspx?IndexInList=129&FromPage=Exhibitors.aspx&ParentBoothID=&ListByBooth=true&BoothID=103446",
      "address": {
        "text": "Commack,\nNY\nUnited States",
        "iso2": "US",
        "lat": 40.8428759,
        "lon": -73.29289430000001
      },
      "website": "http://www.bren-tronics.com"
    },
    {
      "name": "C.E. Niehoff & Co",
      "exhibitorUrl": "https://s19.a2zinc.net/clients/ausa/annual2023/Public/eBooth.aspx?IndexInList=130&FromPage=Exhibitors.aspx&ParentBoothID=&ListByBooth=true&BoothID=104869",
      "address": {
        "text": "Evanston,\nIL\nUnited States",
        "iso2": "US",
        "lat": 42.0450722,
        "lon": -87.68769689999999
      },
      "website": "https://ceniehoff.com"
    },
    {
      "name": "CACI International Inc",
      "exhibitorUrl": "https://s19.a2zinc.net/clients/ausa/annual2023/Public/eBooth.aspx?IndexInList=131&FromPage=Exhibitors.aspx&ParentBoothID=&ListByBooth=true&BoothID=104679",
      "address": {
        "text": "Reston,\nVA\nUnited States",
        "iso2": "US",
        "lat": 38.9586307,
        "lon": -77.35700279999999
      },
      "website": "http://www.caci.com"
    },
    {
      "name": "CAES",
      "exhibitorUrl": "https://s19.a2zinc.net/clients/ausa/annual2023/Public/eBooth.aspx?IndexInList=132&FromPage=Exhibitors.aspx&ParentBoothID=&ListByBooth=true&BoothID=101866",
      "address": {
        "text": "Arlington,\nVA\nUnited States",
        "iso2": "US",
        "lat": 38.8816208,
        "lon": -77.09098089999999
      },
      "website": "http://caes.com"
    },
    {
      "name": "CANADA PAVILION",
      "exhibitorUrl": "https://s19.a2zinc.net/clients/ausa/annual2023/Public/eBooth.aspx?IndexInList=133&FromPage=Exhibitors.aspx&ParentBoothID=&ListByBooth=true&BoothID=103948",
      "address": {
        "text": "Washington,\nDC\nUnited States",
        "iso2": "US",
        "lat": 38.9071923,
        "lon": -77.0368707
      },
      "website": "http://tradecommissioner.gc.ca"
    },
    {
      "name": "CANiK",
      "exhibitorUrl": "https://s19.a2zinc.net/clients/ausa/annual2023/Public/eBooth.aspx?IndexInList=134&FromPage=Exhibitors.aspx&ParentBoothID=&ListByBooth=true&BoothID=104316",
      "address": {
        "text": "UMRANIYE,\nISTANBUL\nTurkey",
        "iso2": "TR",
        "lat": 41.03332899999999,
        "lon": 29.10136
      },
      "website": "https://www.canikarms.com"
    },
    {
      "name": "CDSG",
      "exhibitorUrl": "https://s19.a2zinc.net/clients/ausa/annual2023/Public/eBooth.aspx?IndexInList=142&FromPage=Exhibitors.aspx&ParentBoothID=&ListByBooth=true&BoothID=104908",
      "address": {
        "text": "Vancouver,\nWA\nUnited States",
        "iso2": "US",
        "lat": 45.6280277,
        "lon": -122.673865
      },
      "website": "http://cdsg.com"
    },
    {
      "name": "CEA Technologies Pty Limited",
      "exhibitorUrl": "https://s19.a2zinc.net/clients/ausa/annual2023/Public/eBooth.aspx?IndexInList=143&FromPage=Exhibitors.aspx&ParentBoothID=&ListByBooth=true&BoothID=106065",
      "address": {
        "text": "Fyshwick,\nACT\nAustralia",
        "iso2": "AU",
        "lat": -35.3233205,
        "lon": 149.1693652
      }
    },
    {
      "name": "CEIA USA, Ltd.",
      "exhibitorUrl": "https://s19.a2zinc.net/clients/ausa/annual2023/Public/eBooth.aspx?IndexInList=144&FromPage=Exhibitors.aspx&ParentBoothID=&ListByBooth=true&BoothID=103842",
      "address": {
        "text": "Hudson,\nOH\nUnited States",
        "iso2": "US",
        "lat": 41.240056,
        "lon": -81.44066699999999
      },
      "website": "https://www.ceia-usa.com"
    },
    {
      "name": "CGSC Foundation, Inc.",
      "exhibitorUrl": "https://s19.a2zinc.net/clients/ausa/annual2023/Public/eBooth.aspx?IndexInList=148&FromPage=Exhibitors.aspx&ParentBoothID=&ListByBooth=true&BoothID=106053",
      "address": {
        "text": "Fort Leavenworth,\nKS\nUnited States",
        "iso2": "US",
        "lat": 39.3527829,
        "lon": -94.9222099
      },
      "website": "http://www.cgscf.org"
    },
    {
      "name": "COGES",
      "exhibitorUrl": "https://s19.a2zinc.net/clients/ausa/annual2023/Public/eBooth.aspx?IndexInList=158&FromPage=Exhibitors.aspx&ParentBoothID=&ListByBooth=true&BoothID=105614",
      "address": {
        "text": "Paris,\nFrance",
        "iso2": "FR",
        "lat": 48.856614,
        "lon": 2.3522219
      },
      "website": "http://www.cogesevents.com"
    },
    {
      "name": "COMMTACT LTD",
      "exhibitorUrl": "https://s19.a2zinc.net/clients/ausa/annual2023/Public/eBooth.aspx?IndexInList=161&FromPage=Exhibitors.aspx&ParentBoothID=&ListByBooth=true&BoothID=105856",
      "address": {
        "text": "Yavne,\nIsrael",
        "iso2": "IL",
        "lat": 31.877958,
        "lon": 34.739449
      },
      "website": "https://commtact-systems.com"
    },
    {
      "name": "CRITICAL INFRASTRUCTURE TECHNOLOGIES",
      "exhibitorUrl": "https://s19.a2zinc.net/clients/ausa/annual2023/Public/eBooth.aspx?IndexInList=172&FromPage=Exhibitors.aspx&ParentBoothID=&ListByBooth=true&BoothID=105913",
      "address": {
        "text": "South Fremantle,\nWA\nAustralia",
        "iso2": "AU",
        "lat": -32.0739372,
        "lon": 115.7532221
      },
      "website": "http://www.citech.com.au"
    },
    {
      "name": "CTI INTL SOLUTIONS LTD.",
      "exhibitorUrl": "https://s19.a2zinc.net/clients/ausa/annual2023/Public/eBooth.aspx?IndexInList=175&FromPage=Exhibitors.aspx&ParentBoothID=&ListByBooth=true&BoothID=105665",
      "address": {
        "text": "Petach Tikva,\nIsrael",
        "iso2": "IL",
        "lat": 32.084041,
        "lon": 34.887762
      },
      "website": "http://www.cti-intl.co.il"
    },
    {
      "name": "Capewell",
      "exhibitorUrl": "https://s19.a2zinc.net/clients/ausa/annual2023/Public/eBooth.aspx?IndexInList=135&FromPage=Exhibitors.aspx&ParentBoothID=&ListByBooth=true&BoothID=105152",
      "address": {
        "text": "South Windsor,\nCT\nUnited States",
        "iso2": "US",
        "lat": 41.8489872,
        "lon": -72.57175509999999
      },
      "website": "http://www.capewell.com"
    },
    {
      "name": "Carahsoft",
      "exhibitorUrl": "https://s19.a2zinc.net/clients/ausa/annual2023/Public/eBooth.aspx?IndexInList=136&FromPage=Exhibitors.aspx&ParentBoothID=&ListByBooth=true&BoothID=105153",
      "address": {
        "text": "Reston,\nVA\nUnited States",
        "iso2": "US",
        "lat": 38.9586307,
        "lon": -77.35700279999999
      }
    },
    {
      "name": "Carmenta Inc.",
      "exhibitorUrl": "https://s19.a2zinc.net/clients/ausa/annual2023/Public/eBooth.aspx?IndexInList=137&FromPage=Exhibitors.aspx&ParentBoothID=&ListByBooth=true&BoothID=101795",
      "address": {
        "text": "Arlington,\nVA\nUnited States",
        "iso2": "US",
        "lat": 38.8816208,
        "lon": -77.09098089999999
      },
      "website": "http://carmenta.com"
    },
    {
      "name": "Carnegie Mellon University Software Engineering Institute",
      "exhibitorUrl": "https://s19.a2zinc.net/clients/ausa/annual2023/Public/eBooth.aspx?IndexInList=138&FromPage=Exhibitors.aspx&ParentBoothID=&ListByBooth=true&BoothID=105170",
      "address": {
        "text": "Pittsburgh,\nPA\nUnited States",
        "iso2": "US",
        "lat": 40.44062479999999,
        "lon": -79.9958864
      },
      "website": "http://www.sei.cmu.edu"
    },
    {
      "name": "Carson Industries",
      "exhibitorUrl": "https://s19.a2zinc.net/clients/ausa/annual2023/Public/eBooth.aspx?IndexInList=139&FromPage=Exhibitors.aspx&ParentBoothID=&ListByBooth=true&BoothID=103833",
      "address": {
        "text": "Alpharetta,\nGA\nUnited States",
        "iso2": "US",
        "lat": 34.0753762,
        "lon": -84.2940899
      },
      "website": "http://www.carson-industries.com"
    },
    {
      "name": "Casemate Publishers",
      "exhibitorUrl": "https://s19.a2zinc.net/clients/ausa/annual2023/Public/eBooth.aspx?IndexInList=140&FromPage=Exhibitors.aspx&ParentBoothID=&ListByBooth=true&BoothID=106088",
      "address": {
        "text": "Havertown,\nPA\nUnited States",
        "iso2": "US",
        "lat": 39.9763656,
        "lon": -75.3149796
      },
      "website": "https://www.casematepublishers.com"
    },
    {
      "name": "Caterpillar, Inc.",
      "exhibitorUrl": "https://s19.a2zinc.net/clients/ausa/annual2023/Public/eBooth.aspx?IndexInList=141&FromPage=Exhibitors.aspx&ParentBoothID=&ListByBooth=true&BoothID=101883",
      "address": {
        "text": "Peoria,\nIL\nUnited States",
        "iso2": "US",
        "lat": 40.6936488,
        "lon": -89.5889864
      },
      "website": "http://cat.com/defense"
    },
    {
      "name": "Celestica",
      "exhibitorUrl": "https://s19.a2zinc.net/clients/ausa/annual2023/Public/eBooth.aspx?IndexInList=145&FromPage=Exhibitors.aspx&ParentBoothID=&ListByBooth=true&BoothID=104152",
      "address": {
        "text": "Toronto,\nON\nCanada",
        "iso2": "CA",
        "lat": 43.653226,
        "lon": -79.3831843
      },
      "website": "http://www.celestica.com"
    },
    {
      "name": "Cenith Innovations",
      "exhibitorUrl": "https://s19.a2zinc.net/clients/ausa/annual2023/Public/eBooth.aspx?IndexInList=146&FromPage=Exhibitors.aspx&ParentBoothID=&ListByBooth=true&BoothID=105005",
      "address": {
        "text": "Sacramento,\nCA\nUnited States",
        "iso2": "US",
        "lat": 38.5815719,
        "lon": -121.4943996
      },
      "website": "http://www.cenithinnovations.com"
    },
    {
      "name": "Center for Personnel Claims Support",
      "exhibitorUrl": "https://s19.a2zinc.net/clients/ausa/annual2023/Public/eBooth.aspx?IndexInList=147&FromPage=Exhibitors.aspx&ParentBoothID=&ListByBooth=true&BoothID=103632",
      "address": {
        "text": "Fort Knox,\nKY\nUnited States",
        "iso2": "US",
        "lat": 37.8836637,
        "lon": -85.9652686
      }
    },
    {
      "name": "Chenega Corporation, MIOS SBU",
      "exhibitorUrl": "https://s19.a2zinc.net/clients/ausa/annual2023/Public/eBooth.aspx?IndexInList=149&FromPage=Exhibitors.aspx&ParentBoothID=&ListByBooth=true&BoothID=102426",
      "address": {
        "text": "Lorton,\nVA\nUnited States",
        "iso2": "US",
        "lat": 38.704282,
        "lon": -77.2277603
      },
      "website": "http://www.chenegamios.com"
    },
    {
      "name": "Cherokee Federal",
      "exhibitorUrl": "https://s19.a2zinc.net/clients/ausa/annual2023/Public/eBooth.aspx?IndexInList=150&FromPage=Exhibitors.aspx&ParentBoothID=&ListByBooth=true&BoothID=105043",
      "address": {
        "text": "Tulsa,\nOK\nUnited States",
        "iso2": "US",
        "lat": 36.1539816,
        "lon": -95.99277500000001
      },
      "website": "http://cherokee-federal.com"
    },
    {
      "name": "Choctaw Defense",
      "exhibitorUrl": "https://s19.a2zinc.net/clients/ausa/annual2023/Public/eBooth.aspx?IndexInList=151&FromPage=Exhibitors.aspx&ParentBoothID=&ListByBooth=true&BoothID=102422",
      "address": {
        "text": "McAlester,\nOK\nUnited States",
        "iso2": "US",
        "lat": 34.9334298,
        "lon": -95.76971309999999
      }
    },
    {
      "name": "Civil Affairs Association",
      "exhibitorUrl": "https://s19.a2zinc.net/clients/ausa/annual2023/Public/eBooth.aspx?IndexInList=152&FromPage=Exhibitors.aspx&ParentBoothID=&ListByBooth=true&BoothID=106054",
      "address": {
        "text": "Sanford,\nFL\nUnited States",
        "iso2": "US",
        "lat": 28.8028612,
        "lon": -81.269453
      },
      "website": "http://www.civilaffairsassoc.org"
    },
    {
      "name": "Clear Align",
      "exhibitorUrl": "https://s19.a2zinc.net/clients/ausa/annual2023/Public/eBooth.aspx?IndexInList=153&FromPage=Exhibitors.aspx&ParentBoothID=&ListByBooth=true&BoothID=105040",
      "address": {
        "text": "Eagleville,\nPA\nUnited States",
        "iso2": "US",
        "lat": 40.1595501,
        "lon": -75.4082385
      },
      "website": "https://clearalign.com/Contact-Clear-Align-custom-imaging-laser-systems-for-ISR"
    },
    {
      "name": "Club Beyond/Military Community Youth Ministries",
      "exhibitorUrl": "https://s19.a2zinc.net/clients/ausa/annual2023/Public/eBooth.aspx?IndexInList=154&FromPage=Exhibitors.aspx&ParentBoothID=&ListByBooth=true&BoothID=102292",
      "address": {
        "text": "Colorado Springs,\nCO\nUnited States",
        "iso2": "US",
        "lat": 38.8338816,
        "lon": -104.8213634
      },
      "website": "http://www.mcym.org"
    },
    {
      "name": "Cocoon Inc.",
      "exhibitorUrl": "https://s19.a2zinc.net/clients/ausa/annual2023/Public/eBooth.aspx?IndexInList=155&FromPage=Exhibitors.aspx&ParentBoothID=&ListByBooth=true&BoothID=101476",
      "address": {
        "text": "North Hampton,\nNH\nUnited States",
        "iso2": "US",
        "lat": 42.9737623,
        "lon": -70.8351792
      },
      "website": "http://www.cocoon-inc.com"
    },
    {
      "name": "Codan Communications",
      "exhibitorUrl": "https://s19.a2zinc.net/clients/ausa/annual2023/Public/eBooth.aspx?IndexInList=156&FromPage=Exhibitors.aspx&ParentBoothID=&ListByBooth=true&BoothID=105912",
      "address": {
        "text": "Mawson Lakes,\nSA\nAustralia",
        "iso2": "AU",
        "lat": -34.8111486,
        "lon": 138.6149026
      },
      "website": "http://www.CodanComms.com"
    },
    {
      "name": "Codemettle, LLC",
      "exhibitorUrl": "https://s19.a2zinc.net/clients/ausa/annual2023/Public/eBooth.aspx?IndexInList=157&FromPage=Exhibitors.aspx&ParentBoothID=&ListByBooth=true&BoothID=104913",
      "address": {
        "text": "Atlanta,\nGA\nUnited States",
        "iso2": "US",
        "lat": 33.748752,
        "lon": -84.38768449999999
      }
    },
    {
      "name": "Columbia Southern University",
      "exhibitorUrl": "https://s19.a2zinc.net/clients/ausa/annual2023/Public/eBooth.aspx?IndexInList=159&FromPage=Exhibitors.aspx&ParentBoothID=&ListByBooth=true&BoothID=104897",
      "address": {
        "text": "Orange Beach,\nAL\nUnited States",
        "iso2": "US",
        "lat": 30.2697033,
        "lon": -87.5867598
      }
    },
    {
      "name": "Comark",
      "exhibitorUrl": "https://s19.a2zinc.net/clients/ausa/annual2023/Public/eBooth.aspx?IndexInList=160&FromPage=Exhibitors.aspx&ParentBoothID=&ListByBooth=true&BoothID=104031",
      "address": {
        "text": "Milford,\nMA\nUnited States",
        "iso2": "US",
        "lat": 42.1398577,
        "lon": -71.5163049
      },
      "website": "https://comarkcorp.com"
    },
    {
      "name": "Compotech, Inc.",
      "exhibitorUrl": "https://s19.a2zinc.net/clients/ausa/annual2023/Public/eBooth.aspx?IndexInList=162&FromPage=Exhibitors.aspx&ParentBoothID=&ListByBooth=true&BoothID=105006",
      "address": {
        "text": "Brewer,\nME\nUnited States",
        "iso2": "US",
        "lat": 44.7967378,
        "lon": -68.7614246
      },
      "website": "https://compotechinc.com"
    },
    {
      "name": "CompuLink",
      "exhibitorUrl": "https://s19.a2zinc.net/clients/ausa/annual2023/Public/eBooth.aspx?IndexInList=163&FromPage=Exhibitors.aspx&ParentBoothID=&ListByBooth=true&BoothID=101896",
      "address": {
        "text": "Saint Petersburg,\nFL\nUnited States",
        "iso2": "US",
        "lat": 27.7676008,
        "lon": -82.64029149999999
      },
      "website": "http://www.compulink.com"
    },
    {
      "name": "Comrod, Inc.",
      "exhibitorUrl": "https://s19.a2zinc.net/clients/ausa/annual2023/Public/eBooth.aspx?IndexInList=164&FromPage=Exhibitors.aspx&ParentBoothID=&ListByBooth=true&BoothID=102170",
      "address": {
        "text": "Westlake,\nOH\nUnited States",
        "iso2": "US",
        "lat": 41.4553232,
        "lon": -81.9179173
      },
      "website": "http://www.comrod.com"
    },
    {
      "name": "Concept2 Inc.",
      "exhibitorUrl": "https://s19.a2zinc.net/clients/ausa/annual2023/Public/eBooth.aspx?IndexInList=165&FromPage=Exhibitors.aspx&ParentBoothID=&ListByBooth=true&BoothID=106102",
      "address": {
        "text": "Morrisville,\nVT\nUnited States",
        "iso2": "US",
        "lat": 44.5617189,
        "lon": -72.5984486
      },
      "website": "https://www.concept2.com"
    },
    {
      "name": "Connect Tech",
      "exhibitorUrl": "https://s19.a2zinc.net/clients/ausa/annual2023/Public/eBooth.aspx?IndexInList=166&FromPage=Exhibitors.aspx&ParentBoothID=&ListByBooth=true&BoothID=106160",
      "address": {
        "text": "Guelph,\nON\nCanada",
        "iso2": "CA",
        "lat": 43.5448048,
        "lon": -80.24816659999999
      },
      "website": "http://connecttech.com"
    },
    {
      "name": "Consortium Management Group, Inc.",
      "exhibitorUrl": "https://s19.a2zinc.net/clients/ausa/annual2023/Public/eBooth.aspx?IndexInList=167&FromPage=Exhibitors.aspx&ParentBoothID=&ListByBooth=true&BoothID=103997",
      "address": {
        "text": "Washington,\nDC\nUnited States",
        "iso2": "US",
        "lat": 38.9071923,
        "lon": -77.0368707
      },
      "website": "http://cmgcorp.org"
    },
    {
      "name": "Contact! Corporation",
      "exhibitorUrl": "https://s19.a2zinc.net/clients/ausa/annual2023/Public/eBooth.aspx?IndexInList=168&FromPage=Exhibitors.aspx&ParentBoothID=&ListByBooth=true&BoothID=101152",
      "address": {
        "text": "Winchester,\nVA\nUnited States",
        "iso2": "US",
        "lat": 39.1856597,
        "lon": -78.1633341
      },
      "website": "http://www.contactcorp.net"
    },
    {
      "name": "Control Solutions, LLC",
      "exhibitorUrl": "https://s19.a2zinc.net/clients/ausa/annual2023/Public/eBooth.aspx?IndexInList=169&FromPage=Exhibitors.aspx&ParentBoothID=&ListByBooth=true&BoothID=102061",
      "address": {
        "text": "Aurora,\nIL\nUnited States",
        "iso2": "US",
        "lat": 41.7605849,
        "lon": -88.32007150000001
      },
      "website": "http://www.controls.com"
    },
    {
      "name": "CopterPIX Ltd",
      "exhibitorUrl": "https://s19.a2zinc.net/clients/ausa/annual2023/Public/eBooth.aspx?IndexInList=170&FromPage=Exhibitors.aspx&ParentBoothID=&ListByBooth=true&BoothID=105650",
      "address": {
        "text": "Ashkelon,\nIsrael",
        "iso2": "IL",
        "lat": 31.6687885,
        "lon": 34.5742523
      },
      "website": "http://www.copterpix.pro"
    },
    {
      "name": "Crane Aerospace & Electronics",
      "exhibitorUrl": "https://s19.a2zinc.net/clients/ausa/annual2023/Public/eBooth.aspx?IndexInList=171&FromPage=Exhibitors.aspx&ParentBoothID=&ListByBooth=true&BoothID=104938",
      "address": {
        "text": "Lynnwood,\nWA\nUnited States",
        "iso2": "US",
        "lat": 47.8209301,
        "lon": -122.3151313
      }
    },
    {
      "name": "Cross Country Mortgage - Colorado Springs",
      "exhibitorUrl": "https://s19.a2zinc.net/clients/ausa/annual2023/Public/eBooth.aspx?IndexInList=173&FromPage=Exhibitors.aspx&ParentBoothID=&ListByBooth=true&BoothID=106041",
      "address": {
        "text": "Colorado Springs,\nCO\nUnited States",
        "iso2": "US",
        "lat": 38.8338816,
        "lon": -104.8213634
      }
    },
    {
      "name": "Crystal Group, Inc.",
      "exhibitorUrl": "https://s19.a2zinc.net/clients/ausa/annual2023/Public/eBooth.aspx?IndexInList=174&FromPage=Exhibitors.aspx&ParentBoothID=&ListByBooth=true&BoothID=103494",
      "address": {
        "text": "Hiawatha,\nIA\nUnited States",
        "iso2": "US",
        "lat": 42.0491958,
        "lon": -91.6815252
      },
      "website": "http://www.crystalrugged.com"
    },
    {
      "name": "Cubic Defense",
      "exhibitorUrl": "https://s19.a2zinc.net/clients/ausa/annual2023/Public/eBooth.aspx?IndexInList=176&FromPage=Exhibitors.aspx&ParentBoothID=&ListByBooth=true&BoothID=102013",
      "address": {
        "text": "San Diego,\nCA\nUnited States",
        "iso2": "US",
        "lat": 32.715738,
        "lon": -117.1610838
      },
      "website": "http://www.cubic.com/defense"
    },
    {
      "name": "Cuick Trac",
      "exhibitorUrl": "https://s19.a2zinc.net/clients/ausa/annual2023/Public/eBooth.aspx?IndexInList=177&FromPage=Exhibitors.aspx&ParentBoothID=&ListByBooth=true&BoothID=106142",
      "address": {
        "text": "EDINA,\nMN\nUnited States",
        "iso2": "US",
        "lat": 44.8896866,
        "lon": -93.3499489
      }
    },
    {
      "name": "Cummins Inc.",
      "exhibitorUrl": "https://s19.a2zinc.net/clients/ausa/annual2023/Public/eBooth.aspx?IndexInList=178&FromPage=Exhibitors.aspx&ParentBoothID=&ListByBooth=true&BoothID=101413",
      "address": {
        "text": "COLUMBUS,\nIN\nUnited States",
        "iso2": "US",
        "lat": 39.2014404,
        "lon": -85.9213796
      },
      "website": "http://cumminsengines.com/defense"
    },
    {
      "name": "Curtiss-Wright",
      "exhibitorUrl": "https://s19.a2zinc.net/clients/ausa/annual2023/Public/eBooth.aspx?IndexInList=179&FromPage=Exhibitors.aspx&ParentBoothID=&ListByBooth=true&BoothID=104775",
      "address": {
        "text": "Ashburn,\nVA\nUnited States",
        "iso2": "US",
        "lat": 39.0437567,
        "lon": -77.4874416
      },
      "website": "http://www.curtisswrightds.com"
    },
    {
      "name": "Custom Interface, Inc",
      "exhibitorUrl": "https://s19.a2zinc.net/clients/ausa/annual2023/Public/eBooth.aspx?IndexInList=180&FromPage=Exhibitors.aspx&ParentBoothID=&ListByBooth=true&BoothID=106168",
      "address": {
        "text": "Bingen,\nWA\nUnited States",
        "iso2": "US",
        "lat": 45.7148051,
        "lon": -121.466437
      },
      "website": "https://www.custominterfaceinc.com"
    },
    {
      "name": "Custom Power",
      "exhibitorUrl": "https://s19.a2zinc.net/clients/ausa/annual2023/Public/eBooth.aspx?IndexInList=181&FromPage=Exhibitors.aspx&ParentBoothID=&ListByBooth=true&BoothID=102260",
      "address": {
        "text": "Fountain Valley,\nCA\nUnited States",
        "iso2": "US",
        "lat": 33.7090212,
        "lon": -117.9544069
      },
      "website": "http://www.custompower.com"
    },
    {
      "name": "Custom Wheel Solutions LLC",
      "exhibitorUrl": "https://s19.a2zinc.net/clients/ausa/annual2023/Public/eBooth.aspx?IndexInList=182&FromPage=Exhibitors.aspx&ParentBoothID=&ListByBooth=true&BoothID=102312",
      "address": {
        "text": "Grosse Pointe,\nMI\nUnited States",
        "iso2": "US",
        "lat": 42.3861485,
        "lon": -82.9118591
      },
      "website": "http://cwswheels.com"
    },
    {
      "name": "Cyalume Technologies, Inc.",
      "exhibitorUrl": "https://s19.a2zinc.net/clients/ausa/annual2023/Public/eBooth.aspx?IndexInList=183&FromPage=Exhibitors.aspx&ParentBoothID=&ListByBooth=true&BoothID=103130",
      "address": {
        "text": "West Springfield,\nMA\nUnited States",
        "iso2": "US",
        "lat": 42.1070383,
        "lon": -72.6203675
      }
    },
    {
      "name": "Cydarm Technologies",
      "exhibitorUrl": "https://s19.a2zinc.net/clients/ausa/annual2023/Public/eBooth.aspx?IndexInList=184&FromPage=Exhibitors.aspx&ParentBoothID=&ListByBooth=true&BoothID=105914",
      "address": {
        "text": "Catonsville,\nMD\nUnited States",
        "iso2": "US",
        "lat": 39.2720509,
        "lon": -76.73191609999999
      },
      "website": "http://www.cydarm.com"
    },
    {
      "name": "D'Aniello Institute for Veterans and Military Families (IVMF)",
      "exhibitorUrl": "https://s19.a2zinc.net/clients/ausa/annual2023/Public/eBooth.aspx?IndexInList=189&FromPage=Exhibitors.aspx&ParentBoothID=&ListByBooth=true&BoothID=102295",
      "address": {
        "text": "Syracuse,\nNY\nUnited States",
        "iso2": "US",
        "lat": 43.0481221,
        "lon": -76.14742439999999
      },
      "website": "http://ivmf.syracuse.edu"
    },
    {
      "name": "D-Fend Solutions",
      "exhibitorUrl": "https://s19.a2zinc.net/clients/ausa/annual2023/Public/eBooth.aspx?IndexInList=208&FromPage=Exhibitors.aspx&ParentBoothID=&ListByBooth=true&BoothID=103680",
      "address": {
        "text": "McLean,\nVA\nUnited States",
        "iso2": "US",
        "lat": 38.9338676,
        "lon": -77.1772604
      },
      "website": "https://www.d-fendsolutions.com"
    },
    {
      "name": "D.I. Optical",
      "exhibitorUrl": "https://s19.a2zinc.net/clients/ausa/annual2023/Public/eBooth.aspx?IndexInList=185&FromPage=Exhibitors.aspx&ParentBoothID=&ListByBooth=true&BoothID=106121",
      "address": {
        "text": "Gyeonggi-do,\nKorea (South)",
        "iso2": "KR",
        "lat": 37.5289145,
        "lon": 127.1727772
      },
      "website": "http://www.donginoptical.com"
    },
    {
      "name": "DANBURY MISSION TECHNOLOGIES",
      "exhibitorUrl": "https://s19.a2zinc.net/clients/ausa/annual2023/Public/eBooth.aspx?IndexInList=187&FromPage=Exhibitors.aspx&ParentBoothID=&ListByBooth=true&BoothID=102931",
      "address": {
        "text": "Danbury,\nCT\nUnited States",
        "iso2": "US",
        "lat": 41.394817,
        "lon": -73.4540111
      }
    },
    {
      "name": "DANISH PAVILION",
      "exhibitorUrl": "https://s19.a2zinc.net/clients/ausa/annual2023/Public/eBooth.aspx?IndexInList=190&FromPage=Exhibitors.aspx&ParentBoothID=&ListByBooth=true&BoothID=101701",
      "address": {
        "text": "Copenhagen V,\nDenmark",
        "iso2": "DK",
        "lat": 55.6760968,
        "lon": 12.5683371
      },
      "website": "https://www.danskindustri.dk/medlemsforeninger/foreningssites/fos/om/vi-mener/"
    },
    {
      "name": "DCS Corporation",
      "exhibitorUrl": "https://s19.a2zinc.net/clients/ausa/annual2023/Public/eBooth.aspx?IndexInList=197&FromPage=Exhibitors.aspx&ParentBoothID=&ListByBooth=true&BoothID=104348",
      "address": {
        "text": "Alexandria,\nVA\nUnited States",
        "iso2": "US",
        "lat": 38.8048355,
        "lon": -77.0469214
      },
      "website": "http://www.dcscorp.com"
    },
    {
      "name": "DEFEA - Defense Exhibitions Athens",
      "exhibitorUrl": "https://s19.a2zinc.net/clients/ausa/annual2023/Public/eBooth.aspx?IndexInList=198&FromPage=Exhibitors.aspx&ParentBoothID=&ListByBooth=true&BoothID=105815",
      "address": {
        "text": "Pallini,\nGreece",
        "iso2": "GR",
        "lat": 38.00351029999999,
        "lon": 23.8835158
      }
    },
    {
      "name": "DESCHAMPS MATS SYSTEMS, INC",
      "exhibitorUrl": "https://s19.a2zinc.net/clients/ausa/annual2023/Public/eBooth.aspx?IndexInList=207&FromPage=Exhibitors.aspx&ParentBoothID=&ListByBooth=true&BoothID=105609",
      "address": {
        "text": "La Couronne,\nFrance",
        "iso2": "FR",
        "lat": 45.608466,
        "lon": 0.101397
      },
      "website": "http://www.mobi-mat.com"
    },
    {
      "name": "DFND",
      "exhibitorUrl": "https://s19.a2zinc.net/clients/ausa/annual2023/Public/eBooth.aspx?IndexInList=209&FromPage=Exhibitors.aspx&ParentBoothID=&ListByBooth=true&BoothID=106179",
      "address": {
        "text": "Irvine,\nCA\nUnited States",
        "iso2": "US",
        "lat": 33.6845673,
        "lon": -117.8265049
      },
      "website": "www.dfndusa.com"
    },
    {
      "name": "DPM Systems Technologies. Ltd.",
      "exhibitorUrl": "https://s19.a2zinc.net/clients/ausa/annual2023/Public/eBooth.aspx?IndexInList=213&FromPage=Exhibitors.aspx&ParentBoothID=&ListByBooth=true&BoothID=106038",
      "address": {
        "text": "N. PERAMOS,\nGreece",
        "iso2": "GR",
        "lat": 40.8385582,
        "lon": 24.3031958
      },
      "website": "https://www.dpmsystems.com"
    },
    {
      "name": "DTC Communications, Inc.",
      "exhibitorUrl": "https://s19.a2zinc.net/clients/ausa/annual2023/Public/eBooth.aspx?IndexInList=216&FromPage=Exhibitors.aspx&ParentBoothID=&ListByBooth=true&BoothID=101611",
      "address": {
        "text": "Ashburn,\nVA\nUnited States",
        "iso2": "US",
        "lat": 39.0437567,
        "lon": -77.4874416
      },
      "website": "http://www.domotactical.com"
    },
    {
      "name": "DUG Technology",
      "exhibitorUrl": "https://s19.a2zinc.net/clients/ausa/annual2023/Public/eBooth.aspx?IndexInList=218&FromPage=Exhibitors.aspx&ParentBoothID=&ListByBooth=true&BoothID=105917",
      "address": {
        "text": "West Perth,\nWA\nAustralia",
        "iso2": "AU",
        "lat": -31.9473071,
        "lon": 115.8464309
      },
      "website": "http://www.dug.com"
    },
    {
      "name": "Dagan-Optics Ltd.",
      "exhibitorUrl": "https://s19.a2zinc.net/clients/ausa/annual2023/Public/eBooth.aspx?IndexInList=186&FromPage=Exhibitors.aspx&ParentBoothID=&ListByBooth=true&BoothID=105666",
      "address": {
        "text": "Industrial Park Bar-Lev,\nIsrael",
        "iso2": "IL",
        "lat": 32.912411,
        "lon": 35.182709
      },
      "website": "http://www.dagan-optics.com"
    },
    {
      "name": "Daniel Defense LLC",
      "exhibitorUrl": "https://s19.a2zinc.net/clients/ausa/annual2023/Public/eBooth.aspx?IndexInList=188&FromPage=Exhibitors.aspx&ParentBoothID=&ListByBooth=true&BoothID=104090",
      "address": {
        "text": "Black Creek,\nGA\nUnited States",
        "iso2": "US",
        "lat": 32.165445,
        "lon": -81.48650789999999
      },
      "website": "https://danieldefense.com"
    },
    {
      "name": "Danner",
      "exhibitorUrl": "https://s19.a2zinc.net/clients/ausa/annual2023/Public/eBooth.aspx?IndexInList=191&FromPage=Exhibitors.aspx&ParentBoothID=&ListByBooth=true&BoothID=104035",
      "address": {
        "text": "Portland,\nOR\nUnited States",
        "iso2": "US",
        "lat": 45.515232,
        "lon": -122.6783853
      },
      "website": "http://lacrossefootwear.com"
    },
    {
      "name": "Dantherm",
      "exhibitorUrl": "https://s19.a2zinc.net/clients/ausa/annual2023/Public/eBooth.aspx?IndexInList=192&FromPage=Exhibitors.aspx&ParentBoothID=&ListByBooth=true&BoothID=105879",
      "address": {
        "text": "Skive,\nDenmark",
        "iso2": "DK",
        "lat": 56.5651232,
        "lon": 9.0309083
      },
      "website": "http://www.danthermgroup.com"
    },
    {
      "name": "Darley",
      "exhibitorUrl": "https://s19.a2zinc.net/clients/ausa/annual2023/Public/eBooth.aspx?IndexInList=193&FromPage=Exhibitors.aspx&ParentBoothID=&ListByBooth=true&BoothID=103737",
      "address": {
        "text": "Itasca,\nIL\nUnited States",
        "iso2": "US",
        "lat": 41.9750287,
        "lon": -88.0072909
      },
      "website": "https://www.darley.com"
    },
    {
      "name": "Data Device Corporation & Power Device Corporation",
      "exhibitorUrl": "https://s19.a2zinc.net/clients/ausa/annual2023/Public/eBooth.aspx?IndexInList=194&FromPage=Exhibitors.aspx&ParentBoothID=&ListByBooth=true&BoothID=101785",
      "address": {
        "text": "Bohemia,\nNY\nUnited States",
        "iso2": "US",
        "lat": 40.7692649,
        "lon": -73.1151117
      },
      "website": "http://www.ddc-web.com"
    },
    {
      "name": "Dataminr",
      "exhibitorUrl": "https://s19.a2zinc.net/clients/ausa/annual2023/Public/eBooth.aspx?IndexInList=195&FromPage=Exhibitors.aspx&ParentBoothID=&ListByBooth=true&BoothID=104347",
      "address": {
        "text": "New York,\nNY\nUnited States",
        "iso2": "US",
        "lat": 40.7127753,
        "lon": -74.0059728
      },
      "website": "http://www.dataminr.com"
    },
    {
      "name": "Day & Zimmermann",
      "exhibitorUrl": "https://s19.a2zinc.net/clients/ausa/annual2023/Public/eBooth.aspx?IndexInList=196&FromPage=Exhibitors.aspx&ParentBoothID=&ListByBooth=true&BoothID=101773",
      "address": {
        "text": "Philadelphia,\nPA\nUnited States",
        "iso2": "US",
        "lat": 39.9525839,
        "lon": -75.1652215
      },
      "website": "http://www.dayzim.com"
    },
    {
      "name": "DefendTex",
      "exhibitorUrl": "https://s19.a2zinc.net/clients/ausa/annual2023/Public/eBooth.aspx?IndexInList=199&FromPage=Exhibitors.aspx&ParentBoothID=&ListByBooth=true&BoothID=105915",
      "address": {
        "text": "Moab,\nUT\nUnited States",
        "iso2": "US",
        "lat": 38.5733155,
        "lon": -109.5498395
      },
      "website": "http://www.defendtex.com"
    },
    {
      "name": "Defense Commissary Agency",
      "exhibitorUrl": "https://s19.a2zinc.net/clients/ausa/annual2023/Public/eBooth.aspx?IndexInList=200&FromPage=Exhibitors.aspx&ParentBoothID=&ListByBooth=true&BoothID=102344",
      "address": {
        "text": "Fort Gregg-Adams,\nVA\nUnited States",
        "iso2": "US",
        "lat": 37.2485181,
        "lon": -77.3359603
      },
      "website": "https://www.commissaries.com"
    },
    {
      "name": "Defense Logistics Agency",
      "exhibitorUrl": "https://s19.a2zinc.net/clients/ausa/annual2023/Public/eBooth.aspx?IndexInList=201&FromPage=Exhibitors.aspx&ParentBoothID=&ListByBooth=true&BoothID=102387",
      "address": {
        "text": "Fort Belvoir,\nVA\nUnited States",
        "iso2": "US",
        "lat": 38.71887160000001,
        "lon": -77.15426839999999
      }
    },
    {
      "name": "Defense News",
      "exhibitorUrl": "https://s19.a2zinc.net/clients/ausa/annual2023/Public/eBooth.aspx?IndexInList=202&FromPage=Exhibitors.aspx&ParentBoothID=&ListByBooth=true&BoothID=103475",
      "address": {
        "text": "Arlington,\nVA\nUnited States",
        "iso2": "US",
        "lat": 38.8816208,
        "lon": -77.09098089999999
      }
    },
    {
      "name": "Defense News / Army Times",
      "exhibitorUrl": "https://s19.a2zinc.net/clients/ausa/annual2023/Public/eBooth.aspx?IndexInList=203&FromPage=Exhibitors.aspx&ParentBoothID=&ListByBooth=true&BoothID=106067",
      "address": {
        "text": "Arlington,\nVA\nUnited States",
        "iso2": "US",
        "lat": 38.8816208,
        "lon": -77.09098089999999
      },
      "website": "http://defensenews.com"
    },
    {
      "name": "Defense Security Cooperation Agency (DSCA)",
      "exhibitorUrl": "https://s19.a2zinc.net/clients/ausa/annual2023/Public/eBooth.aspx?IndexInList=204&FromPage=Exhibitors.aspx&ParentBoothID=&ListByBooth=true&BoothID=103629",
      "address": {
        "text": "Arlington,\nVA\nUnited States",
        "iso2": "US",
        "lat": 38.8816208,
        "lon": -77.09098089999999
      },
      "website": "https://www.dsca.mil"
    },
    {
      "name": "Deloitte",
      "exhibitorUrl": "https://s19.a2zinc.net/clients/ausa/annual2023/Public/eBooth.aspx?IndexInList=205&FromPage=Exhibitors.aspx&ParentBoothID=&ListByBooth=true&BoothID=103140",
      "address": {
        "text": "Arlington,\nVA\nUnited States",
        "iso2": "US",
        "lat": 38.8816208,
        "lon": -77.09098089999999
      },
      "website": "http://www.deloitte.com/us/federal"
    },
    {
      "name": "Department of Defense Military OneSource",
      "exhibitorUrl": "https://s19.a2zinc.net/clients/ausa/annual2023/Public/eBooth.aspx?IndexInList=206&FromPage=Exhibitors.aspx&ParentBoothID=&ListByBooth=true&BoothID=102291",
      "address": {
        "text": "Washington,\nDC\nUnited States",
        "iso2": "US",
        "lat": 38.9071923,
        "lon": -77.0368707
      }
    },
    {
      "name": "Diehl Defence GmbH & Co. KG",
      "exhibitorUrl": "https://s19.a2zinc.net/clients/ausa/annual2023/Public/eBooth.aspx?IndexInList=210&FromPage=Exhibitors.aspx&ParentBoothID=&ListByBooth=true&BoothID=105130",
      "address": {
        "text": "Ueberlingen,\nGermany",
        "iso2": "DE",
        "lat": 47.7661746,
        "lon": 9.1702772
      },
      "website": "https://www.diehl.com/defence"
    },
    {
      "name": "DittoLive Inc",
      "exhibitorUrl": "https://s19.a2zinc.net/clients/ausa/annual2023/Public/eBooth.aspx?IndexInList=211&FromPage=Exhibitors.aspx&ParentBoothID=&ListByBooth=true&BoothID=105027",
      "address": {
        "text": "San Francisco,\nCA\nUnited States",
        "iso2": "US",
        "lat": 37.7749295,
        "lon": -122.4194155
      },
      "website": "http://www.ditto.live"
    },
    {
      "name": "Donaldson",
      "exhibitorUrl": "https://s19.a2zinc.net/clients/ausa/annual2023/Public/eBooth.aspx?IndexInList=212&FromPage=Exhibitors.aspx&ParentBoothID=&ListByBooth=true&BoothID=102935",
      "address": {
        "text": "Minneapolis,\nMN\nUnited States",
        "iso2": "US",
        "lat": 44.977753,
        "lon": -93.2650108
      },
      "website": "http://www.donaldson.aero"
    },
    {
      "name": "Drip Drop Hydration",
      "exhibitorUrl": "https://s19.a2zinc.net/clients/ausa/annual2023/Public/eBooth.aspx?IndexInList=214&FromPage=Exhibitors.aspx&ParentBoothID=&ListByBooth=true&BoothID=106106",
      "address": {
        "text": "Oakland,\nCA\nUnited States",
        "iso2": "US",
        "lat": 37.8043514,
        "lon": -122.2711639
      },
      "website": "http://www.dripdrop.com"
    },
    {
      "name": "DroneShield",
      "exhibitorUrl": "https://s19.a2zinc.net/clients/ausa/annual2023/Public/eBooth.aspx?IndexInList=215&FromPage=Exhibitors.aspx&ParentBoothID=&ListByBooth=true&BoothID=105916",
      "address": {
        "text": "Haymarket,\nNSW\nAustralia",
        "iso2": "AU",
        "lat": -33.8803263,
        "lon": 151.2049173
      },
      "website": "http://www.droneshield.com"
    },
    {
      "name": "Ducommun Incorporated",
      "exhibitorUrl": "https://s19.a2zinc.net/clients/ausa/annual2023/Public/eBooth.aspx?IndexInList=217&FromPage=Exhibitors.aspx&ParentBoothID=&ListByBooth=true&BoothID=103058",
      "address": {
        "text": "Santa Ana,\nCA\nUnited States",
        "iso2": "US",
        "lat": 33.7454725,
        "lon": -117.867653
      },
      "website": "http://www.ducommun.com"
    },
    {
      "name": "Duroair Technologies USA Inc.",
      "exhibitorUrl": "https://s19.a2zinc.net/clients/ausa/annual2023/Public/eBooth.aspx?IndexInList=219&FromPage=Exhibitors.aspx&ParentBoothID=&ListByBooth=true&BoothID=102299",
      "address": {
        "text": "East Aurora,\nNY\nUnited States",
        "iso2": "US",
        "lat": 42.7678376,
        "lon": -78.6133589
      },
      "website": "http://duroair.com"
    },
    {
      "name": "Dynamit Nobel Defence",
      "exhibitorUrl": "https://s19.a2zinc.net/clients/ausa/annual2023/Public/eBooth.aspx?IndexInList=220&FromPage=Exhibitors.aspx&ParentBoothID=&ListByBooth=true&BoothID=103334",
      "address": {
        "text": "Burbach,\nGermany",
        "iso2": "DE",
        "lat": 50.7455764,
        "lon": 8.0803107
      },
      "website": "https://dn-defence.com"
    },
    {
      "name": "ECS Case",
      "exhibitorUrl": "https://s19.a2zinc.net/clients/ausa/annual2023/Public/eBooth.aspx?IndexInList=223&FromPage=Exhibitors.aspx&ParentBoothID=&ListByBooth=true&BoothID=104963",
      "address": {
        "text": "Grants Pass,\nOR\nUnited States",
        "iso2": "US",
        "lat": 42.4390069,
        "lon": -123.3283925
      }
    },
    {
      "name": "ECU Corporation",
      "exhibitorUrl": "https://s19.a2zinc.net/clients/ausa/annual2023/Public/eBooth.aspx?IndexInList=224&FromPage=Exhibitors.aspx&ParentBoothID=&ListByBooth=true&BoothID=102313",
      "address": {
        "text": "Cincinnati,\nOH\nUnited States",
        "iso2": "US",
        "lat": 39.1031182,
        "lon": -84.5120196
      },
      "website": "http://www.ecucorp.com"
    },
    {
      "name": "EIZO Rugged Solutions",
      "exhibitorUrl": "https://s19.a2zinc.net/clients/ausa/annual2023/Public/eBooth.aspx?IndexInList=226&FromPage=Exhibitors.aspx&ParentBoothID=&ListByBooth=true&BoothID=104354",
      "address": {
        "text": "Orlando,\nFL\nUnited States",
        "iso2": "US",
        "lat": 28.5383832,
        "lon": -81.3789269
      },
      "website": "http://www.eizorugged.com"
    },
    {
      "name": "ELFON LTD.",
      "exhibitorUrl": "https://s19.a2zinc.net/clients/ausa/annual2023/Public/eBooth.aspx?IndexInList=229&FromPage=Exhibitors.aspx&ParentBoothID=&ListByBooth=true&BoothID=105849",
      "address": {
        "text": "Pallini,\nGreece",
        "iso2": "GR",
        "lat": 38.00351029999999,
        "lon": 23.8835158
      },
      "website": "http://www.elfon.gr"
    },
    {
      "name": "EMCORE Corporation",
      "exhibitorUrl": "https://s19.a2zinc.net/clients/ausa/annual2023/Public/eBooth.aspx?IndexInList=233&FromPage=Exhibitors.aspx&ParentBoothID=&ListByBooth=true&BoothID=106076",
      "address": {
        "text": "Alhambra,\nCA\nUnited States",
        "iso2": "US",
        "lat": 34.095287,
        "lon": -118.1270146
      },
      "website": "http://emcore.com"
    },
    {
      "name": "EOS Defense Systems USA Inc.",
      "exhibitorUrl": "https://s19.a2zinc.net/clients/ausa/annual2023/Public/eBooth.aspx?IndexInList=240&FromPage=Exhibitors.aspx&ParentBoothID=&ListByBooth=true&BoothID=104336",
      "address": {
        "text": "Huntsville,\nAL\nUnited States",
        "iso2": "US",
        "lat": 34.7303688,
        "lon": -86.5861037
      },
      "website": "http://www.eosdsusa.com"
    },
    {
      "name": "EOTECH LLC",
      "exhibitorUrl": "https://s19.a2zinc.net/clients/ausa/annual2023/Public/eBooth.aspx?IndexInList=241&FromPage=Exhibitors.aspx&ParentBoothID=&ListByBooth=true&BoothID=102647",
      "address": {
        "text": "Plymouth,\nMI\nUnited States",
        "iso2": "US",
        "lat": 42.3714253,
        "lon": -83.4702132
      }
    },
    {
      "name": "ESS Inc",
      "exhibitorUrl": "https://s19.a2zinc.net/clients/ausa/annual2023/Public/eBooth.aspx?IndexInList=246&FromPage=Exhibitors.aspx&ParentBoothID=&ListByBooth=true&BoothID=106147",
      "address": {
        "text": "Hailey,\nID\nUnited States",
        "iso2": "US",
        "lat": 43.51962880000001,
        "lon": -114.3153245
      },
      "website": "https://esseyepro.com"
    },
    {
      "name": "ETL Co., Ltd.",
      "exhibitorUrl": "https://s19.a2zinc.net/clients/ausa/annual2023/Public/eBooth.aspx?IndexInList=247&FromPage=Exhibitors.aspx&ParentBoothID=&ListByBooth=true&BoothID=106126",
      "address": {
        "text": "Yangsan,\nKorea (South)",
        "iso2": "KR",
        "lat": 35.4018747,
        "lon": 129.0410269
      }
    },
    {
      "name": "EXO Charge",
      "exhibitorUrl": "https://s19.a2zinc.net/clients/ausa/annual2023/Public/eBooth.aspx?IndexInList=248&FromPage=Exhibitors.aspx&ParentBoothID=&ListByBooth=true&BoothID=102202",
      "address": {
        "text": "Addison,\nIL\nUnited States",
        "iso2": "US",
        "lat": 41.931696,
        "lon": -87.9889556
      },
      "website": "http://www.exocharge.com"
    },
    {
      "name": "EXTAG",
      "exhibitorUrl": "https://s19.a2zinc.net/clients/ausa/annual2023/Public/eBooth.aspx?IndexInList=249&FromPage=Exhibitors.aspx&ParentBoothID=&ListByBooth=true&BoothID=105920",
      "address": {
        "text": "Perth,\nWA\nAustralia",
        "iso2": "AU",
        "lat": -31.9523123,
        "lon": 115.861309
      },
      "website": "http://www.extag.com.au"
    },
    {
      "name": "EY",
      "exhibitorUrl": "https://s19.a2zinc.net/clients/ausa/annual2023/Public/eBooth.aspx?IndexInList=250&FromPage=Exhibitors.aspx&ParentBoothID=&ListByBooth=true&BoothID=103690",
      "address": {
        "text": "McLean,\nVA\nUnited States",
        "iso2": "US",
        "lat": 38.9338676,
        "lon": -77.1772604
      },
      "website": "https://www.ey.com"
    },
    {
      "name": "EarlyBirds",
      "exhibitorUrl": "https://s19.a2zinc.net/clients/ausa/annual2023/Public/eBooth.aspx?IndexInList=221&FromPage=Exhibitors.aspx&ParentBoothID=&ListByBooth=true&BoothID=105918",
      "address": {
        "text": "Forde,\nACT\nAustralia",
        "iso2": "AU",
        "lat": -35.1707595,
        "lon": 149.1441247
      },
      "website": "http://earlybirds.io"
    },
    {
      "name": "Echodyne",
      "exhibitorUrl": "https://s19.a2zinc.net/clients/ausa/annual2023/Public/eBooth.aspx?IndexInList=222&FromPage=Exhibitors.aspx&ParentBoothID=&ListByBooth=true&BoothID=104298",
      "address": {
        "text": "Kirkland,\nWA\nUnited States",
        "iso2": "US",
        "lat": 47.6768927,
        "lon": -122.2059833
      },
      "website": "http://echodyne.com"
    },