{
  "name": "AUSA 2023",
  "series": "AUSA",
  "edition": "2023",
  "startDate": "2023-10-09",
  "endDate": "2023-10-11",
  "website": "https://meetings.ausa.org/annual/2023/",
  "social": [
    {
      "platform": "facebook",
      "url": "https://www.facebook.com/AUSA.org"
    },
    {
      "platform": "twitter",
      "url": "https://twitter.com/ausaorg"
    },
    {
      "platform": "linkedin",
      "url": "https://www.linkedin.com/company/ausaorg/"
    },
    {
      "platform": "youtube",
      "url": "https://www.youtube.com/user/AUSANational"
    },
    {
      "platform": "instagram",
      "url": "https://www.instagram.com/ausaorg/"
    }
  ],
  "organiser": [
    {
      "name": "The Association of the United States Army",
      "website": "https://www.ausa.org/"
    }
  ],
  "exhibitorListUrl": "https://s19.a2zinc.net/clients/ausa/annual2023/Public/exhibitors.aspx",
  "exhibitorListDate": "2023-07-04T12:02:38+00:00",
  "exhibitor": [
    {
      "name": "3D Perception",
      "exhibitorUrl": "https://s19.a2zinc.net/clients/ausa/annual2023/Public/eBooth.aspx?IndexInList=0&FromPage=Exhibitors.aspx&ParentBoothID=&ListByBooth=true&BoothID=105165",
      "address": {
        "text": "Hvalstad,\nNorway",
        "iso2": "NO",
        "lat": 59.8576293,
        "lon": 10.4781181
      }
    },
    {
      "name": "ACTinBlack US, LLC",
      "exhibitorUrl": "https://s19.a2zinc.net/clients/ausa/annual2023/Public/eBooth.aspx?IndexInList=5&FromPage=Exhibitors.aspx&ParentBoothID=&ListByBooth=true&BoothID=103935",
      "address": {
        "text": "Fort Worth,\nTX\nUnited States",
        "iso2": "US",
        "lat": 32.7554883,
        "lon": -97.3307658
      },
      "website": "https://actinblack.com/us/"
    },
    {
      "name": "ADS, Inc.",
      "exhibitorUrl": "https://s19.a2zinc.net/clients/ausa/annual2023/Public/eBooth.aspx?IndexInList=7&FromPage=Exhibitors.aspx&ParentBoothID=&ListByBooth=true&BoothID=103652",
      "address": {
        "text": "Virginia Beach,\nVA\nUnited States",
        "iso2": "US",
        "lat": 36.8516437,
        "lon": -75.97921939999999
      },
      "website": "http://www.adstactical.com"
    },
    {
      "name": "ADYTON",
      "exhibitorUrl": "https://s19.a2zinc.net/clients/ausa/annual2023/Public/eBooth.aspx?IndexInList=11&FromPage=Exhibitors.aspx&ParentBoothID=&ListByBooth=true&BoothID=102307",
      "address": {
        "text": "Pflugerville,\nTX\nUnited States",
        "iso2": "US",
        "lat": 30.4548451,
        "lon": -97.6222665
      },
      "website": "https://www.adyton.io"
    },
    {
      "name": "AEVEX Aerospace",
      "exhibitorUrl": "https://s19.a2zinc.net/clients/ausa/annual2023/Public/eBooth.aspx?IndexInList=18&FromPage=Exhibitors.aspx&ParentBoothID=&ListByBooth=true&BoothID=105251",
      "address": {
        "text": "Solana Beach,\nCA\nUnited States",
        "iso2": "US",
        "lat": 32.991155,
        "lon": -117.2711481
      },
      "website": "http://www.aevexaerospace.com"
    },
    {
      "name": "AIRBUS",
      "exhibitorUrl": "https://s19.a2zinc.net/clients/ausa/annual2023/Public/eBooth.aspx?IndexInList=22&FromPage=Exhibitors.aspx&ParentBoothID=&ListByBooth=true&BoothID=103445",
      "address": {
        "text": "Herndon,\nVA\nUnited States",
        "iso2": "US",
        "lat": 38.9695545,
        "lon": -77.3860976
      }
    },
    {
      "name": "ALTUS LSA",
      "exhibitorUrl": "https://s19.a2zinc.net/clients/ausa/annual2023/Public/eBooth.aspx?IndexInList=30&FromPage=Exhibitors.aspx&ParentBoothID=&ListByBooth=true&BoothID=105873",
      "address": {
        "text": "Souda, Crete,\nGreece",
        "iso2": "GR",
        "lat": 35.4874818,
        "lon": 24.0742105
      },
      "website": "https://altus-lsa.com"
    },
    {
      "name": "AM General LLC",
      "exhibitorUrl": "https://s19.a2zinc.net/clients/ausa/annual2023/Public/eBooth.aspx?IndexInList=31&FromPage=Exhibitors.aspx&ParentBoothID=&ListByBooth=true&BoothID=101648",
      "address": {
        "text": "South Bend,\nIN\nUnited States",
        "iso2": "US",
        "lat": 41.6763545,
        "lon": -86.25198979999999
      },
      "website": "http://www.amgeneral.com"
    },
    {
      "name": "AMC/TRADOC Assembly Area",
      "exhibitorUrl": "https://s19.a2zinc.net/clients/ausa/annual2023/Public/eBooth.aspx?IndexInList=34&FromPage=Exhibitors.aspx&ParentBoothID=&ListByBooth=true&BoothID=102243",
      "address": {
        "text": "Redstone Arsenal,\nAL\nUnited States",
        "iso2": "US",
        "lat": 34.6950842,
        "lon": -86.65103289999999
      }
    },
    {
      "name": "APPI",
      "exhibitorUrl": "https://s19.a2zinc.net/clients/ausa/annual2023/Public/eBooth.aspx?IndexInList=42&FromPage=Exhibitors.aspx&ParentBoothID=&ListByBooth=true&BoothID=105605",
      "address": {
        "text": "Nimes,\nFrance",
        "iso2": "FR",
        "lat": 43.836699,
        "lon": 4.360054
      },
      "website": "http://www.appi-technology.com"
    },
    {
      "name": "AR Modular RF",
      "exhibitorUrl": "https://s19.a2zinc.net/clients/ausa/annual2023/Public/eBooth.aspx?IndexInList=47&FromPage=Exhibitors.aspx&ParentBoothID=&ListByBooth=true&BoothID=103975",
      "address": {
        "text": "Bothell,\nWA\nUnited States",
        "iso2": "US",
        "lat": 47.76011099999999,
        "lon": -122.2054452
      },
      "website": "http://arww-modularrf.com"
    },
    {
      "name": "ARA-Inc.",
      "exhibitorUrl": "https://s19.a2zinc.net/clients/ausa/annual2023/Public/eBooth.aspx?IndexInList=48&FromPage=Exhibitors.aspx&ParentBoothID=&ListByBooth=true&BoothID=103174",
      "address": {
        "text": "Nashua,\nNH\nUnited States",
        "iso2": "US",
        "lat": 42.7653662,
        "lon": -71.46756599999999
      },
      "website": "http://www.aqyrtech.com"
    },
    {
      "name": "ASA (ALT)/AFC Assembly Area",
      "exhibitorUrl": "https://s19.a2zinc.net/clients/ausa/annual2023/Public/eBooth.aspx?IndexInList=55&FromPage=Exhibitors.aspx&ParentBoothID=&ListByBooth=true&BoothID=102128",
      "address": {
        "text": "Washington,\nDC\nUnited States",
        "iso2": "US",
        "lat": 38.9071923,
        "lon": -77.0368707
      }
    },
    {
      "name": "ASRC Federal",
      "exhibitorUrl": "https://s19.a2zinc.net/clients/ausa/annual2023/Public/eBooth.aspx?IndexInList=57&FromPage=Exhibitors.aspx&ParentBoothID=&ListByBooth=true&BoothID=104291",
      "address": {
        "text": "Beltsville,\nMD\nUnited States",
        "iso2": "US",
        "lat": 39.0348317,
        "lon": -76.9074739
      }
    },
    {
      "name": "ATI (Allegheny Technologies Incorporated)",
      "exhibitorUrl": "https://s19.a2zinc.net/clients/ausa/annual2023/Public/eBooth.aspx?IndexInList=59&FromPage=Exhibitors.aspx&ParentBoothID=&ListByBooth=true&BoothID=103450",
      "address": {
        "text": "Pittsburgh,\nPA\nUnited States",
        "iso2": "US",
        "lat": 40.44062479999999,
        "lon": -79.9958864
      },
      "website": "http://www.atimetals.com"
    },
    {
      "name": "AUSTRALIAN PAVILION",
      "exhibitorUrl": "https://s19.a2zinc.net/clients/ausa/annual2023/Public/eBooth.aspx?IndexInList=61&FromPage=Exhibitors.aspx&ParentBoothID=&ListByBooth=true&BoothID=104802",
      "address": {
        "text": "Canberra,\nAustralia",
        "iso2": "AU",
        "lat": -35.2801903,
        "lon": 149.1310038
      },
      "website": "http://www.defence.gov.au"
    },
    {
      "name": "AZAK",
      "exhibitorUrl": "https://s19.a2zinc.net/clients/ausa/annual2023/Public/eBooth.aspx?IndexInList=67&FromPage=Exhibitors.aspx&ParentBoothID=&ListByBooth=true&BoothID=102364",
      "address": {
        "text": "Driggs,\nID\nUnited States",
        "iso2": "US",
        "lat": 43.72312160000001,
        "lon": -111.1110708
      },
      "website": "http://azak.co"
    },
    {
      "name": "Abaco Systems, Inc.",
      "exhibitorUrl": "https://s19.a2zinc.net/clients/ausa/annual2023/Public/eBooth.aspx?IndexInList=1&FromPage=Exhibitors.aspx&ParentBoothID=&ListByBooth=true&BoothID=104181",
      "address": {
        "text": "Huntsville,\nAL\nUnited States",
        "iso2": "US",
        "lat": 34.7303688,
        "lon": -86.5861037
      },
      "website": "http://www.abaco.com"
    },
    {
      "name": "Acapulka",
      "exhibitorUrl": "https://s19.a2zinc.net/clients/ausa/annual2023/Public/eBooth.aspx?IndexInList=2&FromPage=Exhibitors.aspx&ParentBoothID=&ListByBooth=true&BoothID=105166",
      "address": {
        "text": "Gvarv,\nNorway",
        "iso2": "NO",
        "lat": 59.38787550000001,
        "lon": 9.170028199999999
      }
    },
    {
      "name": "Accenture Federal Services",
      "exhibitorUrl": "https://s19.a2zinc.net/clients/ausa/annual2023/Public/eBooth.aspx?IndexInList=3&FromPage=Exhibitors.aspx&ParentBoothID=&ListByBooth=true&BoothID=103142",
      "address": {
        "text": "Arlington,\nVA\nUnited States",
        "iso2": "US",
        "lat": 38.8816208,
        "lon": -77.09098089999999
      },
      "website": "http://www.accenture.com"
    },
    {
      "name": "Accurate Energetic Systems, LLC",
      "exhibitorUrl": "https://s19.a2zinc.net/clients/ausa/annual2023/Public/eBooth.aspx?IndexInList=4&FromPage=Exhibitors.aspx&ParentBoothID=&ListByBooth=true&BoothID=103855",
      "address": {
        "text": "Mc Ewen,\nTN\nUnited States",
        "iso2": "US",
        "lat": 36.1078375,
        "lon": -87.63307449999999
      },
      "website": "http://www.aesys.biz"
    },
    {
      "name": "Action Electronics",
      "exhibitorUrl": "https://s19.a2zinc.net/clients/ausa/annual2023/Public/eBooth.aspx?IndexInList=6&FromPage=Exhibitors.aspx&ParentBoothID=&ListByBooth=true&BoothID=102354",
      "address": {
        "text": "Walpole ,\nMA\nUnited States",
        "iso2": "US",
        "lat": 42.1417442,
        "lon": -71.2495096
      },
      "website": "https://actionelectronics.com"
    },
    {
      "name": "Advanced Cooling Technologies, Inc.",
      "exhibitorUrl": "https://s19.a2zinc.net/clients/ausa/annual2023/Public/eBooth.aspx?IndexInList=8&FromPage=Exhibitors.aspx&ParentBoothID=&ListByBooth=true&BoothID=102989",
      "address": {
        "text": "Lancaster,\nPA\nUnited States",
        "iso2": "US",
        "lat": 40.0378755,
        "lon": -76.3055144
      },
      "website": "https://www.1-act.com"
    },
    {
      "name": "Advanced Technology International (ATI)",
      "exhibitorUrl": "https://s19.a2zinc.net/clients/ausa/annual2023/Public/eBooth.aspx?IndexInList=9&FromPage=Exhibitors.aspx&ParentBoothID=&ListByBooth=true&BoothID=104850",
      "address": {
        "text": "Summerville,\nSC\nUnited States",
        "iso2": "US",
        "lat": 33.0185039,
        "lon": -80.17564809999999
      },
      "website": "http://www.ati.org"
    },
    {
      "name": "Advantech Corp.",
      "exhibitorUrl": "https://s19.a2zinc.net/clients/ausa/annual2023/Public/eBooth.aspx?IndexInList=10&FromPage=Exhibitors.aspx&ParentBoothID=&ListByBooth=true&BoothID=103163",
      "address": {
        "text": "Irvine,\nCA\nUnited States",
        "iso2": "US",
        "lat": 33.6845673,
        "lon": -117.8265049
      },
      "website": "http://www.advantechusa.com/military"
    },
    {
      "name": "AeroGlow LLC",
      "exhibitorUrl": "https://s19.a2zinc.net/clients/ausa/annual2023/Public/eBooth.aspx?IndexInList=12&FromPage=Exhibitors.aspx&ParentBoothID=&ListByBooth=true&BoothID=103951",
      "address": {
        "text": "Fredericksburg,\nVA\nUnited States",
        "iso2": "US",
        "lat": 38.3031837,
        "lon": -77.4605399
      },
      "website": "http://www.aeroglowinternational.com"
    },
    {
      "name": "AeroVironment, Inc.",
      "exhibitorUrl": "https://s19.a2zinc.net/clients/ausa/annual2023/Public/eBooth.aspx?IndexInList=17&FromPage=Exhibitors.aspx&ParentBoothID=&ListByBooth=true&BoothID=104496",
      "address": {
        "text": "Monrovia,\nCA\nUnited States",
        "iso2": "US",
        "lat": 34.1442616,
        "lon": -118.0019482
      },
      "website": "http://www.avinc.com"
    },
    {
      "name": "Aerojet Rocketdyne",
      "exhibitorUrl": "https://s19.a2zinc.net/clients/ausa/annual2023/Public/eBooth.aspx?IndexInList=13&FromPage=Exhibitors.aspx&ParentBoothID=&ListByBooth=true&BoothID=101663",
      "address": {
        "text": "Arlington,\nVA\nUnited States",
        "iso2": "US",
        "lat": 38.8816208,
        "lon": -77.09098089999999
      },
      "website": "http://www.rocket.com"
    },
    {
      "name": "Aeronix, Inc",
      "exhibitorUrl": "https://s19.a2zinc.net/clients/ausa/annual2023/Public/eBooth.aspx?IndexInList=14&FromPage=Exhibitors.aspx&ParentBoothID=&ListByBooth=true&BoothID=105649",
      "address": {
        "text": "Melbourne,\nFL\nUnited States",
        "iso2": "US",
        "lat": 28.0836269,
        "lon": -80.60810889999999
      },
      "website": "www.aeronix.com"
    },
    {
      "name": "Aeroservices S.A.",
      "exhibitorUrl": "https://s19.a2zinc.net/clients/ausa/annual2023/Public/eBooth.aspx?IndexInList=15&FromPage=Exhibitors.aspx&ParentBoothID=&ListByBooth=true&BoothID=105847",
      "address": {
        "text": "Megara,\nGreece",
        "iso2": "GR",
        "lat": 37.9943201,
        "lon": 23.3430496
      },
      "website": "https://www.aeroservices.gr"
    },
    {
      "name": "Aerospace Management and Support PCC (AMS AERO)",
      "exhibitorUrl": "https://s19.a2zinc.net/clients/ausa/annual2023/Public/eBooth.aspx?IndexInList=16&FromPage=Exhibitors.aspx&ParentBoothID=&ListByBooth=true&BoothID=105844",
      "address": {
        "text": "Spata,\nGreece",
        "iso2": "GR",
        "lat": 37.96464080000001,
        "lon": 23.9070776
      },
      "website": "http://www.amsaero.eu"
    },
    {
      "name": "AimLock Inc.",
      "exhibitorUrl": "https://s19.a2zinc.net/clients/ausa/annual2023/Public/eBooth.aspx?IndexInList=19&FromPage=Exhibitors.aspx&ParentBoothID=&ListByBooth=true&BoothID=104306",
      "address": {
        "text": "Littleton,\nCO\nUnited States",
        "iso2": "US",
        "lat": 39.613321,
        "lon": -105.0166498
      },
      "website": "http://www.aim-lock.com"
    },
    {
      "name": "Aimpoint Inc.",
      "exhibitorUrl": "https://s19.a2zinc.net/clients/ausa/annual2023/Public/eBooth.aspx?IndexInList=20&FromPage=Exhibitors.aspx&ParentBoothID=&ListByBooth=true&BoothID=103941",
      "address": {
        "text": "Manassas,\nVA\nUnited States",
        "iso2": "US",
        "lat": 38.7509488,
        "lon": -77.47526669999999
      },
      "website": "http://www.aimpoint.com"
    },
    {
      "name": "Airborne Systems",
      "exhibitorUrl": "https://s19.a2zinc.net/clients/ausa/annual2023/Public/eBooth.aspx?IndexInList=21&FromPage=Exhibitors.aspx&ParentBoothID=&ListByBooth=true&BoothID=104492",
      "address": {
        "text": "Pennsauken,\nNJ\nUnited States",
        "iso2": "US",
        "lat": 39.9562052,
        "lon": -75.058009
      },
      "website": "http://www.airborne-sys.com"
    },
    {
      "name": "Akmon S.A.",
      "exhibitorUrl": "https://s19.a2zinc.net/clients/ausa/annual2023/Public/eBooth.aspx?IndexInList=23&FromPage=Exhibitors.aspx&ParentBoothID=&ListByBooth=true&BoothID=105848",
      "address": {
        "text": "Ano Liossia,\nGreece",
        "iso2": "GR",
        "lat": 38.0810715,
        "lon": 23.697774
      },
      "website": "https://akmonsa.gr"
    },
    {
      "name": "Alaska Defense",
      "exhibitorUrl": "https://s19.a2zinc.net/clients/ausa/annual2023/Public/eBooth.aspx?IndexInList=24&FromPage=Exhibitors.aspx&ParentBoothID=&ListByBooth=true&BoothID=103828",
      "address": {
        "text": "Scottsdale,\nAZ\nUnited States",
        "iso2": "US",
        "lat": 33.4948764,
        "lon": -111.9216734
      },
      "website": "https://www.alaskadefense.com"
    },
    {
      "name": "Alien Gear Holsters",
      "exhibitorUrl": "https://s19.a2zinc.net/clients/ausa/annual2023/Public/eBooth.aspx?IndexInList=25&FromPage=Exhibitors.aspx&ParentBoothID=&ListByBooth=true&BoothID=105272",
      "address": {
        "text": "Post Falls,\nID\nUnited States",
        "iso2": "US",
        "lat": 47.7179578,
        "lon": -116.9515856
      },
      "website": "aliengearholsters.com"
    },
    {
      "name": "Allied Motion Technologies",
      "exhibitorUrl": "https://s19.a2zinc.net/clients/ausa/annual2023/Public/eBooth.aspx?IndexInList=26&FromPage=Exhibitors.aspx&ParentBoothID=&ListByBooth=true&BoothID=104026",
      "address": {
        "text": "Amherst,\nNY\nUnited States",
        "iso2": "US",
        "lat": 42.9754691,
        "lon": -78.7922335
      },
      "website": "http://www.alliedmotion.com"
    },
    {
      "name": "Allison Transmission, Inc.",
      "exhibitorUrl": "https://s19.a2zinc.net/clients/ausa/annual2023/Public/eBooth.aspx?IndexInList=27&FromPage=Exhibitors.aspx&ParentBoothID=&ListByBooth=true&BoothID=101621",
      "address": {
        "text": "Indianapolis,\nIN\nUnited States",
        "iso2": "US",
        "lat": 39.768403,
        "lon": -86.158068
      }
    },
    {
      "name": "Altaeros",
      "exhibitorUrl": "https://s19.a2zinc.net/clients/ausa/annual2023/Public/eBooth.aspx?IndexInList=28&FromPage=Exhibitors.aspx&ParentBoothID=&ListByBooth=true&BoothID=104951",
      "address": {
        "text": "Somerville,\nMA\nUnited States",
        "iso2": "US",
        "lat": 42.3875968,
        "lon": -71.0994968
      },
      "website": "http://www.altaeros.com"
    },
    {
      "name": "Althom Engineering EPE",
      "exhibitorUrl": "https://s19.a2zinc.net/clients/ausa/annual2023/Public/eBooth.aspx?IndexInList=29&FromPage=Exhibitors.aspx&ParentBoothID=&ListByBooth=true&BoothID=105845",
      "address": {
        "text": "Patras,\nAchaia\nGreece",
        "iso2": "GR",
        "lat": 38.2466395,
        "lon": 21.734574
      },
      "website": "http://www.althom.eu"
    },
    {
      "name": "Amazon Business",
      "exhibitorUrl": "https://s19.a2zinc.net/clients/ausa/annual2023/Public/eBooth.aspx?IndexInList=32&FromPage=Exhibitors.aspx&ParentBoothID=&ListByBooth=true&BoothID=102020",
      "address": {
        "text": "Atlanta,\nGA\nUnited States",
        "iso2": "US",
        "lat": 33.748752,
        "lon": -84.38768449999999
      },
      "website": "https://business.amazon.com/en/work-with-us/government"
    },
    {
      "name": "Amazon Web Services",
      "exhibitorUrl": "https://s19.a2zinc.net/clients/ausa/annual2023/Public/eBooth.aspx?IndexInList=33&FromPage=Exhibitors.aspx&ParentBoothID=&ListByBooth=true&BoothID=101236",
      "address": {
        "text": "Herndon,\nVA\nUnited States",
        "iso2": "US",
        "lat": 38.9695545,
        "lon": -77.3860976
      },
      "website": "http://aws.amazon.com"
    },
    {
      "name": "Amentum",
      "exhibitorUrl": "https://s19.a2zinc.net/clients/ausa/annual2023/Public/eBooth.aspx?IndexInList=35&FromPage=Exhibitors.aspx&ParentBoothID=&ListByBooth=true&BoothID=102877",
      "address": {
        "text": "Germantown,\nMD\nUnited States",
        "iso2": "US",
        "lat": 39.1731621,
        "lon": -77.2716502
      },
      "website": "http://www.aecom.com"
    },
    {
      "name": "Amerex Defense",
      "exhibitorUrl": "https://s19.a2zinc.net/clients/ausa/annual2023/Public/eBooth.aspx?IndexInList=36&FromPage=Exhibitors.aspx&ParentBoothID=&ListByBooth=true&BoothID=103678",
      "address": {
        "text": "Trussville,\nAL\nUnited States",
        "iso2": "US",
        "lat": 33.6198251,
        "lon": -86.60887559999999
      },
      "website": "http://www.amerex-fire.com"
    },
    {
      "name": "American Freedom Foundation",
      "exhibitorUrl": "https://s19.a2zinc.net/clients/ausa/annual2023/Public/eBooth.aspx?IndexInList=37&FromPage=Exhibitors.aspx&ParentBoothID=&ListByBooth=true&BoothID=102323",
      "address": {
        "text": "Riverview,\nFL\nUnited States",
        "iso2": "US",
        "lat": 27.8661364,
        "lon": -82.32648089999999
      }
    },
    {
      "name": "American Rheinmetall",
      "exhibitorUrl": "https://s19.a2zinc.net/clients/ausa/annual2023/Public/eBooth.aspx?IndexInList=38&FromPage=Exhibitors.aspx&ParentBoothID=&ListByBooth=true&BoothID=103076",
      "address": {
        "text": "Biddeford,\nME\nUnited States",
        "iso2": "US",
        "lat": 43.4925843,
        "lon": -70.45338439999999
      },
      "website": "http://www.rheinmetall-defence.com"
    },
    {
      "name": "Amphenol Military and Aerospace Operations",
      "exhibitorUrl": "https://s19.a2zinc.net/clients/ausa/annual2023/Public/eBooth.aspx?IndexInList=39&FromPage=Exhibitors.aspx&ParentBoothID=&ListByBooth=true&BoothID=101497",
      "address": {
        "text": "Sidney,\nNY\nUnited States",
        "iso2": "US",
        "lat": 42.3148024,
        "lon": -75.39156650000001
      },
      "website": "http://www.amphenolmao.com"
    },
    {
      "name": "Anduril",
      "exhibitorUrl": "https://s19.a2zinc.net/clients/ausa/annual2023/Public/eBooth.aspx?IndexInList=40&FromPage=Exhibitors.aspx&ParentBoothID=&ListByBooth=true&BoothID=104303",
      "address": {
        "text": "Irvine,\nCA\nUnited States",
        "iso2": "US",
        "lat": 33.6845673,
        "lon": -117.8265049
      },
      "website": "http://anduril.com"
    },
    {
      "name": "Ansys",
      "exhibitorUrl": "https://s19.a2zinc.net/clients/ausa/annual2023/Public/eBooth.aspx?IndexInList=41&FromPage=Exhibitors.aspx&ParentBoothID=&ListByBooth=true&BoothID=103895",
      "address": {
        "text": "Exton,\nPA\nUnited States",
        "iso2": "US",
        "lat": 40.0325817,
        "lon": -75.6274583
      },
      "website": "http://www.ansys.com"
    },
    {
      "name": "Appian",
      "exhibitorUrl": "https://s19.a2zinc.net/clients/ausa/annual2023/Public/eBooth.aspx?IndexInList=43&FromPage=Exhibitors.aspx&ParentBoothID=&ListByBooth=true&BoothID=105172",
      "address": {
        "text": "McLean,\nVA\nUnited States",
        "iso2": "US",
        "lat": 38.9338676,
        "lon": -77.1772604
      }
    },
    {
      "name": "Applied Companies",
      "exhibitorUrl": "https://s19.a2zinc.net/clients/ausa/annual2023/Public/eBooth.aspx?IndexInList=44&FromPage=Exhibitors.aspx&ParentBoothID=&ListByBooth=true&BoothID=103798",
      "address": {
        "text": "Valencia,\nCA\nUnited States",
        "iso2": "US",
        "lat": 34.419837,
        "lon": -118.5627013
      }
    },
    {
      "name": "Applied Intuition",
      "exhibitorUrl": "https://s19.a2zinc.net/clients/ausa/annual2023/Public/eBooth.aspx?IndexInList=45&FromPage=Exhibitors.aspx&ParentBoothID=&ListByBooth=true&BoothID=104947",
      "address": {
        "text": "Mountain View,\nCA\nUnited States",
        "iso2": "US",
        "lat": 37.3860517,
        "lon": -122.0838511
      },
      "website": "https://www.appliedintuition.com"
    },
    {
      "name": "Applied Research Associates, Inc.",
      "exhibitorUrl": "https://s19.a2zinc.net/clients/ausa/annual2023/Public/eBooth.aspx?IndexInList=46&FromPage=Exhibitors.aspx&ParentBoothID=&ListByBooth=true&BoothID=105115",
      "address": {
        "text": "Albuquerque,\nNM\nUnited States",
        "iso2": "US",
        "lat": 35.0843859,
        "lon": -106.650422
      },
      "website": "http://www.ara.com"
    },
    {
      "name": "Arete Associates",
      "exhibitorUrl": "https://s19.a2zinc.net/clients/ausa/annual2023/Public/eBooth.aspx?IndexInList=49&FromPage=Exhibitors.aspx&ParentBoothID=&ListByBooth=true&BoothID=103932",
      "address": {
        "text": "Longmont,\nCO\nUnited States",
        "iso2": "US",
        "lat": 40.1672068,
        "lon": -105.1019275
      },
      "website": "http://www.arete.com"
    },
    {
      "name": "ArmorWorks",
      "exhibitorUrl": "https://s19.a2zinc.net/clients/ausa/annual2023/Public/eBooth.aspx?IndexInList=50&FromPage=Exhibitors.aspx&ParentBoothID=&ListByBooth=true&BoothID=103086",
      "address": {
        "text": "Chandler,\nAZ\nUnited States",
        "iso2": "US",
        "lat": 33.3061605,
        "lon": -111.8412502
      },
      "website": "http://www.armorworks.com"
    },
    {
      "name": "Army Air Force Exchange Service",
      "exhibitorUrl": "https://s19.a2zinc.net/clients/ausa/annual2023/Public/eBooth.aspx?IndexInList=51&FromPage=Exhibitors.aspx&ParentBoothID=&ListByBooth=true&BoothID=103882",
      "address": {
        "text": "Dallas,\nTX\nUnited States",
        "iso2": "US",
        "lat": 32.7766642,
        "lon": -96.79698789999999
      },
      "website": "http://shopmyexchange.com/vets"
    },
    {
      "name": "Army Enterprise Marketing Office (AEMO)",
      "exhibitorUrl": "https://s19.a2zinc.net/clients/ausa/annual2023/Public/eBooth.aspx?IndexInList=52&FromPage=Exhibitors.aspx&ParentBoothID=&ListByBooth=true&BoothID=101523",
      "address": {
        "text": "Fort Knox,\nKY\nUnited States",
        "iso2": "US",
        "lat": 37.8836637,
        "lon": -85.9652686
      }
    },
    {
      "name": "Army Installation Operations Enterprise Assembly Area",
      "exhibitorUrl": "https://s19.a2zinc.net/clients/ausa/annual2023/Public/eBooth.aspx?IndexInList=53&FromPage=Exhibitors.aspx&ParentBoothID=&ListByBooth=true&BoothID=103591",
      "address": {
        "text": "Washington,\nDC\nUnited States",
        "iso2": "US",
        "lat": 38.9071923,
        "lon": -77.0368707
      }
    },
    {
      "name": "Arrow Electronics",
      "exhibitorUrl": "https://s19.a2zinc.net/clients/ausa/annual2023/Public/eBooth.aspx?IndexInList=54&FromPage=Exhibitors.aspx&ParentBoothID=&ListByBooth=true&BoothID=104919",
      "address": {
        "text": "Peabody,\nMA\nUnited States",
        "iso2": "US",
        "lat": 42.5278731,
        "lon": -70.9286609
      }
    },
    {
      "name": "Asio Technologies Ltd.",
      "exhibitorUrl": "https://s19.a2zinc.net/clients/ausa/annual2023/Public/eBooth.aspx?IndexInList=56&FromPage=Exhibitors.aspx&ParentBoothID=&ListByBooth=true&BoothID=105664",
      "address": {
        "text": "Roash-HaAyin,\nIsrael",
        "iso2": "IL",
        "lat": 32.095838,
        "lon": 34.952177
      },
      "website": "http://www.asiotech.com"
    },
    {
      "name": "Astronics",
      "exhibitorUrl": "https://s19.a2zinc.net/clients/ausa/annual2023/Public/eBooth.aspx?IndexInList=58&FromPage=Exhibitors.aspx&ParentBoothID=&ListByBooth=true&BoothID=104295",
      "address": {
        "text": "East Aurora,\nNY\nUnited States",
        "iso2": "US",
        "lat": 42.7678376,
        "lon": -78.6133589
      },
      "website": "http://www.astronics.com"
    },
    {
      "name": "Atlantic Signal, LLC",
      "exhibitorUrl": "https://s19.a2zinc.net/clients/ausa/annual2023/Public/eBooth.aspx?IndexInList=60&FromPage=Exhibitors.aspx&ParentBoothID=&ListByBooth=true&BoothID=103907",
      "address": {
        "text": "Topeka,\nKS\nUnited States",
        "iso2": "US",
        "lat": 39.0473451,
        "lon": -95.67515759999999
      },
      "website": "http://www.atlanticsignal.com"
    },
    {
      "name": "Auterion Inc",
      "exhibitorUrl": "https://s19.a2zinc.net/clients/ausa/annual2023/Public/eBooth.aspx?IndexInList=62&FromPage=Exhibitors.aspx&ParentBoothID=&ListByBooth=true&BoothID=102208",
      "address": {
        "text": "Woodland Hills,\nCA\nUnited States",
        "iso2": "US",
        "lat": 34.165357,
        "lon": -118.6089752
      }
    },
    {
      "name": "Aviation Procurement Systems",
      "exhibitorUrl": "https://s19.a2zinc.net/clients/ausa/annual2023/Public/eBooth.aspx?IndexInList=63&FromPage=Exhibitors.aspx&ParentBoothID=&ListByBooth=true&BoothID=105257",
      "address": {
        "text": "Gaithersburg,\nMD\nUnited States",
        "iso2": "US",
        "lat": 39.1439689,
        "lon": -77.2016062
      },
      "website": "http://www.aviprosys.com"
    },
    {
      "name": "Avon Protection and Team Wendy",
      "exhibitorUrl": "https://s19.a2zinc.net/clients/ausa/annual2023/Public/eBooth.aspx?IndexInList=64&FromPage=Exhibitors.aspx&ParentBoothID=&ListByBooth=true&BoothID=103026",
      "address": {
        "text": "Cadillac,\nMI\nUnited States",
        "iso2": "US",
        "lat": 44.2519526,
        "lon": -85.40116189999999
      },
      "website": "http://www.avon-protection.com"
    },
    {
      "name": "Axnes",
      "exhibitorUrl": "https://s19.a2zinc.net/clients/ausa/annual2023/Public/eBooth.aspx?IndexInList=65&FromPage=Exhibitors.aspx&ParentBoothID=&ListByBooth=true&BoothID=105160",
      "address": {
        "text": "Arlington,\nVA\nUnited States",
        "iso2": "US",
        "lat": 38.8816208,
        "lon": -77.09098089999999
      },
      "website": "http://www.axnes.com"
    },
    {
      "name": "Axon",
      "exhibitorUrl": "https://s19.a2zinc.net/clients/ausa/annual2023/Public/eBooth.aspx?IndexInList=66&FromPage=Exhibitors.aspx&ParentBoothID=&ListByBooth=true&BoothID=103297",
      "address": {
        "text": "Scottsdale,\nAZ\nUnited States",
        "iso2": "US",
        "lat": 33.4948764,
        "lon": -111.9216734
      },
      "website": "http://www.axon.com"
    },
    {
      "name": "B.E. Meyers & Co., Inc.",
      "exhibitorUrl": "https://s19.a2zinc.net/clients/ausa/annual2023/Public/eBooth.aspx?IndexInList=68&FromPage=Exhibitors.aspx&ParentBoothID=&ListByBooth=true&BoothID=103753",
      "address": {
        "text": "Redmond,\nWA\nUnited States",
        "iso2": "US",
        "lat": 47.6739881,
        "lon": -122.121512
      },
      "website": "http://www.bemeyers.com"
    },
    {
      "name": "BAE Systems",
      "exhibitorUrl": "https://s19.a2zinc.net/clients/ausa/annual2023/Public/eBooth.aspx?IndexInList=69&FromPage=Exhibitors.aspx&ParentBoothID=&ListByBooth=true&BoothID=104720",
      "address": {
        "text": "Arlington,\nVA\nUnited States",
        "iso2": "US",
        "lat": 38.8816208,
        "lon": -77.09098089999999
      }
    },
    {
      "name": "BERNIER",
      "exhibitorUrl": "https://s19.a2zinc.net/clients/ausa/annual2023/Public/eBooth.aspx?IndexInList=78&FromPage=Exhibitors.aspx&ParentBoothID=&ListByBooth=true&BoothID=105610",
      "address": {
        "text": "Saint Michel Sur Orge,\nFrance",
        "iso2": "FR",
        "lat": 48.63263999999999,
        "lon": 2.312884
      },
      "website": "http://www.bernier.tm.fr"
    },
    {
      "name": "BILT Incorporated",
      "exhibitorUrl": "https://s19.a2zinc.net/clients/ausa/annual2023/Public/eBooth.aspx?IndexInList=81&FromPage=Exhibitors.aspx&ParentBoothID=&ListByBooth=true&BoothID=105148",
      "address": {
        "text": "Grapevine,\nTX\nUnited States",
        "iso2": "US",
        "lat": 32.9342919,
        "lon": -97.0780654
      }
    },
    {
      "name": "BOH Solutions",
      "exhibitorUrl": "https://s19.a2zinc.net/clients/ausa/annual2023/Public/eBooth.aspx?IndexInList=88&FromPage=Exhibitors.aspx&ParentBoothID=&ListByBooth=true&BoothID=103892",
      "address": {
        "text": "Covington,\nLA\nUnited States",
        "iso2": "US",
        "lat": 30.4754702,
        "lon": -90.1009108
      },
      "website": "http://www.bohfpusystems.com"
    },
    {
      "name": "Baker Industries, a Lincoln Electric Company",
      "exhibitorUrl": "https://s19.a2zinc.net/clients/ausa/annual2023/Public/eBooth.aspx?IndexInList=70&FromPage=Exhibitors.aspx&ParentBoothID=&ListByBooth=true&BoothID=105128",
      "address": {
        "text": "Macomb,\nMI\nUnited States",
        "iso2": "US",
        "lat": 42.6651965,
        "lon": -82.92864279999999
      },
      "website": "https://bakerindustriesinc.com"
    },
    {
      "name": "Barrett Firearms Manufacturing, Inc.",
      "exhibitorUrl": "https://s19.a2zinc.net/clients/ausa/annual2023/Public/eBooth.aspx?IndexInList=71&FromPage=Exhibitors.aspx&ParentBoothID=&ListByBooth=true&BoothID=103561",
      "address": {
        "text": "Murfreesboro,\nTN\nUnited States",
        "iso2": "US",
        "lat": 35.8456213,
        "lon": -86.39027
      }
    },
    {
      "name": "Bascom Hunter",
      "exhibitorUrl": "https://s19.a2zinc.net/clients/ausa/annual2023/Public/eBooth.aspx?IndexInList=72&FromPage=Exhibitors.aspx&ParentBoothID=&ListByBooth=true&BoothID=105269",
      "address": {
        "text": "Baton Rouge,\nLA\nUnited States",
        "iso2": "US",
        "lat": 30.4514677,
        "lon": -91.18714659999999
      },
      "website": "https://bascomhunter.com"
    },
    {
      "name": "Battelle",
      "exhibitorUrl": "https://s19.a2zinc.net/clients/ausa/annual2023/Public/eBooth.aspx?IndexInList=73&FromPage=Exhibitors.aspx&ParentBoothID=&ListByBooth=true&BoothID=102341",
      "address": {
        "text": "Columbus,\nOH\nUnited States",
        "iso2": "US",
        "lat": 39.9611755,
        "lon": -82.99879419999999
      },
      "website": "https://www.battelle.org/markets/national-security"
    },
    {
      "name": "Belcan Government Solutions",
      "exhibitorUrl": "https://s19.a2zinc.net/clients/ausa/annual2023/Public/eBooth.aspx?IndexInList=74&FromPage=Exhibitors.aspx&ParentBoothID=&ListByBooth=true&BoothID=105633",
      "address": {
        "text": "Sterling,\nVA\nUnited States",
        "iso2": "US",
        "lat": 39.0066993,
        "lon": -77.4291298
      },
      "website": "https://www.belcan.com/solutions/government-solutions/"
    },
    {
      "name": "Bell",
      "exhibitorUrl": "https://s19.a2zinc.net/clients/ausa/annual2023/Public/eBooth.aspx?IndexInList=75&FromPage=Exhibitors.aspx&ParentBoothID=&ListByBooth=true&BoothID=104664",
      "address": {
        "text": "Fort Worth,\nTX\nUnited States",
        "iso2": "US",
        "lat": 32.7554883,
        "lon": -97.3307658
      }
    },
    {
      "name": "Benchmark",
      "exhibitorUrl": "https://s19.a2zinc.net/clients/ausa/annual2023/Public/eBooth.aspx?IndexInList=76&FromPage=Exhibitors.aspx&ParentBoothID=&ListByBooth=true&BoothID=105033",
      "address": {
        "text": "Tempe,\nAZ\nUnited States",
        "iso2": "US",
        "lat": 33.4255104,
        "lon": -111.9400054
      },
      "website": "bench.com/defense"
    },
    {
      "name": "Beretta USA Corp.",
      "exhibitorUrl": "https://s19.a2zinc.net/clients/ausa/annual2023/Public/eBooth.aspx?IndexInList=77&FromPage=Exhibitors.aspx&ParentBoothID=&ListByBooth=true&BoothID=102413",
      "address": {
        "text": "Accokeek,\nMD\nUnited States",
        "iso2": "US",
        "lat": 38.6676168,
        "lon": -77.0283092
      },
      "website": "http://www.beretta.com"
    },
    {
      "name": "Beth-El Zikhron Yaaqov Industries. Ltd.",
      "exhibitorUrl": "https://s19.a2zinc.net/clients/ausa/annual2023/Public/eBooth.aspx?IndexInList=79&FromPage=Exhibitors.aspx&ParentBoothID=&ListByBooth=true&BoothID=105855",
      "address": {
        "text": "Zikhron Yaaqov,\nIsrael",
        "iso2": "IL",
        "lat": 32.573905,
        "lon": 34.951977
      },
      "website": "https://www.beind.com"
    },
    {
      "name": "BigBear.ai",
      "exhibitorUrl": "https://s19.a2zinc.net/clients/ausa/annual2023/Public/eBooth.aspx?IndexInList=80&FromPage=Exhibitors.aspx&ParentBoothID=&ListByBooth=true&BoothID=104076",
      "address": {
        "text": "Columbia,\nMD\nUnited States",
        "iso2": "US",
        "lat": 39.2037144,
        "lon": -76.86104619999999
      }
    },
    {
      "name": "Black Diamond Advanced Technology (BDATech)",
      "exhibitorUrl": "https://s19.a2zinc.net/clients/ausa/annual2023/Public/eBooth.aspx?IndexInList=82&FromPage=Exhibitors.aspx&ParentBoothID=&ListByBooth=true&BoothID=102309",
      "address": {
        "text": "Chandler,\nAZ\nUnited States",
        "iso2": "US",
        "lat": 33.3061605,
        "lon": -111.8412502
      },
      "website": "http://www.bdatech.com"
    },
    {
      "name": "Bliss Munitions Equipment",
      "exhibitorUrl": "https://s19.a2zinc.net/clients/ausa/annual2023/Public/eBooth.aspx?IndexInList=83&FromPage=Exhibitors.aspx&ParentBoothID=&ListByBooth=true&BoothID=105273",
      "address": {
        "text": "Kentwood,\nMI\nUnited States",
        "iso2": "US",
        "lat": 42.8694731,
        "lon": -85.64474919999999
      },
      "website": "https://blissmunitions.com"
    },
    {
      "name": "Blue Cross Blue Shield Association",
      "exhibitorUrl": "https://s19.a2zinc.net/clients/ausa/annual2023/Public/eBooth.aspx?IndexInList=84&FromPage=Exhibitors.aspx&ParentBoothID=&ListByBooth=true&BoothID=102261",
      "address": {
        "text": "Washington,\nDC\nUnited States",
        "iso2": "US",
        "lat": 38.9071923,
        "lon": -77.0368707
      },
      "website": "https://www.fepblue.org/our-plans/dental-vision"
    },
    {
      "name": "BlueHalo",
      "exhibitorUrl": "https://s19.a2zinc.net/clients/ausa/annual2023/Public/eBooth.aspx?IndexInList=85&FromPage=Exhibitors.aspx&ParentBoothID=&ListByBooth=true&BoothID=102196",
      "address": {
        "text": "Arlington,\nVA\nUnited States",
        "iso2": "US",
        "lat": 38.8816208,
        "lon": -77.09098089999999
      },
      "website": "https://bluehalo.com"
    },
    {
      "name": "BlueSky Innovations",
      "exhibitorUrl": "https://s19.a2zinc.net/clients/ausa/annual2023/Public/eBooth.aspx?IndexInList=86&FromPage=Exhibitors.aspx&ParentBoothID=&ListByBooth=true&BoothID=103309",
      "address": {
        "text": "Largo,\nFL\nUnited States",
        "iso2": "US",
        "lat": 27.9094665,
        "lon": -82.7873244
      },
      "website": "http://www.blueskyinnovations.com"
    },
    {
      "name": "Boeing Company",
      "exhibitorUrl": "https://s19.a2zinc.net/clients/ausa/annual2023/Public/eBooth.aspx?IndexInList=87&FromPage=Exhibitors.aspx&ParentBoothID=&ListByBooth=true&BoothID=102572",
      "address": {
        "text": "Arlington,\nVA\nUnited States",
        "iso2": "US",
        "lat": 38.8816208,
        "lon": -77.09098089999999
      }
    },
    {
      "name": "Bombardier Defense",
      "exhibitorUrl": "https://s19.a2zinc.net/clients/ausa/annual2023/Public/eBooth.aspx?IndexInList=89&FromPage=Exhibitors.aspx&ParentBoothID=&ListByBooth=true&BoothID=101888",
      "address": {
        "text": "Wichita,\nKS\nUnited States",
        "iso2": "US",
        "lat": 37.68717609999999,
        "lon": -97.33005299999999
      },
      "website": "http://www.defense.bombardier.com"
    },
    {
      "name": "Booz Allen Hamilton, Inc.",
      "exhibitorUrl": "https://s19.a2zinc.net/clients/ausa/annual2023/Public/eBooth.aspx?IndexInList=90&FromPage=Exhibitors.aspx&ParentBoothID=&ListByBooth=true&BoothID=101444",
      "address": {
        "text": "Washington,\nDC\nUnited States",
        "iso2": "US",
        "lat": 38.9071923,
        "lon": -77.0368707
      }
    },
    {
      "name": "Boston Dynamics",
      "exhibitorUrl": "https://s19.a2zinc.net/clients/ausa/annual2023/Public/eBooth.aspx?IndexInList=91&FromPage=Exhibitors.aspx&ParentBoothID=&ListByBooth=true&BoothID=104272",
      "address": {
        "text": "Waltham,\nMA\nUnited States",
        "iso2": "US",
        "lat": 42.3764852,
        "lon": -71.2356113
      }
    },
    {
      "name": "BrainGu",
      "exhibitorUrl": "https://s19.a2zinc.net/clients/ausa/annual2023/Public/eBooth.aspx?IndexInList=92&FromPage=Exhibitors.aspx&ParentBoothID=&ListByBooth=true&BoothID=105026",
      "address": {
        "text": "Grand Rapids,\nMI\nUnited States",
        "iso2": "US",
        "lat": 42.9633599,
        "lon": -85.6680863
      },
      "website": "www.braingu.com"
    },
    {
      "name": "Brelyon",
      "exhibitorUrl": "https://s19.a2zinc.net/clients/ausa/annual2023/Public/eBooth.aspx?IndexInList=93&FromPage=Exhibitors.aspx&ParentBoothID=&ListByBooth=true&BoothID=104923",
      "address": {
        "text": "San Mateo,\nCA\nUnited States",
        "iso2": "US",
        "lat": 37.5629917,
        "lon": -122.3255254
      }
    },
    {
      "name": "Bren-Tronics, Inc.",
      "exhibitorUrl": "https://s19.a2zinc.net/clients/ausa/annual2023/Public/eBooth.aspx?IndexInList=94&FromPage=Exhibitors.aspx&ParentBoothID=&ListByBooth=true&BoothID=103446",
      "address": {
        "text": "Commack,\nNY\nUnited States",
        "iso2": "US",
        "lat": 40.8428759,
        "lon": -73.29289430000001
      },
      "website": "http://www.bren-tronics.com"
    },
    {
      "name": "C.E. Niehoff & Co.",
      "exhibitorUrl": "https://s19.a2zinc.net/clients/ausa/annual2023/Public/eBooth.aspx?IndexInList=95&FromPage=Exhibitors.aspx&ParentBoothID=&ListByBooth=true&BoothID=104869",
      "address": {
        "text": "Evanston,\nIL\nUnited States",
        "iso2": "US",
        "lat": 42.0450722,
        "lon": -87.68769689999999
      }
    },
    {
      "name": "CACI, Inc.",
      "exhibitorUrl": "https://s19.a2zinc.net/clients/ausa/annual2023/Public/eBooth.aspx?IndexInList=96&FromPage=Exhibitors.aspx&ParentBoothID=&ListByBooth=true&BoothID=104679",
      "address": {
        "text": "Reston,\nVA\nUnited States",
        "iso2": "US",
        "lat": 38.9586307,
        "lon": -77.35700279999999
      },
      "website": "http://www.caci.com"
    },
    {
      "name": "CAES",
      "exhibitorUrl": "https://s19.a2zinc.net/clients/ausa/annual2023/Public/eBooth.aspx?IndexInList=97&FromPage=Exhibitors.aspx&ParentBoothID=&ListByBooth=true&BoothID=101866",
      "address": {
        "text": "Arlington,\nVA\nUnited States",
        "iso2": "US",
        "lat": 38.8816208,
        "lon": -77.09098089999999
      },
      "website": "http://caes.com"
    },
    {
      "name": "CAMSS Shelters",
      "exhibitorUrl": "https://s19.a2zinc.net/clients/ausa/annual2023/Public/eBooth.aspx?IndexInList=98&FromPage=Exhibitors.aspx&ParentBoothID=&ListByBooth=true&BoothID=104353",
      "address": {
        "text": "Kirkland,\nWA\nUnited States",
        "iso2": "US",
        "lat": 47.6768927,
        "lon": -122.2059833
      },
      "website": "http://www.camss.com"
    },
    {
      "name": "CANADIAN PAVILION",
      "exhibitorUrl": "https://s19.a2zinc.net/clients/ausa/annual2023/Public/eBooth.aspx?IndexInList=99&FromPage=Exhibitors.aspx&ParentBoothID=&ListByBooth=true&BoothID=103948",
      "address": {
        "text": "Washington,\nDC\nUnited States",
        "iso2": "US",
        "lat": 38.9071923,
        "lon": -77.0368707
      }
    },
    {
      "name": "CDSG",
      "exhibitorUrl": "https://s19.a2zinc.net/clients/ausa/annual2023/Public/eBooth.aspx?IndexInList=107&FromPage=Exhibitors.aspx&ParentBoothID=&ListByBooth=true&BoothID=104908",
      "address": {
        "text": "Vancouver,\nWA\nUnited States",
        "iso2": "US",
        "lat": 45.6280277,
        "lon": -122.673865
      },
      "website": "cdsg.com"
    },
    {
      "name": "CEIA USA, Ltd.",
      "exhibitorUrl": "https://s19.a2zinc.net/clients/ausa/annual2023/Public/eBooth.aspx?IndexInList=108&FromPage=Exhibitors.aspx&ParentBoothID=&ListByBooth=true&BoothID=103842",
      "address": {
        "text": "Hudson,\nOH\nUnited States",
        "iso2": "US",
        "lat": 41.240056,
        "lon": -81.44066699999999
      },
      "website": "http://www.ceia-usa.com"
    },
    {
      "name": "COGES",
      "exhibitorUrl": "https://s19.a2zinc.net/clients/ausa/annual2023/Public/eBooth.aspx?IndexInList=118&FromPage=Exhibitors.aspx&ParentBoothID=&ListByBooth=true&BoothID=105614",
      "address": {
        "text": "Paris,\nFrance",
        "iso2": "FR",
        "lat": 48.856614,
        "lon": 2.3522219
      },
      "website": "http://www.cogesevents.com"
    },
    {
      "name": "COMMTACT LTD",
      "exhibitorUrl": "https://s19.a2zinc.net/clients/ausa/annual2023/Public/eBooth.aspx?IndexInList=120&FromPage=Exhibitors.aspx&ParentBoothID=&ListByBooth=true&BoothID=105856",
      "address": {
        "text": "Yavne,\nIsrael",
        "iso2": "IL",
        "lat": 31.877958,
        "lon": 34.739449
      },
      "website": "https://commtact-systems.com"
    },
    {
      "name": "CTG",
      "exhibitorUrl": "https://s19.a2zinc.net/clients/ausa/annual2023/Public/eBooth.aspx?IndexInList=130&FromPage=Exhibitors.aspx&ParentBoothID=&ListByBooth=true&BoothID=103153",
      "address": {
        "text": "Yonkers,\nNY\nUnited States",
        "iso2": "US",
        "lat": 40.9312099,
        "lon": -73.89874689999999
      }
    },
    {
      "name": "CTI INTL SOLUTIONS LTD.",
      "exhibitorUrl": "https://s19.a2zinc.net/clients/ausa/annual2023/Public/eBooth.aspx?IndexInList=131&FromPage=Exhibitors.aspx&ParentBoothID=&ListByBooth=true&BoothID=105665",
      "address": {
        "text": "Petach Tikva,\nIsrael",
        "iso2": "IL",
        "lat": 32.084041,
        "lon": 34.887762
      },
      "website": "http://www.cti-intl.co.il"
    },
    {
      "name": "Canik",
      "exhibitorUrl": "https://s19.a2zinc.net/clients/ausa/annual2023/Public/eBooth.aspx?IndexInList=100&FromPage=Exhibitors.aspx&ParentBoothID=&ListByBooth=true&BoothID=104316",
      "address": {
        "text": "TEKKEKOY,\nSAMSUN\nTurkey",
        "iso2": "TR",
        "lat": 41.2132689,
        "lon": 36.463127
      }
    },
    {
      "name": "Capewell",
      "exhibitorUrl": "https://s19.a2zinc.net/clients/ausa/annual2023/Public/eBooth.aspx?IndexInList=101&FromPage=Exhibitors.aspx&ParentBoothID=&ListByBooth=true&BoothID=105152",
      "address": {
        "text": "South Windsor,\nCT\nUnited States",
        "iso2": "US",
        "lat": 41.8489872,
        "lon": -72.57175509999999
      },
      "website": "http://www.capewell.com"
    },
    {
      "name": "Carahsoft",
      "exhibitorUrl": "https://s19.a2zinc.net/clients/ausa/annual2023/Public/eBooth.aspx?IndexInList=102&FromPage=Exhibitors.aspx&ParentBoothID=&ListByBooth=true&BoothID=105153",
      "address": {
        "text": "RESTON,\nVA\nUnited States",
        "iso2": "US",
        "lat": 38.9586307,
        "lon": -77.35700279999999
      }
    },
    {
      "name": "Carmenta Inc.",
      "exhibitorUrl": "https://s19.a2zinc.net/clients/ausa/annual2023/Public/eBooth.aspx?IndexInList=103&FromPage=Exhibitors.aspx&ParentBoothID=&ListByBooth=true&BoothID=101795",
      "address": {
        "text": "Arlington,\nVA\nUnited States",
        "iso2": "US",
        "lat": 38.8816208,
        "lon": -77.09098089999999
      },
      "website": "http://carmenta.com"
    },
    {
      "name": "Carnegie Mellon University Software Engineering Institute",
      "exhibitorUrl": "https://s19.a2zinc.net/clients/ausa/annual2023/Public/eBooth.aspx?IndexInList=104&FromPage=Exhibitors.aspx&ParentBoothID=&ListByBooth=true&BoothID=105170",
      "address": {
        "text": "Pittsburgh,\nPA\nUnited States",
        "iso2": "US",
        "lat": 40.44062479999999,
        "lon": -79.9958864
      },
      "website": "www.sei.cmu.edu"
    },
    {
      "name": "Carson Industries",
      "exhibitorUrl": "https://s19.a2zinc.net/clients/ausa/annual2023/Public/eBooth.aspx?IndexInList=105&FromPage=Exhibitors.aspx&ParentBoothID=&ListByBooth=true&BoothID=103833",
      "address": {
        "text": "Alpharetta,\nGA\nUnited States",
        "iso2": "US",
        "lat": 34.0753762,
        "lon": -84.2940899
      },
      "website": "http://www.carson-industries.com"
    },
    {
      "name": "Caterpillar, Inc.",
      "exhibitorUrl": "https://s19.a2zinc.net/clients/ausa/annual2023/Public/eBooth.aspx?IndexInList=106&FromPage=Exhibitors.aspx&ParentBoothID=&ListByBooth=true&BoothID=101883",
      "address": {
        "text": "Peoria,\nIL\nUnited States",
        "iso2": "US",
        "lat": 40.6936488,
        "lon": -89.5889864
      }
    },
    {
      "name": "Celestica",
      "exhibitorUrl": "https://s19.a2zinc.net/clients/ausa/annual2023/Public/eBooth.aspx?IndexInList=109&FromPage=Exhibitors.aspx&ParentBoothID=&ListByBooth=true&BoothID=104152",
      "address": {
        "text": "Toronto,\nON\nCanada",
        "iso2": "CA",
        "lat": 43.653226,
        "lon": -79.3831843
      },
      "website": "http://www.celestica.com"
    },
    {
      "name": "Cenith Innovations",
      "exhibitorUrl": "https://s19.a2zinc.net/clients/ausa/annual2023/Public/eBooth.aspx?IndexInList=110&FromPage=Exhibitors.aspx&ParentBoothID=&ListByBooth=true&BoothID=105005",
      "address": {
        "text": "Sacramento,\nCA\nUnited States",
        "iso2": "US",
        "lat": 38.5815719,
        "lon": -121.4943996
      },
      "website": "http://www.cenithinnovations.com"
    },
    {
      "name": "Center for Personnel Claims Support",
      "exhibitorUrl": "https://s19.a2zinc.net/clients/ausa/annual2023/Public/eBooth.aspx?IndexInList=111&FromPage=Exhibitors.aspx&ParentBoothID=&ListByBooth=true&BoothID=103632",
      "address": {
        "text": "Fort Knox,\nKY\nUnited States",
        "iso2": "US",
        "lat": 37.8836637,
        "lon": -85.9652686
      }
    },
    {
      "name": "Chenega Corporation, MIOS SBU",
      "exhibitorUrl": "https://s19.a2zinc.net/clients/ausa/annual2023/Public/eBooth.aspx?IndexInList=112&FromPage=Exhibitors.aspx&ParentBoothID=&ListByBooth=true&BoothID=102426",
      "address": {
        "text": "Lorton,\nVA\nUnited States",
        "iso2": "US",
        "lat": 38.704282,
        "lon": -77.2277603
      },
      "website": "http://www.chenegamios.com"
    },
    {
      "name": "Cherokee Federal",
      "exhibitorUrl": "https://s19.a2zinc.net/clients/ausa/annual2023/Public/eBooth.aspx?IndexInList=113&FromPage=Exhibitors.aspx&ParentBoothID=&ListByBooth=true&BoothID=105043",
      "address": {
        "text": "Tulsa,\nOK\nUnited States",
        "iso2": "US",
        "lat": 36.1539816,
        "lon": -95.99277500000001
      },
      "website": "cherokee-federal.com"
    },
    {
      "name": "Choctaw Defense",
      "exhibitorUrl": "https://s19.a2zinc.net/clients/ausa/annual2023/Public/eBooth.aspx?IndexInList=114&FromPage=Exhibitors.aspx&ParentBoothID=&ListByBooth=true&BoothID=102422",
      "address": {
        "text": "McAlester,\nOK\nUnited States",
        "iso2": "US",
        "lat": 34.9334298,
        "lon": -95.76971309999999
      }
    },
    {
      "name": "Clear Align",
      "exhibitorUrl": "https://s19.a2zinc.net/clients/ausa/annual2023/Public/eBooth.aspx?IndexInList=115&FromPage=Exhibitors.aspx&ParentBoothID=&ListByBooth=true&BoothID=105040",
      "address": {
        "text": "Eagleville,\nPA\nUnited States",
        "iso2": "US",
        "lat": 40.1595501,
        "lon": -75.4082385
      },
      "website": "https://clearalign.com/Contact-Clear-Align-custom-imaging-laser-systems-for-ISR"
    },
    {
      "name": "Cocoon Inc.",
      "exhibitorUrl": "https://s19.a2zinc.net/clients/ausa/annual2023/Public/eBooth.aspx?IndexInList=116&FromPage=Exhibitors.aspx&ParentBoothID=&ListByBooth=true&BoothID=101476",
      "address": {
        "text": "North Hampton,\nNH\nUnited States",
        "iso2": "US",
        "lat": 42.9737623,
        "lon": -70.8351792
      },
      "website": "www.cocoon-inc.com"
    },
    {
      "name": "Codemettle, LLC",
      "exhibitorUrl": "https://s19.a2zinc.net/clients/ausa/annual2023/Public/eBooth.aspx?IndexInList=117&FromPage=Exhibitors.aspx&ParentBoothID=&ListByBooth=true&BoothID=104913",
      "address": {
        "text": "Atlanta,\nGA\nUnited States",
        "iso2": "US",
        "lat": 33.748752,
        "lon": -84.38768449999999
      }
    },
    {
      "name": "Columbia Southern University",
      "exhibitorUrl": "https://s19.a2zinc.net/clients/ausa/annual2023/Public/eBooth.aspx?IndexInList=119&FromPage=Exhibitors.aspx&ParentBoothID=&ListByBooth=true&BoothID=104897",
      "address": {
        "text": "Orange Beach,\nAL\nUnited States",
        "iso2": "US",
        "lat": 30.2697033,
        "lon": -87.5867598
      }
    },
    {
      "name": "Compotech, Inc.",
      "exhibitorUrl": "https://s19.a2zinc.net/clients/ausa/annual2023/Public/eBooth.aspx?IndexInList=121&FromPage=Exhibitors.aspx&ParentBoothID=&ListByBooth=true&BoothID=105006",
      "address": {
        "text": "Brewer,\nME\nUnited States",
        "iso2": "US",
        "lat": 44.7967378,
        "lon": -68.7614246
      }
    },
    {
      "name": "CompuLink",
      "exhibitorUrl": "https://s19.a2zinc.net/clients/ausa/annual2023/Public/eBooth.aspx?IndexInList=122&FromPage=Exhibitors.aspx&ParentBoothID=&ListByBooth=true&BoothID=101896",
      "address": {
        "text": "Saint Petersburg,\nFL\nUnited States",
        "iso2": "US",
        "lat": 27.7676008,
        "lon": -82.64029149999999
      }
    },
    {
      "name": "Comrod, Inc.",
      "exhibitorUrl": "https://s19.a2zinc.net/clients/ausa/annual2023/Public/eBooth.aspx?IndexInList=123&FromPage=Exhibitors.aspx&ParentBoothID=&ListByBooth=true&BoothID=102170",
      "address": {
        "text": "Westlake,\nOH\nUnited States",
        "iso2": "US",
        "lat": 41.4553232,
        "lon": -81.9179173
      },
      "website": "http://www.comrod.com"
    },
    {
      "name": "Consortium Management Group, Inc.",
      "exhibitorUrl": "https://s19.a2zinc.net/clients/ausa/annual2023/Public/eBooth.aspx?IndexInList=124&FromPage=Exhibitors.aspx&ParentBoothID=&ListByBooth=true&BoothID=103997",
      "address": {
        "text": "Washington,\nDC\nUnited States",
        "iso2": "US",
        "lat": 38.9071923,
        "lon": -77.0368707
      },
      "website": "http://cmgcorp.org"
    },
    {
      "name": "Contact! Corporation",
      "exhibitorUrl": "https://s19.a2zinc.net/clients/ausa/annual2023/Public/eBooth.aspx?IndexInList=125&FromPage=Exhibitors.aspx&ParentBoothID=&ListByBooth=true&BoothID=101152",
      "address": {
        "text": "Winchester,\nVA\nUnited States",
        "iso2": "US",
        "lat": 39.1856597,
        "lon": -78.1633341
      },
      "website": "http://www.contactcorp.net"
    },
    {
      "name": "Control Solutions, LLC",
      "exhibitorUrl": "https://s19.a2zinc.net/clients/ausa/annual2023/Public/eBooth.aspx?IndexInList=126&FromPage=Exhibitors.aspx&ParentBoothID=&ListByBooth=true&BoothID=102061",
      "address": {
        "text": "Aurora,\nIL\nUnited States",
        "iso2": "US",
        "lat": 41.7605849,
        "lon": -88.32007150000001
      },
      "website": "http://www.controls.com"
    },
    {
      "name": "CopterPIX Ltd",
      "exhibitorUrl": "https://s19.a2zinc.net/clients/ausa/annual2023/Public/eBooth.aspx?IndexInList=127&FromPage=Exhibitors.aspx&ParentBoothID=&ListByBooth=true&BoothID=105650",
      "address": {
        "text": "Ashkelon,\nIsrael",
        "iso2": "IL",
        "lat": 31.6687885,
        "lon": 34.5742523
      },
      "website": "http://www.copterpix.pro"
    },
    {
      "name": "Crane Aerospace & Electronics",
      "exhibitorUrl": "https://s19.a2zinc.net/clients/ausa/annual2023/Public/eBooth.aspx?IndexInList=128&FromPage=Exhibitors.aspx&ParentBoothID=&ListByBooth=true&BoothID=104938",
      "address": {
        "text": "Lynnwood,\nMA\nUnited States",
        "iso2": "US",
        "lat": 42.46676300000001,
        "lon": -70.9494938
      }
    },
    {
      "name": "Crystal Group, Inc.",
      "exhibitorUrl": "https://s19.a2zinc.net/clients/ausa/annual2023/Public/eBooth.aspx?IndexInList=129&FromPage=Exhibitors.aspx&ParentBoothID=&ListByBooth=true&BoothID=103494",
      "address": {
        "text": "Hiawatha,\nIA\nUnited States",
        "iso2": "US",
        "lat": 42.0491958,
        "lon": -91.6815252
      },
      "website": "http://www.crystalrugged.com"
    },
    {
      "name": "Cubic Mission and Performance Solutions",
      "exhibitorUrl": "https://s19.a2zinc.net/clients/ausa/annual2023/Public/eBooth.aspx?IndexInList=132&FromPage=Exhibitors.aspx&ParentBoothID=&ListByBooth=true&BoothID=102013",
      "address": {
        "text": "San Diego,\nCA\nUnited States",
        "iso2": "US",
        "lat": 32.715738,
        "lon": -117.1610838
      },
      "website": "http://www.cubic.com"
    },
    {
      "name": "Cummins, Inc.",
      "exhibitorUrl": "https://s19.a2zinc.net/clients/ausa/annual2023/Public/eBooth.aspx?IndexInList=133&FromPage=Exhibitors.aspx&ParentBoothID=&ListByBooth=true&BoothID=101413",
      "address": {
        "text": "Naperville,\nIL\nUnited States",
        "iso2": "US",
        "lat": 41.7508391,
        "lon": -88.1535352
      },
      "website": "http://cumminsengines.com/defense"
    },
    {
      "name": "Curtiss-Wright",
      "exhibitorUrl": "https://s19.a2zinc.net/clients/ausa/annual2023/Public/eBooth.aspx?IndexInList=134&FromPage=Exhibitors.aspx&ParentBoothID=&ListByBooth=true&BoothID=104775",
      "address": {
        "text": "Ashburn,\nVA\nUnited States",
        "iso2": "US",
        "lat": 39.0437567,
        "lon": -77.4874416
      },
      "website": "http://www.curtisswrightds.com"
    },
    {
      "name": "Custom Power",
      "exhibitorUrl": "https://s19.a2zinc.net/clients/ausa/annual2023/Public/eBooth.aspx?IndexInList=135&FromPage=Exhibitors.aspx&ParentBoothID=&ListByBooth=true&BoothID=102260",
      "address": {
        "text": "Fountain Valley,\nCA\nUnited States",
        "iso2": "US",
        "lat": 33.7090212,
        "lon": -117.9544069
      },
      "website": "www.custompower.com"
    },
    {
      "name": "Custom Wheel Solutions LLC",
      "exhibitorUrl": "https://s19.a2zinc.net/clients/ausa/annual2023/Public/eBooth.aspx?IndexInList=136&FromPage=Exhibitors.aspx&ParentBoothID=&ListByBooth=true&BoothID=102312",
      "address": {
        "text": "Grosse Pointe,\nMI\nUnited States",
        "iso2": "US",
        "lat": 42.3861485,
        "lon": -82.9118591
      },
      "website": "cwswheels.com"
    },
    {
      "name": "Cyalume Technologies, Inc.",
      "exhibitorUrl": "https://s19.a2zinc.net/clients/ausa/annual2023/Public/eBooth.aspx?IndexInList=137&FromPage=Exhibitors.aspx&ParentBoothID=&ListByBooth=true&BoothID=103130",
      "address": {
        "text": "West Springfield,\nMA\nUnited States",
        "iso2": "US",
        "lat": 42.1070383,
        "lon": -72.6203675
      }
    },
    {
      "name": "D-Fend Solutions",
      "exhibitorUrl": "https://s19.a2zinc.net/clients/ausa/annual2023/Public/eBooth.aspx?IndexInList=154&FromPage=Exhibitors.aspx&ParentBoothID=&ListByBooth=true&BoothID=103680",
      "address": {
        "text": "McLean,\nVA\nUnited States",
        "iso2": "US",
        "lat": 38.9338676,
        "lon": -77.1772604
      },
      "website": "https://www.d-fendsolutions.com"
    },
    {
      "name": "DANISH PAVILION",
      "exhibitorUrl": "https://s19.a2zinc.net/clients/ausa/annual2023/Public/eBooth.aspx?IndexInList=141&FromPage=Exhibitors.aspx&ParentBoothID=&ListByBooth=true&BoothID=101701",
      "address": {
        "text": "Copenhagen V,\nDenmark",
        "iso2": "DK",
        "lat": 55.6760968,
        "lon": 12.5683371
      },
      "website": "http://www.fad.di.dk"
    },
    {
      "name": "DCS Corporation",
      "exhibitorUrl": "https://s19.a2zinc.net/clients/ausa/annual2023/Public/eBooth.aspx?IndexInList=147&FromPage=Exhibitors.aspx&ParentBoothID=&ListByBooth=true&BoothID=104348",
      "address": {
        "text": "Alexandria,\nVA\nUnited States",
        "iso2": "US",
        "lat": 38.8048355,
        "lon": -77.0469214
      },
      "website": "http://www.dcscorp.com"
    },
    {
      "name": "DEFEA - Defense Exhibitions Athens",
      "exhibitorUrl": "https://s19.a2zinc.net/clients/ausa/annual2023/Public/eBooth.aspx?IndexInList=148&FromPage=Exhibitors.aspx&ParentBoothID=&ListByBooth=true&BoothID=105815",
      "address": {
        "text": "Pallini,\nGreece",
        "iso2": "GR",
        "lat": 38.00351029999999,
        "lon": 23.8835158
      }
    },
    {
      "name": "DESCHAMPS",
      "exhibitorUrl": "https://s19.a2zinc.net/clients/ausa/annual2023/Public/eBooth.aspx?IndexInList=153&FromPage=Exhibitors.aspx&ParentBoothID=&ListByBooth=true&BoothID=105609",
      "address": {
        "text": "La Couronne,\nFrance",
        "iso2": "FR",
        "lat": 45.608466,
        "lon": 0.101397
      },
      "website": "http://www.mobi-mat.com"
    },
    {
      "name": "DTC Communications, Inc.",
      "exhibitorUrl": "https://s19.a2zinc.net/clients/ausa/annual2023/Public/eBooth.aspx?IndexInList=158&FromPage=Exhibitors.aspx&ParentBoothID=&ListByBooth=true&BoothID=101611",
      "address": {
        "text": "Herndon,\nVA\nUnited States",
        "iso2": "US",
        "lat": 38.9695545,
        "lon": -77.3860976
      },
      "website": "http://www.domotactical.com"
    },
    {
      "name": "Dagan-Optics Ltd.",
      "exhibitorUrl": "https://s19.a2zinc.net/clients/ausa/annual2023/Public/eBooth.aspx?IndexInList=138&FromPage=Exhibitors.aspx&ParentBoothID=&ListByBooth=true&BoothID=105666",
      "address": {
        "text": "Industrial Park Bar-Lev,\nIsrael",
        "iso2": "IL",
        "lat": 32.912411,
        "lon": 35.182709
      },
      "website": "http://www.dagan-optics.com"
    },
    {
      "name": "Danbury Mission Systems",
      "exhibitorUrl": "https://s19.a2zinc.net/clients/ausa/annual2023/Public/eBooth.aspx?IndexInList=139&FromPage=Exhibitors.aspx&ParentBoothID=&ListByBooth=true&BoothID=102931",
      "address": {
        "text": "Danbury,\nCT\nUnited States",
        "iso2": "US",
        "lat": 41.394817,
        "lon": -73.4540111
      }
    },
    {
      "name": "Daniel Defense",
      "exhibitorUrl": "https://s19.a2zinc.net/clients/ausa/annual2023/Public/eBooth.aspx?IndexInList=140&FromPage=Exhibitors.aspx&ParentBoothID=&ListByBooth=true&BoothID=104090",
      "address": {
        "text": "Black Creek,\nGA\nUnited States",
        "iso2": "US",
        "lat": 32.165445,
        "lon": -81.48650789999999
      },
      "website": "http://www.danieldefense.com"
    },
    {
      "name": "Danner",
      "exhibitorUrl": "https://s19.a2zinc.net/clients/ausa/annual2023/Public/eBooth.aspx?IndexInList=142&FromPage=Exhibitors.aspx&ParentBoothID=&ListByBooth=true&BoothID=104035",
      "address": {
        "text": "Portland,\nOR\nUnited States",
        "iso2": "US",
        "lat": 45.515232,
        "lon": -122.6783853
      },
      "website": "http://lacrossefootwear.com"
    },
    {
      "name": "Darley",
      "exhibitorUrl": "https://s19.a2zinc.net/clients/ausa/annual2023/Public/eBooth.aspx?IndexInList=143&FromPage=Exhibitors.aspx&ParentBoothID=&ListByBooth=true&BoothID=103737",
      "address": {
        "text": "Itasca,\nIL\nUnited States",
        "iso2": "US",
        "lat": 41.9750287,
        "lon": -88.0072909
      },
      "website": "http://www.darley-gov.com"
    },
    {
      "name": "Data Device Corporation",
      "exhibitorUrl": "https://s19.a2zinc.net/clients/ausa/annual2023/Public/eBooth.aspx?IndexInList=144&FromPage=Exhibitors.aspx&ParentBoothID=&ListByBooth=true&BoothID=101785",
      "address": {
        "text": "Bohemia,\nNY\nUnited States",
        "iso2": "US",
        "lat": 40.7692649,
        "lon": -73.1151117
      },
      "website": "http://www.ddc-web.com"
    },
    {
      "name": "Dataminr",
      "exhibitorUrl": "https://s19.a2zinc.net/clients/ausa/annual2023/Public/eBooth.aspx?IndexInList=145&FromPage=Exhibitors.aspx&ParentBoothID=&ListByBooth=true&BoothID=104347",
      "address": {
        "text": "New York,\nNY\nUnited States",
        "iso2": "US",
        "lat": 40.7127753,
        "lon": -74.0059728
      },
      "website": "http://www.dataminr.com"
    },
    {
      "name": "Day & Zimmermann",
      "exhibitorUrl": "https://s19.a2zinc.net/clients/ausa/annual2023/Public/eBooth.aspx?IndexInList=146&FromPage=Exhibitors.aspx&ParentBoothID=&ListByBooth=true&BoothID=101773",
      "address": {
        "text": "Philadelphia,\nPA\nUnited States",
        "iso2": "US",
        "lat": 39.9525839,
        "lon": -75.1652215
      },
      "website": "http://www.dayzim.com"
    },
    {
      "name": "Defense Logistics Agency",
      "exhibitorUrl": "https://s19.a2zinc.net/clients/ausa/annual2023/Public/eBooth.aspx?IndexInList=149&FromPage=Exhibitors.aspx&ParentBoothID=&ListByBooth=true&BoothID=102387",
      "address": {
        "text": "Fort Belvoir,\nVA\nUnited States",
        "iso2": "US",
        "lat": 38.71887160000001,
        "lon": -77.15426839999999
      }
    },
    {
      "name": "Defense News",
      "exhibitorUrl": "https://s19.a2zinc.net/clients/ausa/annual2023/Public/eBooth.aspx?IndexInList=150&FromPage=Exhibitors.aspx&ParentBoothID=&ListByBooth=true&BoothID=103475",
      "address": {
        "text": "Arlington,\nVA\nUnited States",
        "iso2": "US",
        "lat": 38.8816208,
        "lon": -77.09098089999999
      }
    },
    {
      "name": "Defense Security Cooperation Agency (DSCA)",
      "exhibitorUrl": "https://s19.a2zinc.net/clients/ausa/annual2023/Public/eBooth.aspx?IndexInList=151&FromPage=Exhibitors.aspx&ParentBoothID=&ListByBooth=true&BoothID=103629",
      "address": {
        "text": "Alexandria,\nVA\nUnited States",
        "iso2": "US",
        "lat": 38.8048355,
        "lon": -77.0469214
      }
    },
    {
      "name": "Deloitte",
      "exhibitorUrl": "https://s19.a2zinc.net/clients/ausa/annual2023/Public/eBooth.aspx?IndexInList=152&FromPage=Exhibitors.aspx&ParentBoothID=&ListByBooth=true&BoothID=103140",
      "address": {
        "text": "Arlington,\nVA\nUnited States",
        "iso2": "US",
        "lat": 38.8816208,
        "lon": -77.09098089999999
      },
      "website": "http://www.deloitte.com/us/federal"
    },
    {
      "name": "Diehl Defence GmbH & Co. KG",
      "exhibitorUrl": "https://s19.a2zinc.net/clients/ausa/annual2023/Public/eBooth.aspx?IndexInList=155&FromPage=Exhibitors.aspx&ParentBoothID=&ListByBooth=true&BoothID=105130",
      "address": {
        "text": "berlingen,\nGermany",
        "iso2": "DE",
        "lat": 47.7661746,
        "lon": 9.1702772
      },
      "website": "https://www.diehl.com/defence"
    },
    {
      "name": "DittoLive Inc",
      "exhibitorUrl": "https://s19.a2zinc.net/clients/ausa/annual2023/Public/eBooth.aspx?IndexInList=156&FromPage=Exhibitors.aspx&ParentBoothID=&ListByBooth=true&BoothID=105027",
      "address": {
        "text": "San Francisco,\nCA\nUnited States",
        "iso2": "US",
        "lat": 37.7749295,
        "lon": -122.4194155
      },
      "website": "www.ditto.live"
    },
    {
      "name": "Donaldson Company, Inc.",
      "exhibitorUrl": "https://s19.a2zinc.net/clients/ausa/annual2023/Public/eBooth.aspx?IndexInList=157&FromPage=Exhibitors.aspx&ParentBoothID=&ListByBooth=true&BoothID=102935",
      "address": {
        "text": "Minneapolis,\nMN\nUnited States",
        "iso2": "US",
        "lat": 44.977753,
        "lon": -93.2650108
      },
      "website": "http://www.donaldson.aero"
    },
    {
      "name": "Ducommun Incorporated",
      "exhibitorUrl": "https://s19.a2zinc.net/clients/ausa/annual2023/Public/eBooth.aspx?IndexInList=159&FromPage=Exhibitors.aspx&ParentBoothID=&ListByBooth=true&BoothID=103058",
      "address": {
        "text": "Santa Ana,\nCA\nUnited States",
        "iso2": "US",
        "lat": 33.7454725,
        "lon": -117.867653
      },
      "website": "http://www.ducommun.com"
    },
    {
      "name": "Duroair Technologies USA Inc.",
      "exhibitorUrl": "https://s19.a2zinc.net/clients/ausa/annual2023/Public/eBooth.aspx?IndexInList=160&FromPage=Exhibitors.aspx&ParentBoothID=&ListByBooth=true&BoothID=102299",
      "address": {
        "text": "East Aurora,\nNY\nUnited States",
        "iso2": "US",
        "lat": 42.7678376,
        "lon": -78.6133589
      },
      "website": "duroair.com"
    },
    {
      "name": "Dynamit Nobel Defence, German Pavilion",
      "exhibitorUrl": "https://s19.a2zinc.net/clients/ausa/annual2023/Public/eBooth.aspx?IndexInList=161&FromPage=Exhibitors.aspx&ParentBoothID=&ListByBooth=true&BoothID=103334",
      "address": {
        "text": "Burbach ,\nGermany",
        "iso2": "DE",
        "lat": 50.7455764,
        "lon": 8.0803107
      }
    },
    {
      "name": "ECS Case",
      "exhibitorUrl": "https://s19.a2zinc.net/clients/ausa/annual2023/Public/eBooth.aspx?IndexInList=163&FromPage=Exhibitors.aspx&ParentBoothID=&ListByBooth=true&BoothID=104963",
      "address": {
        "text": "Grants Pass,\nOR\nUnited States",
        "iso2": "US",
        "lat": 42.4390069,
        "lon": -123.3283925
      }
    },
    {
      "name": "ECU Corporation",
      "exhibitorUrl": "https://s19.a2zinc.net/clients/ausa/annual2023/Public/eBooth.aspx?IndexInList=164&FromPage=Exhibitors.aspx&ParentBoothID=&ListByBooth=true&BoothID=102313",
      "address": {
        "text": "Cincinnati,\nOH\nUnited States",
        "iso2": "US",
        "lat": 39.1031182,
        "lon": -84.5120196
      },
      "website": "http://www.ecucorp.com"
    },
    {
      "name": "EIZO Rugged Solutions",
      "exhibitorUrl": "https://s19.a2zinc.net/clients/ausa/annual2023/Public/eBooth.aspx?IndexInList=166&FromPage=Exhibitors.aspx&ParentBoothID=&ListByBooth=true&BoothID=104354",
      "address": {
        "text": "Orlando,\nFL\nUnited States",
        "iso2": "US",
        "lat": 28.5383832,
        "lon": -81.3789269
      },
      "website": "http://www.eizorugged.com"
    },
    {
      "name": "ELFON LTD.",
      "exhibitorUrl": "https://s19.a2zinc.net/clients/ausa/annual2023/Public/eBooth.aspx?IndexInList=168&FromPage=Exhibitors.aspx&ParentBoothID=&ListByBooth=true&BoothID=105849",
      "address": {
        "text": "Pallini,\nGreece",
        "iso2": "GR",
        "lat": 38.00351029999999,
        "lon": 23.8835158
      },
      "website": "http://www.elfon.gr"
    },
    {
      "name": "EOS Defense Systems USA Inc.",
      "exhibitorUrl": "https://s19.a2zinc.net/clients/ausa/annual2023/Public/eBooth.aspx?IndexInList=177&FromPage=Exhibitors.aspx&ParentBoothID=&ListByBooth=true&BoothID=104336",
      "address": {
        "text": "Huntsville,\nAL\nUnited States",
        "iso2": "US",
        "lat": 34.7303688,
        "lon": -86.5861037
      }
    },
    {
      "name": "EOTECH LLC",
      "exhibitorUrl": "https://s19.a2zinc.net/clients/ausa/annual2023/Public/eBooth.aspx?IndexInList=178&FromPage=Exhibitors.aspx&ParentBoothID=&ListByBooth=true&BoothID=102647",
      "address": {
        "text": "Plymouth,\nMI\nUnited States",
        "iso2": "US",
        "lat": 42.3714253,
        "lon": -83.4702132
      }
    },
    {
      "name": "EXO Charge",
      "exhibitorUrl": "https://s19.a2zinc.net/clients/ausa/annual2023/Public/eBooth.aspx?IndexInList=182&FromPage=Exhibitors.aspx&ParentBoothID=&ListByBooth=true&BoothID=102202",
      "address": {
        "text": "Addison,\nIL\nUnited States",
        "iso2": "US",
        "lat": 41.931696,
        "lon": -87.9889556
      }
    },
    {
      "name": "EY",
      "exhibitorUrl": "https://s19.a2zinc.net/clients/ausa/annual2023/Public/eBooth.aspx?IndexInList=183&FromPage=Exhibitors.aspx&ParentBoothID=&ListByBooth=true&BoothID=103690",
      "address": {
        "text": "McLean,\nVA\nUnited States",
        "iso2": "US",
        "lat": 38.9338676,
        "lon": -77.1772604
      },
      "website": "https://www.ey.com"
    },
    {
      "name": "Echodyne",
      "exhibitorUrl": "https://s19.a2zinc.net/clients/ausa/annual2023/Public/eBooth.aspx?IndexInList=162&FromPage=Exhibitors.aspx&ParentBoothID=&ListByBooth=true&BoothID=104298",
      "address": {
        "text": "Kirkland,\nWA\nUnited States",
        "iso2": "US",
        "lat": 47.6768927,
        "lon": -122.2059833
      },
      "website": "http://echodyne.com"
    },
    {
      "name": "Edge Autonomy",
      "exhibitorUrl": "https://s19.a2zinc.net/clients/ausa/annual2023/Public/eBooth.aspx?IndexInList=165&FromPage=Exhibitors.aspx&ParentBoothID=&ListByBooth=true&BoothID=104332",
      "address": {
        "text": "Bend,\nOR\nUnited States",
        "iso2": "US",
        "lat": 44.0581728,
        "lon": -121.3153096
      }
    },
    {
      "name": "Elbit Systems of America, LLC",
      "exhibitorUrl": "https://s19.a2zinc.net/clients/ausa/annual2023/Public/eBooth.aspx?IndexInList=167&FromPage=Exhibitors.aspx&ParentBoothID=&ListByBooth=true&BoothID=101265",
      "address": {
        "text": "Fort Worth,\nTX\nUnited States",
        "iso2": "US",
        "lat": 32.7554883,
        "lon": -97.3307658
      }
    },
    {
      "name": "Elika Team",
      "exhibitorUrl": "https://s19.a2zinc.net/clients/ausa/annual2023/Public/eBooth.aspx?IndexInList=169&FromPage=Exhibitors.aspx&ParentBoothID=&ListByBooth=true&BoothID=105613",
      "address": {
        "text": "Biarritz,\nFrance",
        "iso2": "FR",
        "lat": 43.4831519,
        "lon": -1.558626
      },
      "website": "http://www.elikateam.com"
    },
    {
      "name": "Elma Electronic Inc.",
      "exhibitorUrl": "https://s19.a2zinc.net/clients/ausa/annual2023/Public/eBooth.aspx?IndexInList=170&FromPage=Exhibitors.aspx&ParentBoothID=&ListByBooth=true&BoothID=102951",
      "address": {
        "text": "Fremont,\nCA\nUnited States",
        "iso2": "US",
        "lat": 37.5485396,
        "lon": -121.988583
      }
    },
    {
      "name": "Empower AI",
      "exhibitorUrl": "https://s19.a2zinc.net/clients/ausa/annual2023/Public/eBooth.aspx?IndexInList=171&FromPage=Exhibitors.aspx&ParentBoothID=&ListByBooth=true&BoothID=105039",
      "address": {
        "text": "Reston,\nVA\nUnited States",
        "iso2": "US",
        "lat": 38.9586307,
        "lon": -77.35700279999999
      },
      "website": "http://www.empower.ai"
    },
    {
      "name": "EnerSys",
      "exhibitorUrl": "https://s19.a2zinc.net/clients/ausa/annual2023/Public/eBooth.aspx?IndexInList=173&FromPage=Exhibitors.aspx&ParentBoothID=&ListByBooth=true&BoothID=104890",
      "address": {
        "text": "Vienna,\nVA\nUnited States",
        "iso2": "US",
        "lat": 38.9012225,
        "lon": -77.2652604
      },
      "website": "http://www.enersysinc.com"
    },
    {
      "name": "Enercon Engineering",
      "exhibitorUrl": "https://s19.a2zinc.net/clients/ausa/annual2023/Public/eBooth.aspx?IndexInList=172&FromPage=Exhibitors.aspx&ParentBoothID=&ListByBooth=true&BoothID=103851",
      "address": {
        "text": "Huntsville,\nAL\nUnited States",
        "iso2": "US",
        "lat": 34.7303688,
        "lon": -86.5861037
      }
    },
    {
      "name": "Enterprise Greece",
      "exhibitorUrl": "https://s19.a2zinc.net/clients/ausa/annual2023/Public/eBooth.aspx?IndexInList=174&FromPage=Exhibitors.aspx&ParentBoothID=&ListByBooth=true&BoothID=105851",
      "address": {
        "text": "thens,\nGreece",
        "iso2": "GR",
        "lat": 37.9838096,
        "lon": 23.7275388
      },
      "website": "https://www.enterprisegreece.gov.gr"
    },
    {
      "name": "Envirospec Inc.",
      "exhibitorUrl": "https://s19.a2zinc.net/clients/ausa/annual2023/Public/eBooth.aspx?IndexInList=175&FromPage=Exhibitors.aspx&ParentBoothID=&ListByBooth=true&BoothID=105271",
      "address": {
        "text": "Homerville,\nGeorgia\nGeorgia",
        "iso2": "US",
        "lat": 31.0365983,
        "lon": -82.74708489999999
      },
      "website": "www.envirospec.com"
    },
    {
      "name": "EolianVR, Inc.",
      "exhibitorUrl": "https://s19.a2zinc.net/clients/ausa/annual2023/Public/eBooth.aspx?IndexInList=176&FromPage=Exhibitors.aspx&ParentBoothID=&ListByBooth=true&BoothID=104163",
      "address": {
        "text": "Largo,\nFL\nUnited States",
        "iso2": "US",
        "lat": 27.9094665,
        "lon": -82.7873244
      },
      "website": "https://www.eolianvr.com"
    },
    {
      "name": "Epirus",
      "exhibitorUrl": "https://s19.a2zinc.net/clients/ausa/annual2023/Public/eBooth.aspx?IndexInList=179&FromPage=Exhibitors.aspx&ParentBoothID=&ListByBooth=true&BoothID=101572",
      "address": {
        "text": "Torrance,\nCA\nUnited States",
        "iso2": "US",
        "lat": 33.8358492,
        "lon": -118.3406288
      },
      "website": "https://www.epirusinc.com"
    },
    {
      "name": "Equitus",
      "exhibitorUrl": "https://s19.a2zinc.net/clients/ausa/annual2023/Public/eBooth.aspx?IndexInList=180&FromPage=Exhibitors.aspx&ParentBoothID=&ListByBooth=true&BoothID=105105",
      "address": {
        "text": "Clearwater,\nFL\nUnited States",
        "iso2": "US",
        "lat": 27.9658533,
        "lon": -82.8001026
      },
      "website": "https://equitus.us"
    },
    {
      "name": "Esri",
      "exhibitorUrl": "https://s19.a2zinc.net/clients/ausa/annual2023/Public/eBooth.aspx?IndexInList=181&FromPage=Exhibitors.aspx&ParentBoothID=&ListByBooth=true&BoothID=101438",
      "address": {
        "text": "Redlands,\nCA\nUnited States",
        "iso2": "US",
        "lat": 34.0555693,
        "lon": -117.1825381
      }
    },
    {
      "name": "FALCK-SCHMIDT",
      "exhibitorUrl": "https://s19.a2zinc.net/clients/ausa/annual2023/Public/eBooth.aspx?IndexInList=185&FromPage=Exhibitors.aspx&ParentBoothID=&ListByBooth=true&BoothID=101201",
      "address": {
        "text": "Odense S,\nDenmark",
        "iso2": "DK",
        "lat": 55.334065,
        "lon": 10.3736398
      },
      "website": "http://www.falck-schmidt.systems"
    },
    {
      "name": "FAUN Trackway USA, Inc.",
      "exhibitorUrl": "https://s19.a2zinc.net/clients/ausa/annual2023/Public/eBooth.aspx?IndexInList=187&FromPage=Exhibitors.aspx&ParentBoothID=&ListByBooth=true&BoothID=101851",
      "address": {
        "text": "Arlington,\nVA\nUnited States",
        "iso2": "US",
        "lat": 38.8816208,
        "lon": -77.09098089999999
      }
    },
    {
      "name": "FDH Aero",
      "exhibitorUrl": "https://s19.a2zinc.net/clients/ausa/annual2023/Public/eBooth.aspx?IndexInList=188&FromPage=Exhibitors.aspx&ParentBoothID=&ListByBooth=true&BoothID=104911",
      "address": {
        "text": "Ronkonkoma,\nNY\nUnited States",
        "iso2": "US",
        "lat": 40.80641869999999,
        "lon": -73.1241488
      },
      "website": "https://www.bjgelectronics.com"
    },
    {
      "name": "FLUOR Corporation",
      "exhibitorUrl": "https://s19.a2zinc.net/clients/ausa/annual2023/Public/eBooth.aspx?IndexInList=193&FromPage=Exhibitors.aspx&ParentBoothID=&ListByBooth=true&BoothID=104843",
      "address": {
        "text": "Arlington,\nVA\nUnited States",
        "iso2": "US",
        "lat": 38.8816208,
        "lon": -77.09098089999999
      },
      "website": "http://www.fluor.com"
    },
    {
      "name": "FN America, LLC",
      "exhibitorUrl": "https://s19.a2zinc.net/clients/ausa/annual2023/Public/eBooth.aspx?IndexInList=195&FromPage=Exhibitors.aspx&ParentBoothID=&ListByBooth=true&BoothID=103555",
      "address": {
        "text": "McLean,\nVA\nUnited States",
        "iso2": "US",
        "lat": 38.9338676,
        "lon": -77.1772604
      }
    },
    {
      "name": "FRENCH PAVILION",
      "exhibitorUrl": "https://s19.a2zinc.net/clients/ausa/annual2023/Public/eBooth.aspx?IndexInList=197&FromPage=Exhibitors.aspx&ParentBoothID=&ListByBooth=true&BoothID=101627",
      "address": {
        "text": "Paris,\nFrance",
        "iso2": "FR",
        "lat": 48.856614,
        "lon": 2.3522219
      },
      "website": "http://www.cogesevents.com"
    },
    {
      "name": "FT Technologies (UK) LTD",
      "exhibitorUrl": "https://s19.a2zinc.net/clients/ausa/annual2023/Public/eBooth.aspx?IndexInList=199&FromPage=Exhibitors.aspx&ParentBoothID=&ListByBooth=true&BoothID=104110",
      "address": {
        "text": "Sunbury-on-Thames,\nSurrey\nUnited Kingdom",
        "iso2": "GB",
        "lat": 51.4191935,
        "lon": -0.4191503
      },
      "website": "https://fttechnologies.com"
    },
    {
      "name": "Fairwinds Technologies",
      "exhibitorUrl": "https://s19.a2zinc.net/clients/ausa/annual2023/Public/eBooth.aspx?IndexInList=184&FromPage=Exhibitors.aspx&ParentBoothID=&ListByBooth=true&BoothID=105274",
      "address": {
        "text": "Annapolis,\nMD\nUnited States",
        "iso2": "US",
        "lat": 38.9784453,
        "lon": -76.4921829
      },
      "website": "https://www.fairwinds-tech.com"
    },
    {
      "name": "FalCom LLC",
      "exhibitorUrl": "https://s19.a2zinc.net/clients/ausa/annual2023/Public/eBooth.aspx?IndexInList=186&FromPage=Exhibitors.aspx&ParentBoothID=&ListByBooth=true&BoothID=103993",
      "address": {
        "text": "Minneapolis,\nMN\nUnited States",
        "iso2": "US",
        "lat": 44.977753,
        "lon": -93.2650108
      },
      "website": "http://www.Falcom.net"
    },
    {
      "name": "FedPoint",
      "exhibitorUrl": "https://s19.a2zinc.net/clients/ausa/annual2023/Public/eBooth.aspx?IndexInList=189&FromPage=Exhibitors.aspx&ParentBoothID=&ListByBooth=true&BoothID=102259",
      "address": {
        "text": "Portsmouth,\nNH\nUnited States",
        "iso2": "US",
        "lat": 43.0717552,
        "lon": -70.7625532
      },
      "website": "https://www.ltcpartners.com"
    },
    {
      "name": "Fibrotex USA. Inc.",
      "exhibitorUrl": "https://s19.a2zinc.net/clients/ausa/annual2023/Public/eBooth.aspx?IndexInList=190&FromPage=Exhibitors.aspx&ParentBoothID=&ListByBooth=true&BoothID=102251",
      "address": {
        "text": "Stearns,\nKY\nUnited States",
        "iso2": "US",
        "lat": 36.6989673,
        "lon": -84.4774386
      },
      "website": "http://www.fibrotexusa.com"
    },
    {
      "name": "Fischer Connectors, Inc.",
      "exhibitorUrl": "https://s19.a2zinc.net/clients/ausa/annual2023/Public/eBooth.aspx?IndexInList=191&FromPage=Exhibitors.aspx&ParentBoothID=&ListByBooth=true&BoothID=105860",
      "address": {
        "text": "Alpharetta,\nGA\nUnited States",
        "iso2": "US",
        "lat": 34.0753762,
        "lon": -84.2940899
      },
      "website": "http://www.fischerconnectors.com"
    },
    {
      "name": "Fischer Panda Generators",
      "exhibitorUrl": "https://s19.a2zinc.net/clients/ausa/annual2023/Public/eBooth.aspx?IndexInList=192&FromPage=Exhibitors.aspx&ParentBoothID=&ListByBooth=true&BoothID=102247",
      "address": {
        "text": "Pompano Beach,\nFL\nUnited States",
        "iso2": "US",
        "lat": 26.2378597,
        "lon": -80.1247667
      },
      "website": "http://www.fischerpanda.com"
    },
    {
      "name": "Flyer Defense, LLC",
      "exhibitorUrl": "https://s19.a2zinc.net/clients/ausa/annual2023/Public/eBooth.aspx?IndexInList=194&FromPage=Exhibitors.aspx&ParentBoothID=&ListByBooth=true&BoothID=105258",
      "address": {
        "text": "Los Angeles,\nCA\nUnited States",
        "iso2": "US",
        "lat": 34.0522342,
        "lon": -118.2436849
      },
      "website": "https://flyerdefense.com"
    },
    {
      "name": "Foerster",
      "exhibitorUrl": "https://s19.a2zinc.net/clients/ausa/annual2023/Public/eBooth.aspx?IndexInList=196&FromPage=Exhibitors.aspx&ParentBoothID=&ListByBooth=true&BoothID=104922",
      "address": {
        "text": "Pittsburgh,\nPA\nUnited States",
        "iso2": "US",
        "lat": 40.44062479999999,
        "lon": -79.9958864
      },
      "website": "http://www.foerstergroup.com"
    },
    {
      "name": "Frontgrade",
      "exhibitorUrl": "https://s19.a2zinc.net/clients/ausa/annual2023/Public/eBooth.aspx?IndexInList=198&FromPage=Exhibitors.aspx&ParentBoothID=&ListByBooth=true&BoothID=103936",
      "address": {
        "text": "Colorado Springs,\nCO\nUnited States",
        "iso2": "US",
        "lat": 38.8338816,
        "lon": -104.8213634
      },
      "website": "https://frontgrade.com"
    },
    {
      "name": "G.W. Lisk Company",
      "exhibitorUrl": "https://s19.a2zinc.net/clients/ausa/annual2023/Public/eBooth.aspx?IndexInList=200&FromPage=Exhibitors.aspx&ParentBoothID=&ListByBooth=true&BoothID=104949",
      "address": {
        "text": "CLIFTON SPRINGS,\nNY\nUnited States",
        "iso2": "US",
        "lat": 42.9617304,
        "lon": -77.1399756
      },
      "website": "http://www.gwlisk.com"
    },
    {
      "name": "GATE Technologies, Ltd.",
      "exhibitorUrl": "https://s19.a2zinc.net/clients/ausa/annual2023/Public/eBooth.aspx?IndexInList=203&FromPage=Exhibitors.aspx&ParentBoothID=&ListByBooth=true&BoothID=105667",
      "address": {
        "text": "Bareket,\nIsrael",
        "iso2": "IL",
        "lat": 32.018344,
        "lon": 34.943179
      },
      "website": "https://gate-dev.com"
    },
    {
      "name": "GICAT",
      "exhibitorUrl": "https://s19.a2zinc.net/clients/ausa/annual2023/Public/eBooth.aspx?IndexInList=217&FromPage=Exhibitors.aspx&ParentBoothID=&ListByBooth=true&BoothID=105608",
      "address": {
        "text": "Paris,\nFrance",
        "iso2": "FR",
        "lat": 48.856614,
        "lon": 2.3522219
      },
      "website": "http://www.gicat.com"
    },
    {
      "name": "GLOBAL ORDNANCE",
      "exhibitorUrl": "https://s19.a2zinc.net/clients/ausa/annual2023/Public/eBooth.aspx?IndexInList=219&FromPage=Exhibitors.aspx&ParentBoothID=&ListByBooth=true&BoothID=104159",
      "address": {
        "text": "Sarasota,\nFL\nUnited States",
        "iso2": "US",
        "lat": 27.336465,
        "lon": -82.5310117
      },
      "website": "http://www.global-ordnance.com"
    },
    {
      "name": "GM Defense",
      "exhibitorUrl": "https://s19.a2zinc.net/clients/ausa/annual2023/Public/eBooth.aspx?IndexInList=224&FromPage=Exhibitors.aspx&ParentBoothID=&ListByBooth=true&BoothID=102610",
      "address": {
        "text": "Washington,\nDC\nUnited States",
        "iso2": "US",
        "lat": 38.9071923,
        "lon": -77.0368707
      },
      "website": "http://www.gmdefensellc.com"
    },
    {
      "name": "Galvion",
      "exhibitorUrl": "https://s19.a2zinc.net/clients/ausa/annual2023/Public/eBooth.aspx?IndexInList=201&FromPage=Exhibitors.aspx&ParentBoothID=&ListByBooth=true&BoothID=102398",
      "address": {
        "text": "Portsmouth,\nNH\nUnited States",
        "iso2": "US",
        "lat": 43.0717552,
        "lon": -70.7625532
      },
      "website": "https://www.galvion.com"
    },
    {
      "name": "GasTOPS, Inc.",
      "exhibitorUrl": "https://s19.a2zinc.net/clients/ausa/annual2023/Public/eBooth.aspx?IndexInList=202&FromPage=Exhibitors.aspx&ParentBoothID=&ListByBooth=true&BoothID=103931",
      "address": {
        "text": "Huntsville,\nAL\nUnited States",
        "iso2": "US",
        "lat": 34.7303688,
        "lon": -86.5861037
      }
    },
    {
      "name": "Gemstar Manufacturing",
      "exhibitorUrl": "https://s19.a2zinc.net/clients/ausa/annual2023/Public/eBooth.aspx?IndexInList=204&FromPage=Exhibitors.aspx&ParentBoothID=&ListByBooth=true&BoothID=102031",
      "address": {
        "text": "Cannon Falls,\nMN\nUnited States",
        "iso2": "US",
        "lat": 44.5069113,
        "lon": -92.905484
      },
      "website": "https://www.gemstarmfg.com"
    },
    {
      "name": "Genasys Inc.",
      "exhibitorUrl": "https://s19.a2zinc.net/clients/ausa/annual2023/Public/eBooth.aspx?IndexInList=205&FromPage=Exhibitors.aspx&ParentBoothID=&ListByBooth=true&BoothID=103729",
      "address": {
        "text": "San Diego,\nCA\nUnited States",
        "iso2": "US",
        "lat": 32.715738,
        "lon": -117.1610838
      }
    },
    {
      "name": "General Atomics Electromagnetic Systems",
      "exhibitorUrl": "https://s19.a2zinc.net/clients/ausa/annual2023/Public/eBooth.aspx?IndexInList=206&FromPage=Exhibitors.aspx&ParentBoothID=&ListByBooth=true&BoothID=103101",
      "address": {
        "text": "San Diego,\nCA\nUnited States",
        "iso2": "US",
        "lat": 32.715738,
        "lon": -117.1610838
      }
    },
    {
      "name": "General Digital Corporation",
      "exhibitorUrl": "https://s19.a2zinc.net/clients/ausa/annual2023/Public/eBooth.aspx?IndexInList=207&FromPage=Exhibitors.aspx&ParentBoothID=&ListByBooth=true&BoothID=104149",
      "address": {
        "text": "East Hartford,\nCT\nUnited States",
        "iso2": "US",
        "lat": 41.7634219,
        "lon": -72.6128339
      },
      "website": "http://www.generaldigital.com"
    },
    {
      "name": "General Directorate for Defence Investments and Armaments",
      "exhibitorUrl": "https://s19.a2zinc.net/clients/ausa/annual2023/Public/eBooth.aspx?IndexInList=208&FromPage=Exhibitors.aspx&ParentBoothID=&ListByBooth=true&BoothID=105852",
      "address": {
        "text": "Athens,\nGreece",
        "iso2": "GR",
        "lat": 37.9838096,
        "lon": 23.7275388
      }
    },
    {
      "name": "General Dynamics",
      "exhibitorUrl": "https://s19.a2zinc.net/clients/ausa/annual2023/Public/eBooth.aspx?IndexInList=209&FromPage=Exhibitors.aspx&ParentBoothID=&ListByBooth=true&BoothID=101291",
      "address": {
        "text": "Fairfax,\nVA\nUnited States",
        "iso2": "US",
        "lat": 38.84622359999999,
        "lon": -77.30637329999999
      },
      "website": "http://www.gdmissionsystems.com"
    },
    {
      "name": "General Dynamics Land Systems Division",
      "exhibitorUrl": "https://s19.a2zinc.net/clients/ausa/annual2023/Public/eBooth.aspx?IndexInList=210&FromPage=Exhibitors.aspx&ParentBoothID=&ListByBooth=true&BoothID=101225",
      "address": {
        "text": "Sterling Heights,\nMI\nUnited States",
        "iso2": "US",
        "lat": 42.5803122,
        "lon": -83.0302033
      },
      "website": "http://www.gdls.com"
    },
    {
      "name": "General Dynamics Ordnance & Tactical Systems",
      "exhibitorUrl": "https://s19.a2zinc.net/clients/ausa/annual2023/Public/eBooth.aspx?IndexInList=211&FromPage=Exhibitors.aspx&ParentBoothID=&ListByBooth=true&BoothID=101234",
      "address": {
        "text": "Saint Petersburg,\nFL\nUnited States",
        "iso2": "US",
        "lat": 27.7676008,
        "lon": -82.64029149999999
      },
      "website": "http://www.gd-ots.com"
    },
    {
      "name": "General Electric Company",
      "exhibitorUrl": "https://s19.a2zinc.net/clients/ausa/annual2023/Public/eBooth.aspx?IndexInList=212&FromPage=Exhibitors.aspx&ParentBoothID=&ListByBooth=true&BoothID=102620",
      "address": {
        "text": "Washington,\nDC\nUnited States",
        "iso2": "US",
        "lat": 38.9071923,
        "lon": -77.0368707
      },
      "website": "http://www.geae.com"
    },
    {
      "name": "General Micro Systems, Inc.",
      "exhibitorUrl": "https://s19.a2zinc.net/clients/ausa/annual2023/Public/eBooth.aspx?IndexInList=213&FromPage=Exhibitors.aspx&ParentBoothID=&ListByBooth=true&BoothID=102037",
      "address": {
        "text": "Rancho Cucamonga,\nCA\nUnited States",
        "iso2": "US",
        "lat": 34.10639889999999,
        "lon": -117.5931084
      }
    },
    {
      "name": "Gentex Corporation / Ops-Core",
      "exhibitorUrl": "https://s19.a2zinc.net/clients/ausa/annual2023/Public/eBooth.aspx?IndexInList=214&FromPage=Exhibitors.aspx&ParentBoothID=&ListByBooth=true&BoothID=104853",
      "address": {
        "text": "Carbondale,\nPA\nUnited States",
        "iso2": "US",
        "lat": 41.5736935,
        "lon": -75.5018508
      },
      "website": "http://www.gentexcorp.com"
    },
    {
      "name": "Georgia Tech Research Institute",
      "exhibitorUrl": "https://s19.a2zinc.net/clients/ausa/annual2023/Public/eBooth.aspx?IndexInList=215&FromPage=Exhibitors.aspx&ParentBoothID=&ListByBooth=true&BoothID=103793",
      "address": {
        "text": "Atlanta,\nGA\nUnited States",
        "iso2": "US",
        "lat": 33.748752,
        "lon": -84.38768449999999
      },
      "website": "http://gtri.gatech.edu"
    },
    {
      "name": "Ghost Robotics",
      "exhibitorUrl": "https://s19.a2zinc.net/clients/ausa/annual2023/Public/eBooth.aspx?IndexInList=216&FromPage=Exhibitors.aspx&ParentBoothID=&ListByBooth=true&BoothID=104082",
      "address": {
        "text": "Philadelphia,\nPA\nUnited States",
        "iso2": "US",
        "lat": 39.9525839,
        "lon": -75.1652215
      }
    },
    {
      "name": "Glenair, Inc.",
      "exhibitorUrl": "https://s19.a2zinc.net/clients/ausa/annual2023/Public/eBooth.aspx?IndexInList=218&FromPage=Exhibitors.aspx&ParentBoothID=&ListByBooth=true&BoothID=104820",
      "address": {
        "text": "Glendale,\nCA\nUnited States",
        "iso2": "US",
        "lat": 34.1425078,
        "lon": -118.255075
      },
      "website": "http://www.glenair.com"
    },
    {
      "name": "Global Technical Systems",
      "exhibitorUrl": "https://s19.a2zinc.net/clients/ausa/annual2023/Public/eBooth.aspx?IndexInList=220&FromPage=Exhibitors.aspx&ParentBoothID=&ListByBooth=true&BoothID=103809",
      "address": {
        "text": "Virginia Beach,\nVA\nUnited States",
        "iso2": "US",
        "lat": 36.8516437,
        "lon": -75.97921939999999
      }
    },
    {
      "name": "Global Tungsten & Powders",
      "exhibitorUrl": "https://s19.a2zinc.net/clients/ausa/annual2023/Public/eBooth.aspx?IndexInList=221&FromPage=Exhibitors.aspx&ParentBoothID=&ListByBooth=true&BoothID=102209",
      "address": {
        "text": "Towanda,\nPA\nUnited States",
        "iso2": "US",
        "lat": 41.767575,
        "lon": -76.4427188
      },
      "website": "http://www.globaltungsten.com"
    },
    {
      "name": "Globe Tech, LLC",
      "exhibitorUrl": "https://s19.a2zinc.net/clients/ausa/annual2023/Public/eBooth.aspx?IndexInList=222&FromPage=Exhibitors.aspx&ParentBoothID=&ListByBooth=true&BoothID=104312",
      "address": {
        "text": "Plymouth,\nMI\nUnited States",
        "iso2": "US",
        "lat": 42.3714253,
        "lon": -83.4702132
      },
      "website": "https://globetech-us.com"
    },
    {
      "name": "Glock, Inc.",
      "exhibitorUrl": "https://s19.a2zinc.net/clients/ausa/annual2023/Public/eBooth.aspx?IndexInList=223&FromPage=Exhibitors.aspx&ParentBoothID=&ListByBooth=true&BoothID=104099",
      "address": {
        "text": "Smyrna,\nGA\nUnited States",
        "iso2": "US",
        "lat": 33.8839926,
        "lon": -84.51437609999999
      },
      "website": "http://www.glock.com"
    },
    {
      "name": "Golight, Inc.",
      "exhibitorUrl": "https://s19.a2zinc.net/clients/ausa/annual2023/Public/eBooth.aspx?IndexInList=225&FromPage=Exhibitors.aspx&ParentBoothID=&ListByBooth=true&BoothID=103515",
      "address": {
        "text": "Culbertson,\nNE\nUnited States",
        "iso2": "US",
        "lat": 40.23071400000001,
        "lon": -100.8369649
      },
      "website": "http://www.golight.com"
    },
    {
      "name": "Goodyear Tire & Rubber Co.",
      "exhibitorUrl": "https://s19.a2zinc.net/clients/ausa/annual2023/Public/eBooth.aspx?IndexInList=226&FromPage=Exhibitors.aspx&ParentBoothID=&ListByBooth=true&BoothID=101957",
      "address": {
        "text": "Akron,\nOH\nUnited States",
        "iso2": "US",
        "lat": 41.0814447,
        "lon": -81.51900529999999
      },
      "website": "http://www.goodyear.com"
    },
    {
      "name": "GovExec",
      "exhibitorUrl": "https://s19.a2zinc.net/clients/ausa/annual2023/Public/eBooth.aspx?IndexInList=228&FromPage=Exhibitors.aspx&ParentBoothID=&ListByBooth=true&BoothID=105155",
      "address": {
        "text": "Washington,\nDC\nUnited States",
        "iso2": "US",
        "lat": 38.9071923,
        "lon": -77.0368707
      }
    },
    {
      "name": "HDT Global",
      "exhibitorUrl": "https://s19.a2zinc.net/clients/ausa/annual2023/Public/eBooth.aspx?IndexInList=230&FromPage=Exhibitors.aspx&ParentBoothID=&ListByBooth=true&BoothID=101680",
      "address": {
        "text": "Solon,\nOH\nUnited States",
        "iso2": "US",
        "lat": 41.3897764,
        "lon": -81.44122589999999
      },
      "website": "http://www.hdtglobal.com"
    },
    {
      "name": "HELLENIC PAVILION ORGANIZER - AmChamGR",
      "exhibitorUrl": "https://s19.a2zinc.net/clients/ausa/annual2023/Public/eBooth.aspx?IndexInList=233&FromPage=Exhibitors.aspx&ParentBoothID=&ListByBooth=true&BoothID=101779",
      "address": {
        "text": "Athens,\nGreece",
        "iso2": "GR",
        "lat": 37.9838096,
        "lon": 23.7275388
      },
      "website": "http://www.amcham.gr"
    },
    {
      "name": "HENSOLDT North America",
      "exhibitorUrl": "https://s19.a2zinc.net/clients/ausa/annual2023/Public/eBooth.aspx?IndexInList=236&FromPage=Exhibitors.aspx&ParentBoothID=&ListByBooth=true&BoothID=104888",
      "address": {
        "text": "Vienna,\nVA\nUnited States",
        "iso2": "US",
        "lat": 38.9012225,
        "lon": -77.2652604
      },
      "website": "http://www.hensoldt-na.com"
    },
    {
      "name": "HFE International LLC",
      "exhibitorUrl": "https://s19.a2zinc.net/clients/ausa/annual2023/Public/eBooth.aspx?IndexInList=239&FromPage=Exhibitors.aspx&ParentBoothID=&ListByBooth=true&BoothID=102311",
      "address": {
        "text": "Tucson,\nAZ\nUnited States",
        "iso2": "US",
        "lat": 32.2539787,
        "lon": -110.9741769
      },
      "website": "http://www.hfeinternational.com"
    },
    {
      "name": "HGH INFRARED",
      "exhibitorUrl": "https://s19.a2zinc.net/clients/ausa/annual2023/Public/eBooth.aspx?IndexInList=240&FromPage=Exhibitors.aspx&ParentBoothID=&ListByBooth=true&BoothID=105275",
      "address": {
        "text": "Igny,\nFrance",
        "iso2": "FR",
        "lat": 48.73753,
        "lon": 2.2228629
      }
    },
    {
      "name": "Hanwha Aerospace",
      "exhibitorUrl": "https://s19.a2zinc.net/clients/ausa/annual2023/Public/eBooth.aspx?IndexInList=229&FromPage=Exhibitors.aspx&ParentBoothID=&ListByBooth=true&BoothID=103428",
      "address": {
        "text": "Gyeongsangnam-do,\nKorea (South)",
        "iso2": "KR",
        "lat": 35.36956300000001,
        "lon": 128.2570135
      },
      "website": "http://www.hanwhaaerospace.com"
    },
    {
      "name": "Heckler & Koch Defense, Inc.",
      "exhibitorUrl": "https://s19.a2zinc.net/clients/ausa/annual2023/Public/eBooth.aspx?IndexInList=231&FromPage=Exhibitors.aspx&ParentBoothID=&ListByBooth=true&BoothID=105124",
      "address": {
        "text": "Ashburn,\nVA\nUnited States",
        "iso2": "US",
        "lat": 39.0437567,
        "lon": -77.4874416
      },
      "website": "http://www.hk-usa.com"
    },
    {
      "name": "Hellenic Defence Systems",
      "exhibitorUrl": "https://s19.a2zinc.net/clients/ausa/annual2023/Public/eBooth.aspx?IndexInList=232&FromPage=Exhibitors.aspx&ParentBoothID=&ListByBooth=true&BoothID=105872",
      "address": {
        "text": "Imittos,\nGreece",
        "iso2": "GR",
        "lat": 37.9525906,
        "lon": 23.7464528
      },
      "website": "https://www.eas.gr"
    },
    {
      "name": "Hellwig Suspension Products",
      "exhibitorUrl": "https://s19.a2zinc.net/clients/ausa/annual2023/Public/eBooth.aspx?IndexInList=234&FromPage=Exhibitors.aspx&ParentBoothID=&ListByBooth=true&BoothID=105158",
      "address": {
        "text": "Visalia,\nCA\nUnited States",
        "iso2": "US",
        "lat": 36.3301329,
        "lon": -119.2966367
      },
      "website": "www.hellwigproducts.com"
    },
    {
      "name": "Hendrickson",
      "exhibitorUrl": "https://s19.a2zinc.net/clients/ausa/annual2023/Public/eBooth.aspx?IndexInList=235&FromPage=Exhibitors.aspx&ParentBoothID=&ListByBooth=true&BoothID=102089",
      "address": {
        "text": "Canton,\nOH\nUnited States",
        "iso2": "US",
        "lat": 40.79894729999999,
        "lon": -81.378447
      }
    },
    {
      "name": "Hewlett Packard Enterprise",
      "exhibitorUrl": "https://s19.a2zinc.net/clients/ausa/annual2023/Public/eBooth.aspx?IndexInList=237&FromPage=Exhibitors.aspx&ParentBoothID=&ListByBooth=true&BoothID=101910",
      "address": {
        "text": "Plano,\nTX\nUnited States",
        "iso2": "US",
        "lat": 33.0198431,
        "lon": -96.6988856
      },
      "website": "http://www.hpe.com"
    },