{
  "name": "DX Korea 2024",
  "series": "DX Korea",
  "edition": "2024",
  "alias": "Defense Expo Korea 2024",
  "startDate": "2024-09-25",
  "endDate": "2024-09-28",
  "address": {
    "text": "Korea International Exhibition Center (KINTEX)\nIlsanseo-gu\nGoyang\nGyeonggi Province\nSouth Korea",
    "iso2": "KR",
    "lat": 37.667867,
    "lon": 126.741391
  },
  "website": "http://www.dxkorea.org",
  "social": [
    {
      "platform": "youtube",
      "url": "https://www.youtube.com/channel/UCPOsfHrYTTx3meTTDtgu9WQ"
    },
    {
      "platform": "facebook",
      "url": "https://www.facebook.com/dxkorea/"
    },
    {
      "platform": "kakao",
      "url": "https://pf.kakao.com/_qZGnu"
    }
  ],
  "organiser": [
    {
      "name": "DXC Co. LTD",
      "address": "5th floor\n432\nSamseong-ro\nGangnam-gu\nSeoul\nRepublic of Korea",
      "telephone": "+82-(0)2-2191-5062",
      "email": "dxkorea@dxkorea.org"
    },
    {
      "name": "Korean Trade Investment Promotion Agency",
      "alias": "KOTRA"
    },
    {
      "name": "KADIS"
    },
    {
      "name": "IDK"
    }
  ],
  "exhibitorListUrl": "http://www.dxkorea.org/en/dxkorea/list.asp",
  "exhibitorListDate": "2025-02-07T17:54:07+00:00",
  "exhibitor": [
    {
      "name": "A&T Korea",
      "exhibitorUrl": "https://www.dxkorea.org/en/dxkorea/view.asp?midx=3145",
      "address": {
        "text": "168, Gonghang-daero, Gangseo-gu, Seoul, Korea 747 Tower #1008",
        "iso2": "KR",
        "lat": 37.5533338,
        "lon": 126.8510294
      },
      "telephone": "02-568-5588",
      "website": "antkorealtd.com"
    },
    {
      "name": "A.I.Matics Inc.",
      "exhibitorUrl": "https://www.dxkorea.org/en/dxkorea/view.asp?midx=34087",
      "address": {
        "text": "57-5, Yangsan-ro, Yeongdeungpo-gu, Seoul, Korea 12th Floor, Innoplex Bldg.",
        "iso2": "KR",
        "lat": 37.5259676,
        "lon": 126.8893325
      },
      "telephone": "02-6675-0200",
      "website": "www.aimatics.ai/home"
    },
    {
      "name": "AG Optics Co.,Ltd",
      "exhibitorUrl": "https://www.dxkorea.org/en/dxkorea/view.asp?midx=4236",
      "address": {
        "text": "198-7, Wangnim-gil, Seonghwan-eup, Seobuk-gu, Cheonan-si, Chungcheongnam-do, Korea AG Optics Co.,Ltd.",
        "iso2": "KR",
        "lat": 36.9218436,
        "lon": 127.1063244
      },
      "telephone": "041-410-1300",
      "website": "www.agoptics.co.kr"
    },
    {
      "name": "AMPHENOL",
      "exhibitorUrl": "https://www.dxkorea.org/en/dxkorea/view.asp?midx=4815",
      "address": {
        "text": "14, Gyeongin-ro 133beon-gil, Sosa-gu, Bucheon-si, Gyeonggi-do, Korea 2F",
        "iso2": "KR",
        "lat": 37.48487069999999,
        "lon": 126.7704446
      },
      "telephone": "032-610-3800",
      "website": "www.amphenol.co.kr/"
    },
    {
      "name": "ASSETTA Inc.",
      "exhibitorUrl": "https://www.dxkorea.org/en/dxkorea/view.asp?midx=34091",
      "address": {
        "text": "57-27, Hwarang-ro, Deogyang-gu, Goyang-si, Gyeonggi-do, Korea 301",
        "iso2": "KR",
        "lat": 37.620129,
        "lon": 126.8785267
      },
      "telephone": "02-6958-7811",
      "website": "www.assetta.kr"
    },
    {
      "name": "Adelpia Lab. Inc.",
      "exhibitorUrl": "https://www.dxkorea.org/en/dxkorea/view.asp?midx=4262",
      "address": {
        "text": "16, Deogyeong-daero 1556beon-gil, Yeongtong-gu, Suwon-si, Gyeonggi-do, Korea B-506,7,8",
        "iso2": "KR",
        "lat": 37.2451269,
        "lon": 127.0599566
      },
      "telephone": "031-216-1522",
      "website": "www.adelpia-lab.com"
    },
    {
      "name": "B&B CORPORATION",
      "exhibitorUrl": "https://www.dxkorea.org/en/dxkorea/view.asp?midx=2666",
      "address": {
        "text": "617, Mannyeon-ro, Jeongnam-myeon, Hwaseong-si, Gyeonggi-do, Korea B&B Corporation",
        "iso2": "KR",
        "lat": 37.1761655,
        "lon": 126.9855631
      },
      "telephone": "031-8059-4750",
      "website": "www.bnbopto.co.kr"
    },
    {
      "name": "BARO AI",
      "exhibitorUrl": "https://www.dxkorea.org/en/dxkorea/view.asp?midx=4245",
      "address": {
        "text": "947, Hanam-daero, Hanam-si, Gyeonggi-do, Korea Building B, Room 511",
        "iso2": "KR",
        "lat": 37.5458759,
        "lon": 127.1936657
      },
      "telephone": "010-9443-3431",
      "website": "www.baroai.com"
    },
    {
      "name": "BLUCHER GMBH",
      "exhibitorUrl": "https://www.dxkorea.org/en/dxkorea/view.asp?midx=4229",
      "address": {
        "text": "Mettmanner Straße 28 40699 Erkrath",
        "iso2": "DE",
        "lat": 51.22765949999999,
        "lon": 6.9294234
      },
      "telephone": "0049-211-9244144",
      "website": "www.bluecher.com/en"
    },
    {
      "name": "BOLYUNG ENGINEERING",
      "exhibitorUrl": "https://www.dxkorea.org/en/dxkorea/view.asp?midx=34050",
      "address": {
        "text": "87-51, Pocheon-ro 1160beon-gil, Gunnae-myeon, Pocheon-si, Gyeonggi-do, Korea Bo Lyung Engineering",
        "iso2": "KR",
        "lat": 37.8677086,
        "lon": 127.2168094
      },
      "telephone": "031-536-3761",
      "website": "www.bolyung.co.kr"
    },
    {
      "name": "Braintech Co., Ltd.",
      "exhibitorUrl": "https://www.dxkorea.org/en/dxkorea/view.asp?midx=4251",
      "address": {
        "text": "16, Pajang-ro 82beon-gil, Jangan-gu, Suwon-si, Gyeonggi-do, Korea 5f",
        "iso2": "KR",
        "lat": 37.3071659,
        "lon": 126.9925811
      },
      "telephone": "070-4248-8906",
      "website": [
        "www.braintechco.com",
        "www.licotelife.com"
      ]
    },
    {
      "name": "Bstarcom",
      "exhibitorUrl": "https://www.dxkorea.org/en/dxkorea/view.asp?midx=34070",
      "address": {
        "text": "361, Simin-daero, Dongan-gu, Anyang-si, Gyeonggi-do, Korea #403",
        "iso2": "KR",
        "lat": 37.3967396,
        "lon": 126.9699235
      },
      "telephone": "031-345-8844",
      "website": "bstarcom.co.kr"
    },
    {
      "name": "CSGLOBIZ CO., LTD.",
      "exhibitorUrl": "https://www.dxkorea.org/en/dxkorea/view.asp?midx=3116",
      "address": {
        "text": "65, Gwacheon-daero 7-gil, Gwacheon-si, Gyeonggi-do, Korea No. B-1220, (SangSang Xi Center)",
        "iso2": "KR",
        "lat": 37.4323651,
        "lon": 126.9904458
      },
      "telephone": "02-782-4700",
      "website": "www.getac.co.kr"
    },
    {
      "name": "Cheongju University Industry-Academic Cooperation Group",
      "exhibitorUrl": "https://www.dxkorea.org/en/dxkorea/view.asp?midx=4808",
      "address": {
        "text": "2, Naedeok-dong, Cheongwon-gu, Cheongju-si, Chungcheongbuk-do, Korea Arts University Building 407",
        "iso2": "KR",
        "lat": 36.6606056,
        "lon": 127.499681
      },
      "telephone": "043-299-7581",
      "website": "cudrc.co.kr/"
    },
    {
      "name": "DTT",
      "exhibitorUrl": "https://www.dxkorea.org/en/dxkorea/view.asp?midx=4617",
      "address": {
        "text": "521-2, Jedo-ro 1041beon-gil, Gangseo-gu, Busan, Korea DTT",
        "iso2": "KR",
        "lat": 35.2110693,
        "lon": 128.9267183
      },
      "telephone": "051-977-2627",
      "website": "dttlaser.kr"
    },
    {
      "name": "Defense Producers Association",
      "exhibitorUrl": "https://www.dxkorea.org/en/dxkorea/view.asp?midx=4824",
      "address": {
        "text": "49, Toegye-ro 12-gil, Jung-gu, Seoul, Korea 3 floor",
        "iso2": "KR",
        "lat": 37.5575159,
        "lon": 126.9817934
      },
      "telephone": "02-782-2159",
      "website": "sd1948.com/"
    },
    {
      "name": "DevCra Corp.",
      "exhibitorUrl": "https://www.dxkorea.org/en/dxkorea/view.asp?midx=34053",
      "address": {
        "text": "5-1, Neungdong-ro 34-gil, Gwangjin-gu, Seoul, Korea 1~4F",
        "iso2": "KR",
        "lat": 37.5547701,
        "lon": 127.0821421
      },
      "telephone": "02-6953-2021",
      "website": "devcra.com"
    },
    {
      "name": "Din System Co., Ltd.",
      "exhibitorUrl": "https://www.dxkorea.org/en/dxkorea/view.asp?midx=2654",
      "address": {
        "text": "25, Seongsuil-ro 4-gil, Seongdong-gu, Seoul, Korea Unit 808 Seoul Forest Kolon Digital Tower 1st Building",
        "iso2": "KR",
        "lat": 37.542575,
        "lon": 127.0519572
      },
      "telephone": "02-2115-8181",
      "website": "d-in.co.kr/"
    },
    {
      "name": "Donggu Electronics.",
      "exhibitorUrl": "https://www.dxkorea.org/en/dxkorea/view.asp?midx=34080",
      "address": {
        "text": "6, Dunchon-daero 497beon-gil, Jungwon-gu, Seongnam-si, Gyeonggi-do, Korea Donggu Electronics.",
        "iso2": "KR",
        "lat": 37.4319684,
        "lon": 127.1724636
      },
      "telephone": "02-1588-6270",
      "website": "teatimea1.com"
    },
    {
      "name": "Dymstec. Co., Ltd.",
      "exhibitorUrl": "https://www.dxkorea.org/en/dxkorea/view.asp?midx=34047",
      "address": {
        "text": "388, Dunchon-daero, Jungwon-gu, Seongnam-si, Gyeonggi-do, Korea Kranztechno #1308",
        "iso2": "KR",
        "lat": 37.4326369,
        "lon": 127.1591639
      },
      "telephone": "031-777-8450",
      "website": "dynamicshielding.com"
    },
    {
      "name": "Epoch Media Korea Inc.",
      "exhibitorUrl": "https://www.dxkorea.org/en/dxkorea/view.asp?midx=34086",
      "address": {
        "text": "109, Mapo-daero, Mapo-gu, Seoul, Korea 101 Building 3403",
        "iso2": "KR",
        "lat": 37.544931,
        "lon": 126.9505963
      },
      "telephone": "02-732-8608",
      "website": "https://www.epochtimes.kr"
    },
    {
      "name": "GRAPHENE WORLD Co., Ltd.",
      "exhibitorUrl": "https://www.dxkorea.org/en/dxkorea/view.asp?midx=34089",
      "address": {
        "text": "30, Nambusunhwan-ro 359-gil, Gangnam-gu, Seoul, Korea 4th floor, Suanga Building",
        "iso2": "KR",
        "lat": 37.4867201,
        "lon": 127.0359796
      },
      "telephone": "02-523-5518",
      "website": "없음"
    },
    {
      "name": "Gi . On Green",
      "exhibitorUrl": "https://www.dxkorea.org/en/dxkorea/view.asp?midx=34062",
      "address": {
        "text": "164, Juseon-ro, Juchon-myeon, Gimhae-si, Gyeongsangnam-do, Korea office",
        "iso2": "KR",
        "lat": 35.2425863,
        "lon": 128.836562
      },
      "telephone": "010-4111-8342",
      "website": "."
    },
    {
      "name": "HALDER-ROEMHELD KOREA",
      "exhibitorUrl": "https://www.dxkorea.org/en/dxkorea/view.asp?midx=3125",
      "address": {
        "text": "14, Sagimakgol-ro 45beon-gil, Jungwon-gu, Seongnam-si, Gyeonggi-do, Korea b-1405",
        "iso2": "KR",
        "lat": 37.436405,
        "lon": 127.1700904
      },
      "telephone": "031-736-4762",
      "website": "www.halder-roemheld.co.kr"
    },
    {
      "name": "HESSED KOREA Inc.",
      "exhibitorUrl": "https://www.dxkorea.org/en/dxkorea/view.asp?midx=34083",
      "address": {
        "text": "947, Hanam-daero, Hanam-si, Gyeonggi-do, Korea A 510,511 (U1 CENTER)",
        "iso2": "KR",
        "lat": 37.5458759,
        "lon": 127.1936657
      },
      "telephone": "031-796-4577",
      "website": "hessedkorea.com"
    },
    {
      "name": "Hanmin International Co., Ltd.",
      "exhibitorUrl": "https://www.dxkorea.org/en/dxkorea/view.asp?midx=4230",
      "address": {
        "text": "40, Imi-ro, Uiwang-si, Gyeonggi-do, Korea C#807, Indeogwon IT Valley",
        "iso2": "KR",
        "lat": 37.4009254,
        "lon": 126.9912238
      },
      "telephone": "031-8084-3000",
      "website": "-"
    },
    {
      "name": "HyperAccel",
      "exhibitorUrl": "https://www.dxkorea.org/en/dxkorea/view.asp?midx=34054",
      "address": {
        "text": "8, Nonhyeon-ro 75-gil, Gangnam-gu, Seoul, Korea 4F",
        "iso2": "KR",
        "lat": 37.4966452,
        "lon": 127.0380097
      },
      "telephone": "02-6213-0112",
      "website": "hyperaccel.ai"
    },
    {
      "name": "Hytec Inter Korea Co., Ltd.",
      "exhibitorUrl": "https://www.dxkorea.org/en/dxkorea/view.asp?midx=3117",
      "address": {
        "text": "7, Simin-daero 327beon-gil, Dongan-gu, Anyang-si, Gyeonggi-do, Korea RM 803",
        "iso2": "KR",
        "lat": 37.3965304,
        "lon": 126.9660912
      },
      "telephone": "031-1644-4865",
      "website": "hyteckorea.co.kr/"
    },
    {
      "name": "ICS Technologies",
      "exhibitorUrl": "https://www.dxkorea.org/en/dxkorea/view.asp?midx=3118",
      "address": {
        "text": "Via California 32, 63066 Grottammare (AP)",
        "iso2": "IT",
        "lat": 42.9806066,
        "lon": 13.8481012
      },
      "telephone": "0039-0735-61621",
      "website": "www.icstechnologies.it/"
    },
    {
      "name": "INTEROCEAN CO.,LTD",
      "exhibitorUrl": "https://www.dxkorea.org/en/dxkorea/view.asp?midx=3140",
      "address": {
        "text": "231, Sinseon-ro, Nam-gu, Busan, Korea 3F",
        "iso2": "KR",
        "lat": 35.1158856,
        "lon": 129.0908752
      },
      "telephone": "051-622-5665",
      "website": "www.interocean.co.kr"
    },
    {
      "name": "ITOPP",
      "exhibitorUrl": "https://www.dxkorea.org/en/dxkorea/view.asp?midx=3129",
      "address": {
        "text": "1160 Route de Miers",
        "iso2": "FR",
        "lat": 44.886252,
        "lon": 1.6956507
      },
      "telephone": "0033-565-4330",
      "website": "www.itopp-alcen.com"
    },
    {
      "name": "JCA Autonomous Co., Ltd.",
      "exhibitorUrl": "https://www.dxkorea.org/en/dxkorea/view.asp?midx=4260",
      "address": {
        "text": "582, Daedeok-daero, Yuseong-gu, Daejeon, Korea Suite 504",
        "iso2": "KR",
        "lat": 36.3849264,
        "lon": 127.3790222
      },
      "telephone": "042-825-6820",
      "website": "www.jcaaero.kr"
    },
    {
      "name": "JIKYUNG SOLUTEC CO.,LTD.",
      "exhibitorUrl": "https://www.dxkorea.org/en/dxkorea/view.asp?midx=4244",
      "address": {
        "text": "225, Gasan digital 1-ro, Geumcheon-gu, Seoul, Korea #1419, ACE GASAN FORHU",
        "iso2": "KR",
        "lat": 37.4851942,
        "lon": 126.8787018
      },
      "telephone": "02-6956-2131",
      "website": "www.jikyung.com/"
    },
    {
      "name": "JINWOOELTEC",
      "exhibitorUrl": "https://www.dxkorea.org/en/dxkorea/view.asp?midx=4806",
      "address": {
        "text": "397, Seokcheon-ro, Ojeong-gu, Bucheon-si, Gyeonggi-do, Korea 301 dong 1008 ho",
        "iso2": "KR",
        "lat": 37.5229928,
        "lon": 126.7667393
      },
      "telephone": "032-329-7160",
      "website": "sports-lighting.co.kr"
    },
    {
      "name": "JOWO SYSTEM KOREA Inc.",
      "exhibitorUrl": "https://www.dxkorea.org/en/dxkorea/view.asp?midx=3122",
      "address": {
        "text": "16, Yeongudanji 1-gil, Jinhae-gu, Changwon-si, Gyeongsangnam-do, Korea Jinhae Knowledge Center 5F, Room 506",
        "iso2": "KR",
        "lat": 35.153479,
        "lon": 128.660115
      },
      "telephone": "055-736-3300",
      "website": "www.jowo.ag"
    },
    {
      "name": "Joowon Industrial.",
      "exhibitorUrl": "https://www.dxkorea.org/en/dxkorea/view.asp?midx=4261",
      "address": {
        "text": "10, Seongnam-daero 43beon-gil, Bundang-gu, Seongnam-si, Gyeonggi-do, Korea 607 Joowon Industrial.",
        "iso2": "KR",
        "lat": 37.3400234,
        "lon": 127.1078052
      },
      "telephone": "031-726-1585",
      "website": "www.joowon.co.kr"
    },
    {
      "name": "K-NETZ",
      "exhibitorUrl": "https://www.dxkorea.org/en/dxkorea/view.asp?midx=34069",
      "address": {
        "text": "123, Gasan digital 2-ro, Geumcheon-gu, Seoul, Korea 1510-Ho",
        "iso2": "KR",
        "lat": 37.4787568,
        "lon": 126.8787171
      },
      "telephone": "031-365-3164",
      "website": "k-netz.com"
    },
    {
      "name": "K2 KOREA Co.,Ltd",
      "exhibitorUrl": "https://www.dxkorea.org/en/dxkorea/view.asp?midx=2653",
      "address": {
        "text": "138, Ilsan-ro, Ilsandong-gu, Goyang-si, Gyeonggi-do, Korea RM No.1023, ilsantechnotown Bldg.",
        "iso2": "KR",
        "lat": 37.6504866,
        "lon": 126.7948081
      },
      "telephone": "031-909-8047",
      "website": "www.connector24.co.kr"
    },
    {
      "name": "KAPYUNGTECHNOLOGY",
      "exhibitorUrl": "https://www.dxkorea.org/en/dxkorea/view.asp?midx=3126",
      "address": {
        "text": "12, Digital-ro 33-gil, Guro-gu, Seoul, Korea #312, Woolim e-Biz Center II",
        "iso2": "KR",
        "lat": 37.4864777,
        "lon": 126.8961007
      },
      "telephone": "02-856-8400",
      "website": "www.kptech.co.kr"
    },
    {
      "name": "KINETIX",
      "exhibitorUrl": "https://www.dxkorea.org/en/dxkorea/view.asp?midx=4231",
      "address": {
        "text": "199, Techno 2-ro, Yuseong-gu, Daejeon, Korea RM203-1",
        "iso2": "KR",
        "lat": 36.4232701,
        "lon": 127.4071553
      },
      "telephone": "042-361-3611",
      "website": "www.kinetix.co.kr"
    },
    {
      "name": "KOREA TOURISM ORGANIZATION",
      "exhibitorUrl": "https://www.dxkorea.org/en/dxkorea/view.asp?midx=34068",
      "address": {
        "text": "10, Segye-ro, Wonju-si, Gangwon-do, Korea Mice Marketing Team, Korea Tourism Organization",
        "iso2": "KR",
        "lat": 37.3242803,
        "lon": 127.990007
      },
      "telephone": "010-4464-7160",
      "website": "k-mice.visitkorea.or.kr/"
    },
    {
      "name": "KPC Metal Co., Ltd.",
      "exhibitorUrl": "https://www.dxkorea.org/en/dxkorea/view.asp?midx=2643",
      "address": {
        "text": "249, Wacheonseo-gil, Wachon-myeon, Gyeongsan-si, Gyeongsangbuk-do, Korea KPC Metal Co., Ltd.",
        "iso2": "KR",
        "lat": 35.9450784,
        "lon": 128.8412688
      },
      "telephone": "053-852-4839",
      "website": "www.kpcmetal.co.kr"
    },
    {
      "name": "KRM",
      "exhibitorUrl": "https://www.dxkorea.org/en/dxkorea/view.asp?midx=34066",
      "address": {
        "text": "24, Bongeunsa-ro 33-gil, Gangnam-gu, Seoul, Korea KRM",
        "iso2": "KR",
        "lat": 37.5096232,
        "lon": 127.0353594
      },
      "telephone": "02-595-5190",
      "website": "krman.co.kr"
    },
    {
      "name": "Korea Association of Defense Industry Studies",
      "exhibitorUrl": "https://www.dxkorea.org/en/dxkorea/view.asp?midx=34061",
      "address": {
        "text": "29, Itaewon-ro, Yongsan-gu, Seoul, Korea 4F, 430-1",
        "iso2": "KR",
        "lat": 37.53631710000001,
        "lon": 126.9771144
      },
      "telephone": "02-587-1833",
      "website": "kadis.or.kr"
    },
    {
      "name": "Korea Defense Guarantee Cooperative",
      "exhibitorUrl": "https://www.dxkorea.org/en/dxkorea/view.asp?midx=34060",
      "address": {
        "text": "117, Namdaemun-ro, Jung-gu, Seoul, Republic of Korea (Dong-A Bldg, Da-dong) 6F",
        "iso2": "KR",
        "lat": 37.5677651,
        "lon": 126.9823112
      },
      "telephone": "02-2197-7600",
      "website": "www.kdgc.or.kr"
    },
    {
      "name": "Korea Testing Certification Institute",
      "exhibitorUrl": "https://www.dxkorea.org/en/dxkorea/view.asp?midx=4827",
      "address": {
        "text": "22, Heungan-daero 27beon-gil, Gunpo-si, Gyeonggi-do, Korea Korea Testing Certification Institute",
        "iso2": "KR",
        "lat": 37.368675,
        "lon": 126.947848
      },
      "telephone": "031-428-8445",
      "website": "ktc.re.kr"
    },
    {
      "name": "LEONARDO",
      "exhibitorUrl": "https://www.dxkorea.org/en/dxkorea/view.asp?midx=3119",
      "address": {
        "text": "Piazza Monte Grappa, 4 - Rome 00195",
        "iso2": "IT",
        "lat": 41.9185778,
        "lon": 12.4681985
      },
      "telephone": "0039-06-324731",
      "website": "https://www.leonardo.com/en/"
    },
    {
      "name": "LOTUS INTERNATIONAL CO.,LTD",
      "exhibitorUrl": "https://www.dxkorea.org/en/dxkorea/view.asp?midx=34085",
      "address": {
        "text": "80, Jomaru-ro 385beon-gil, Wonmi-gu, Bucheon-si, Gyeonggi-do, Korea 1005ho",
        "iso2": "KR",
        "lat": 37.500345,
        "lon": 126.789412
      },
      "telephone": "032-671-4018",
      "website": "www.lotusglobal.com"
    },
    {
      "name": "Lumax Aerospace Corp.",
      "exhibitorUrl": "https://www.dxkorea.org/en/dxkorea/view.asp?midx=4820",
      "address": {
        "text": "13-18, Techno 2-ro, Yuseong-gu, Daejeon, Korea Lumax Aerospace Corp.",
        "iso2": "KR",
        "lat": 36.4231313,
        "lon": 127.4031043
      },
      "telephone": "042-934-8293",
      "website": "lumaxaero.com"
    },
    {
      "name": "Luxolis",
      "exhibitorUrl": "https://www.dxkorea.org/en/dxkorea/view.asp?midx=34065",
      "address": {
        "text": "12, Daewangpangyo-ro 645beon-gil, Bundang-gu, Seongnam-si, Gyeonggi-do, Korea 5th Floor",
        "iso2": "KR",
        "lat": 37.4005685,
        "lon": 127.1044138
      },
      "telephone": "031-714-4530",
      "website": "luxolis.ai"
    },
    {
      "name": "MAKE THINGS",
      "exhibitorUrl": "https://www.dxkorea.org/en/dxkorea/view.asp?midx=34056",
      "address": {
        "text": "70, Munbong-gil, Ilsandong-gu, Goyang-si, Gyeonggi-do, Korea 3dong",
        "iso2": "KR",
        "lat": 37.705824,
        "lon": 126.8162909
      },
      "telephone": "032-684-7847",
      "website": "www.makethings.co.kr"
    },
    {
      "name": "MI RAE DEVELOPMENT CABLE INC.",
      "exhibitorUrl": "https://www.dxkorea.org/en/dxkorea/view.asp?midx=4807",
      "address": {
        "text": "83, Cheongpa-ro, Yongsan-gu, Seoul, Korea Wonhyo Electronics Shopping Center 4-dong 9-row No. 23",
        "iso2": "KR",
        "lat": 37.5333602,
        "lon": 126.960836
      },
      "telephone": "02-701-9911",
      "website": "www.cablelg.co.kr"
    },
    {
      "name": "MICRO DISPLAY INC.,",
      "exhibitorUrl": "https://www.dxkorea.org/en/dxkorea/view.asp?midx=4822",
      "address": {
        "text": "397, Seokcheon-ro, Ojeong-gu, Bucheon-si, Gyeonggi-do, Korea 301-1201",
        "iso2": "KR",
        "lat": 37.5229928,
        "lon": 126.7667393
      },
      "telephone": "070-7842-8873",
      "website": "microcart.imweb.me/"
    },
    {
      "name": "MYUTRON INC.",
      "exhibitorUrl": "https://www.dxkorea.org/en/dxkorea/view.asp?midx=4255",
      "address": {
        "text": "3-31-14, Nishikoiwa, Edogawa-ku Tokyo Japan",
        "iso2": "JP",
        "lat": 35.7346356,
        "lon": 139.8790478
      },
      "telephone": "03-5612-1884",
      "website": "www.myutron.com/en/"
    },
    {
      "name": "Machinery Financial Cooperative",
      "exhibitorUrl": "https://www.dxkorea.org/en/dxkorea/view.asp?midx=4250",
      "address": {
        "text": "37, Eunhaeng-ro, Yeongdeungpo-gu, Seoul, Korea 8F",
        "iso2": "KR",
        "lat": 37.5293858,
        "lon": 126.9226062
      },
      "telephone": "02-369-8524",
      "website": "www.mafc.or.kr"
    },
    {
      "name": "ORBIT Communication Systems",
      "exhibitorUrl": "https://www.dxkorea.org/en/dxkorea/view.asp?midx=4817",
      "country": "Israel",
      "address": "8D Hatzoran St.",
      "telephone": "972-9-8922777",
      "website": "orbit-cs.com/"
    },
    {
      "name": "PANOS CO.,LTD.",
      "exhibitorUrl": "https://www.dxkorea.org/en/dxkorea/view.asp?midx=34088",
      "address": {
        "text": "99, Digital-ro 9-gil, Geumcheon-gu, Seoul, Korea 1406",
        "iso2": "KR",
        "lat": 37.4817019,
        "lon": 126.8848789
      },
      "telephone": "02-2027-1270",
      "website": "www.panos.co.kr"
    },
    {
      "name": "PITEN INC.",
      "exhibitorUrl": "https://www.dxkorea.org/en/dxkorea/view.asp?midx=4810",
      "address": {
        "text": "20, Pangyo-ro 289beon-gil, Bundang-gu, Seongnam-si, Gyeonggi-do, Korea 411",
        "iso2": "KR",
        "lat": 37.40458720000001,
        "lon": 127.1062448
      },
      "telephone": "070-4468-9101",
      "website": "p10korea.com"
    },
    {
      "name": "PSIONdsp Corp.",
      "exhibitorUrl": "https://www.dxkorea.org/en/dxkorea/view.asp?midx=3130",
      "address": {
        "text": "75, Jukdong-ro, Yuseong-gu, Daejeon, Korea PSIONdsp",
        "iso2": "KR",
        "lat": 36.3725294,
        "lon": 127.3328843
      },
      "telephone": "070-5096-4476",
      "website": "www.psiondsp.com"
    },
    {
      "name": "Parkor Korea Indus Co., Ltd",
      "exhibitorUrl": "https://www.dxkorea.org/en/dxkorea/view.asp?midx=3132",
      "address": {
        "text": "70, Dusan-ro, Geumcheon-gu, Seoul, Korea #1010, Tower A",
        "iso2": "KR",
        "lat": 37.470235,
        "lon": 126.88779
      },
      "telephone": "02-2169-2500",
      "website": "www.parkor.co.kr/"
    },
    {
      "name": "RF Systems Co., Ltd.",
      "exhibitorUrl": "https://www.dxkorea.org/en/dxkorea/view.asp?midx=34059",
      "address": {
        "text": "40-48, Gajangsaneopseobuk-ro, Osan-si, Gyeonggi-do, Korea 3 Floor, Block S1",
        "iso2": "KR",
        "lat": 37.1680131,
        "lon": 127.0317766
      },
      "telephone": "031-611-6166",
      "website": "www.rf-systems.co.kr"
    },
    {
      "name": "ROHDE & SCHWARZ",
      "exhibitorUrl": "https://www.dxkorea.org/en/dxkorea/view.asp?midx=4257",
      "country": {
        "text": "Germany",
        "iso2": "DE"
      },
      "address": {
        "text": "Rohde & Schwarz Korea Limited, 5F, PAX Tower, 609, Eonju-ro, Gangnam-gu, 06108 Seoul, Korea",
        "iso2": "KR",
        "lat": 37.5098642,
        "lon": 127.0367302
      },
      "telephone": "0082-2348-51900",
      "website": "www.rohde-schwarz.com/solutions/aerospace-and-defense/aerospace-and-defense_229832.html?change_c=true"
    },
    {
      "name": "ROKADI Inc.",
      "exhibitorUrl": "https://www.dxkorea.org/en/dxkorea/view.asp?midx=3124",
      "address": {
        "text": "14, Noksansandan 261-ro 59beon-gil, Gangseo-gu, Busan, Korea ROKADI Inc.",
        "iso2": "KR",
        "lat": 35.0947005,
        "lon": 128.8444997
      },
      "telephone": "051-913-9229",
      "website": "www.rokadi.com"
    },
    {
      "name": "Ramjetpower",
      "exhibitorUrl": "https://www.dxkorea.org/en/dxkorea/view.asp?midx=34095",
      "address": {
        "text": "12, Hanbit-ro, Dongdaemun-gu, Seoul, Korea 02ho",
        "iso2": "KR",
        "lat": 37.5767059,
        "lon": 127.0249341
      },
      "telephone": "010-5802-7800",
      "website": "ramjetpower.co.kr"
    },
    {
      "name": "SANJU OPTICAL",
      "exhibitorUrl": "https://www.dxkorea.org/en/dxkorea/view.asp?midx=2645",
      "address": {
        "text": "700, Pangyo-ro, Bundang-gu, Seongnam-si, Gyeonggi-do, Korea Room 502, Bundangtechnopark Building-E",
        "iso2": "KR",
        "lat": 37.3985507,
        "lon": 127.1068146
      },
      "telephone": "031-698-3160",
      "website": "www.sanju.co.kr"
    },
    {
      "name": "SBB TECH",
      "exhibitorUrl": "https://www.dxkorea.org/en/dxkorea/view.asp?midx=4263",
      "address": {
        "text": "22, Gimpo-daero 2918beon-gil, Wolgot-myeon, Gimpo-si, Gyeonggi-do, Korea SBB TECH",
        "iso2": "KR",
        "lat": 37.7213999,
        "lon": 126.5393923
      },
      "telephone": "031-988-4085",
      "website": "www.sbb.co.kr/"
    },
    {
      "name": "SDT Inc.",
      "exhibitorUrl": "https://www.dxkorea.org/en/dxkorea/view.asp?midx=4823",
      "address": {
        "text": "5, Teheran-ro 44-gil, Gangnam-gu, Seoul, Korea 10F",
        "iso2": "KR",
        "lat": 37.5025813,
        "lon": 127.044865
      },
      "telephone": "02-3453-7494",
      "website": "sdt.inc"
    },
    {
      "name": "SE KOREA",
      "exhibitorUrl": "https://www.dxkorea.org/en/dxkorea/view.asp?midx=34064",
      "address": {
        "text": "89, Seoho-ro, Gwonseon-gu, Suwon-si, Gyeonggi-do, Korea 2, 201",
        "iso2": "KR",
        "lat": 37.2673785,
        "lon": 126.9864314
      },
      "telephone": "031-291-3828",
      "website": "www.sekor.co.kr"
    },
    {
      "name": "SITEC",
      "exhibitorUrl": "https://www.dxkorea.org/en/dxkorea/view.asp?midx=34055",
      "address": {
        "text": "29, Dunchon-daero 541beon-gil, Jungwon-gu, Seongnam-si, Gyeonggi-do, Korea 3F",
        "iso2": "KR",
        "lat": 37.4339291,
        "lon": 127.1759715
      },
      "telephone": "031-982-0620",
      "website": "www.sitec-med.com"
    },
    {
      "name": "SJP Co., Ltd",
      "exhibitorUrl": "https://www.dxkorea.org/en/dxkorea/view.asp?midx=4256",
      "address": {
        "text": "25, Songsansandan-gil, Songsan-myeon, Hwaseong-si, Gyeonggi-do, Korea 25, Songsansandan-gil, Songsan-myeon, Hwaseong-si, Gyeonggi-do, Korea",
        "iso2": "KR",
        "lat": 37.2203531,
        "lon": 126.6986243
      },
      "telephone": "031-497-0638",
      "website": "www.sjeng.or.kr"
    },
    {
      "name": "SMCNS",
      "exhibitorUrl": "https://www.dxkorea.org/en/dxkorea/view.asp?midx=3128",
      "address": {
        "text": "57-5, Yangsan-ro, Yeongdeungpo-gu, Seoul, Korea Innoplex #503",
        "iso2": "KR",
        "lat": 37.5259676,
        "lon": 126.8893325
      },
      "telephone": "02-720-9834",
      "website": "www.smcns.net/"
    },
    {
      "name": "SOLTECH INFONET INC.",
      "exhibitorUrl": "https://www.dxkorea.org/en/dxkorea/view.asp?midx=2667",
      "address": {
        "text": "11, Dangsan-ro 41-gil, Yeongdeungpo-gu, Seoul, Korea 1702ho, W-dong",
        "iso2": "KR",
        "lat": 37.5308587,
        "lon": 126.8982998
      },
      "telephone": "02-701-8100",
      "website": "soltech.co.kr"
    },
    {
      "name": "SOOSUNG DEFENSE INDUSTRIES LTD.",
      "exhibitorUrl": "https://www.dxkorea.org/en/dxkorea/view.asp?midx=34045",
      "address": {
        "text": "39, Nonggongdanji 3-gil, Buk-gu, Ulsan, Korea Soosung Defense Industries Ltd",
        "iso2": "KR",
        "lat": 35.6384103,
        "lon": 129.315731
      },
      "telephone": "052-295-5114",
      "website": "www.soosungpmc.co.kr/"
    },
    {
      "name": "SUNDORIDRONE Inc.",
      "exhibitorUrl": "https://www.dxkorea.org/en/dxkorea/view.asp?midx=34075",
      "address": {
        "text": "947, Hanam-daero, Hanam-si, Gyeonggi-do, Korea C-1202",
        "iso2": "KR",
        "lat": 37.5458759,
        "lon": 127.1936657
      },
      "telephone": "02-408-2777",
      "website": "www.sundori.net"
    },
    {
      "name": "SamTra International",
      "exhibitorUrl": "https://www.dxkorea.org/en/dxkorea/view.asp?midx=2664",
      "address": {
        "text": "70, Gasan digital 1-ro, Geumcheon-gu, Seoul, Korea 1001 ho, SamTra International",
        "iso2": "KR",
        "lat": 37.4722685,
        "lon": 126.8859455
      },
      "telephone": "02-2627-5625",
      "website": "samtra.co.kr/ko/"
    },
    {
      "name": "Syncron Co., Ltd.",
      "exhibitorUrl": "https://www.dxkorea.org/en/dxkorea/view.asp?midx=2663",
      "address": {
        "text": "38, Digital-ro 29-gil, Guro-gu, Seoul, Korea #305",
        "iso2": "KR",
        "lat": 37.4844391,
        "lon": 126.8932846
      },
      "telephone": "02-869-5461",
      "website": "syncron.co.kr"
    },
    {
      "name": "Uniteko Co., Ltd",
      "exhibitorUrl": "https://www.dxkorea.org/en/dxkorea/view.asp?midx=4614",
      "address": {
        "text": "58, Giheung-ro, Giheung-gu, Yongin-si, Gyeonggi-do, Korea No. 1703 B Bldg",
        "iso2": "KR",
        "lat": 37.2804558,
        "lon": 127.1181172
      },
      "telephone": "031-719-0533",
      "website": "www.uniteko.co.kr"
    },
    {
      "name": "VENTEX",
      "exhibitorUrl": "https://www.dxkorea.org/en/dxkorea/view.asp?midx=34084",
      "address": {
        "text": "240, Pangyoyeok-ro, Bundang-gu, Seongnam-si, Gyeonggi-do, Korea 경기 성남시 분당구 판교역로 240",
        "iso2": "KR",
        "lat": 37.4020702,
        "lon": 127.1104411
      },
      "telephone": "010-2208-2136",
      "website": "www.ventexkorea.com"
    },
    {
      "name": "Vorasky",
      "exhibitorUrl": "https://www.dxkorea.org/en/dxkorea/view.asp?midx=34093",
      "address": {
        "text": "634, Eonju-ro, Gangnam-gu, Seoul, Korea 6th floor",
        "iso2": "KR",
        "lat": 37.5132311,
        "lon": 127.0358274
      },
      "telephone": "02-392-8886",
      "website": "vorasky.com"
    },
    {
      "name": "WireMasters®",
      "exhibitorUrl": "https://www.dxkorea.org/en/dxkorea/view.asp?midx=4812",
      "address": {
        "text": "RM#205~206, 77, Changyong-daero 256beon-gil, Yeongtong-gu, Suwon-si, Gyeonggi-do, Republic of Korea, 16229",
        "iso2": "KR",
        "lat": 37.2941961,
        "lon": 127.0419161
      },
      "telephone": "031-5186-6164",
      "website": "www.wiremasters.com"
    },
    {
      "name": "defens",
      "exhibitorUrl": "https://www.dxkorea.org/en/dxkorea/view.asp?midx=34049",
      "address": {
        "text": "11, Magokjungang 6-ro, Gangseo-gu, Seoul, Korea 314-11",
        "iso2": "KR",
        "lat": 37.5549726,
        "lon": 126.8253712
      },
      "telephone": "02-547-6988",
      "website": "www.defensetimes.kr/"
    },
    {
      "name": "wmfc",
      "exhibitorUrl": "https://www.dxkorea.org/en/dxkorea/view.asp?midx=34092",
      "address": {
        "text": "67, Jeoneun-gil, Jeongok-eup, Yeoncheon-gun, Gyeonggi-do, Korea 420-12",
        "iso2": "KR",
        "lat": 38.0350202,
        "lon": 127.0744531
      },
      "telephone": "031-835-1365",
      "website": "wmfc.or.kr"
    }
  ]
}
