{
  "name": "Future Forces 2012",
  "series": "Future Forces",
  "alias": [
    "Future Soldier Exhibition & Converence International",
    "Future Forces Exhibition & Conference International"
  ],
  "edition": "2012",
  "startDate": "2012-10-17",
  "endDate": "2012-10-19",
  "address": {
    "text": "PVA EXPO PRAHA\nBeranových 667\n199 00 Praha 9\nLetňany\nCzech Republic",
    "iso2": "CZ",
    "lat": 50.129672,
    "lon": 14.5155794
  },
  "website": "http://fsec.natoexhibition.org",
  "social": [
    {
      "platform": "facebook",
      "url": "http://www.facebook.com/pages/Future-Soldier-Exhibition-Conference/328070370542180?sk=wall"
    },
    {
      "platform": "linkedin",
      "url": "http://www.linkedin.com/groups?gid=4169952&trk=tyah"
    },
    {
      "platform": "twitter",
      "url": "https://twitter.com/#!/NATOexhibition"
    },
    {
      "platform": "youtube",
      "url": "http://www.youtube.com/user/NATOexhibition/featured"
    }
  ],
  "exhibitorListUrl": "http://fsec.natoexhibition.org/exhibition/exibitors-list/2012/seznam",
  "delegationListUrl": "http://fsec.natoexhibition.org/exhibition/guests",
  "exhibitorListDate": "2025-01-16T15:10:31+00:00",
  "exhibitor": [
    {
      "name": "ACLIMA AS",
      "website": "http://www.aclima.no",
      "address": {
        "text": "Sundvollhovet, 3535 Kroderen - Norway",
        "iso2": "NO",
        "lat": 60.1198583,
        "lon": 9.7981837
      }
    },
    {
      "name": "ACOEM",
      "website": "http://www.acoemgroup.com",
      "address": {
        "text": "200, chemin des Ormeaux, 69578 Limonest Cedex - France",
        "iso2": "FR",
        "lat": 45.8107858,
        "lon": 4.7740911
      }
    },
    {
      "name": "AIRBOSS - DEFENSE",
      "website": "http://www.airbossdefense.com",
      "address": {
        "text": "881, Landry, J0H 1A0 Acton Vale, Quebec - Canada",
        "iso2": "CA",
        "lat": 45.6505051,
        "lon": -72.5622918
      }
    },
    {
      "name": "ASOCIACE OBRANNÉHO A BEZPEČNOSTNÍHO PRŮMYSLU ČR",
      "website": "http://www.aobp.cz",
      "address": {
        "text": "Beranových 130, 199 00 Praha 9 - Czech Republic",
        "iso2": "CZ",
        "lat": 50.1331284,
        "lon": 14.5133773
      }
    },
    {
      "name": "ASOCIACE VÝROBCŮ A PRODEJCŮ ZBRANÍ A STŘELIVA o.s. / ASSOCIATION OF GUNS AND AMMUNITION MANUFACTURES AND SELLERS",
      "website": "http://www.guns.cz",
      "address": {
        "text": "Koněvova 75, 130 00 Praha 3 - Czech Republic",
        "iso2": "CZ",
        "lat": 50.0923151,
        "lon": 14.4890575
      }
    },
    {
      "name": "AUDIOPRO s.r.o.",
      "website": "http://www.audiopro.cz",
      "address": {
        "text": "Lužná 591, 160 00 Praha 6 - Czech Republic",
        "iso2": "CZ",
        "lat": 50.1008656,
        "lon": 14.3410997
      }
    },
    {
      "name": "AuTx - Alchemie SV1 Limited and Kamenskvolokno JSC",
      "website": "http://www.autx.info;%20www.aramid.ru",
      "address": {
        "text": "St Andrew’s Castle 33 St Andrews Street, IP33 3PH Suffolk - United Kingdom",
        "iso2": "GB",
        "lat": 52.2427702,
        "lon": 0.710457
      }
    },
    {
      "name": "B.O.I.S. - FILTRY, spol. s r.o.",
      "website": "http://www.bois-filtry.com",
      "address": {
        "text": "Staňkova 103/18, 602 00 Brno - Czech Republic",
        "iso2": "CZ",
        "lat": 49.21220599999999,
        "lon": 16.603741
      }
    },
    {
      "name": "BLÜCHER GmbH",
      "website": "http://www.bluechersystems.com",
      "address": {
        "text": "Mettmanner Strasse 25, 40699 Erkrath - Germany",
        "iso2": "DE",
        "lat": 51.2266225,
        "lon": 6.919543399999999
      }
    },
    {
      "name": "BREN-TRONICS",
      "website": "http://www.bren-tronics.com",
      "address": {
        "text": "20, rue Henri Regnault, 75014 Paris - France",
        "iso2": "FR",
        "lat": 48.8247799,
        "lon": 2.3296892
      }
    },
    {
      "name": "BRITE STRIKE TECHNOLOGIES SA",
      "website": "http://www.brite-strike.eu",
      "address": {
        "text": "59, BD Grande Duchesse Charlotte, 1330 Luxembourg - Luxembourg",
        "iso2": "LU",
        "lat": 49.6105911,
        "lon": 6.1184733
      }
    },
    {
      "name": "BUMAR AMUNICJA S.A.",
      "website": "http://www.bumaramunicja.com",
      "address": {
        "text": "ul . Legionów 122, 26-111 Skarżysko-Kamienna - Poland",
        "iso2": "PL",
        "lat": 51.0999239,
        "lon": 20.8632758
      }
    },
    {
      "name": "BUMAR ŻOŁNIERZ S.A.",
      "website": "http://www.bumar-zolnierz.com.pl",
      "address": {
        "text": "28 Nowaka-Jezioranskiego St., 00 828 Warszawa - Poland",
        "iso2": "PL",
        "lat": 52.2329435,
        "lon": 21.0911128
      }
    },
    {
      "name": "CAMELBAK PRODUCTS LLC",
      "website": "http://www.camelbak.com",
      "address": {
        "text": "2000 S. McDowell Blvd., Suite 200, CA 94954 Petaluma - USA",
        "iso2": "US",
        "lat": 38.2300462,
        "lon": -122.5959327
      }
    },
    {
      "name": "CARINTHIA - Goldeck Textil GmbH",
      "website": "http://www.military-sleeping-bags.com",
      "address": {
        "text": "Seebacherstrasse 11-13, 9871 Seeboden - Austria",
        "iso2": "AT",
        "lat": 46.8184301,
        "lon": 13.4971842
      }
    },
    {
      "name": "CISCO Systems (Czech Republic) s.r.o.",
      "address": {
        "text": "V celnici 101, 172 21 Praha 1 - Czech Republic",
        "iso2": "CZ",
        "lat": 50.0881565,
        "lon": 14.4310234
      }
    },
    {
      "name": "CJSC \"KSF\" Peredovaya tekstilshchitsa“",
      "website": "http://www.airsilk.ru",
      "address": {
        "text": "10, Fabritschnaja str., 141068 Korolev, Moscow region - Russian Federation",
        "iso2": "RU",
        "lat": 55.9498426,
        "lon": 37.8332
      }
    },
    {
      "name": "CLIMASHIELD",
      "website": "http://www.climashield.com",
      "address": {
        "text": "641 Northpark Drive, TN 37716 Clinton - USA",
        "iso2": "US",
        "lat": 36.1623445,
        "lon": -84.08313439999999
      }
    },
    {
      "name": "CONCORDIA TEXTILES NV",
      "website": "http://www.concordiatextiles.com",
      "address": {
        "text": "Flanders Fieldweg 37, 8790 Waregem - Belgium",
        "iso2": "BE",
        "lat": 50.8710744,
        "lon": 3.4495036
      }
    },
    {
      "name": "CQC Ltd.",
      "website": "http://www.cqc.co.uk",
      "address": {
        "text": "Riverside Road, EX31 1NB Barnstaple, Devon - United Kingdom",
        "iso2": "GB",
        "lat": 51.0847265,
        "lon": -4.0797532
      }
    },
    {
      "name": "D-LAB DELCOTEX - DELIUS TECHTEX GmbH & Co. KG",
      "website": "http://www.textillabor.eu",
      "address": {
        "text": "Vilsendorfer Strasse 50, 33739 Bielefeld - Germany",
        "iso2": "DE",
        "lat": 52.0919584,
        "lon": 8.5257478
      }
    },
    {
      "name": "DEFENCE MATERIEL ORGANISATION",
      "address": {
        "text": "Van der Buchlaan 31, 2509 The Hague - The Netherlands",
        "iso2": "NL",
        "lat": 52.0704978,
        "lon": 4.3006999
      }
    },
    {
      "name": "DELCOTEX - DELIUS TECHTEX GmbH & Co. KG",
      "website": "http://www.delcotex.de",
      "address": {
        "text": "Vilsendorfer Strasse 50, 33739 Bielefeld - Germany",
        "iso2": "DE",
        "lat": 52.0919584,
        "lon": 8.5257478
      }
    },
    {
      "name": "DELOITTE ADVISORY, s.r.o.",
      "website": "http://www.deloitte.cz",
      "address": {
        "text": "Nile House, Karolínská 2/654, 186 00 Praha 8 - Czech Republic",
        "iso2": "CZ",
        "lat": 50.094252,
        "lon": 14.4445401
      }
    },
    {
      "name": "DUE EMME SRL.",
      "website": "http://www.2m-italia.it",
      "address": {
        "text": "Via Cimabue 26/28, 20032 Cormano (MI) - Italy",
        "iso2": "IT",
        "lat": 45.5379607,
        "lon": 9.1701357
      }
    },
    {
      "name": "ESTERLINE COMMUNICATION SYSTEMS",
      "website": "http://www.esterline.com",
      "address": {
        "text": "Waverley Industrial Park, HA1 4TR Hailsham Drive, Harrow - United Kingdom",
        "iso2": "GB",
        "lat": 51.5948852,
        "lon": -0.341801
      }
    },
    {
      "name": "EUROTEX SRL",
      "website": "http://www.eurotexnastri.it",
      "address": {
        "text": "Via Enrico Fermi 10, 20854 Vedano al Lambro (Milano) - Italy",
        "iso2": "IT",
        "lat": 45.6177119,
        "lon": 9.2702426
      }
    },
    {
      "name": "EVPÚ Defence a.s.",
      "website": "http://www.evpudefence.com",
      "address": {
        "text": "Sadová 1385, 686 05 Uherské Hradiště - Czech Republic",
        "iso2": "CZ",
        "lat": 49.0609651,
        "lon": 17.4827275
      }
    },
    {
      "name": "EXCALIBUR ARMY spol. s r. o.",
      "website": "http://www.excaliburarmy.cz",
      "address": {
        "text": "Kodaňská 521, 101 00 Praha 10 - Czech Republic",
        "iso2": "CZ",
        "lat": 50.0709033,
        "lon": 14.4594769
      }
    },
    {
      "name": "EXPLOSIA Pardubice",
      "website": "http://www.explosia.cz",
      "address": {
        "text": "Semtín 107, 530 50 Pardubice - Czech Republic",
        "iso2": "CZ",
        "lat": 50.06331429999999,
        "lon": 15.7274933
      }
    },
    {
      "name": "FISCHER CONNECTORS GmbH",
      "website": "http://www.fischerconnectors.de",
      "address": {
        "text": "Georg-Wimmer-Ring 10, 85604 Zorneding - Germany",
        "iso2": "DE",
        "lat": 48.092227,
        "lon": 11.8248447
      }
    },
    {
      "name": "Fabryka Broni „ŁUCZNIK” - Radom Sp. z o.o.",
      "website": "http://www.fabrykabroni.pl",
      "address": {
        "text": "ul. 1905 Roku 1/9, 26-600 Radom - Poland",
        "iso2": "PL",
        "lat": 51.3906275,
        "lon": 21.140205
      }
    },
    {
      "name": "GEORGES MORAND PRODUCTION s.r.o.",
      "website": "http://www.georges-morand.fr",
      "address": {
        "text": "Na Zlaté stezce 1073, 263 01 Dobříš - Czech Republic",
        "iso2": "CZ",
        "lat": 49.7908607,
        "lon": 14.1820919
      }
    },
    {
      "name": "GRANQVISTS AB",
      "website": "http://www.granqvists.se",
      "address": {
        "text": "Hynboholm 342, 655 91 Karlstad - Sweden",
        "iso2": "SE",
        "lat": 59.46528679999999,
        "lon": 13.3780566
      }
    },
    {
      "name": "HOLIDAYS Czech Airlines a.s.",
      "website": "http://www.holidayscsa.cz",
      "address": {
        "text": "Jana Kašpara 1069/1, 160 08 Praha 6 - Czech Republic",
        "iso2": "CZ",
        "lat": 50.1072661,
        "lon": 14.2738159
      }
    },
    {
      "name": "HOLÍK INTERNATIONAL, s.r.o.",
      "website": "http://www.holik-international.cz",
      "address": {
        "text": "Za Dvorem 612, 763 14 Zlín 12 - Czech Republic",
        "iso2": "CZ",
        "lat": 49.2675444,
        "lon": 17.7271245
      }
    },
    {
      "name": "INTERLINK CS, spol. s r.o.",
      "website": "http://www.interlinkcs.cz",
      "address": {
        "text": "U laboratoře 19, 162 00 Praha 6 - Czech Republic",
        "iso2": "CZ",
        "lat": 50.0954234,
        "lon": 14.3847663
      }
    },
    {
      "name": "INTRIPLE, a.s.",
      "website": "http://www.intriple.eu",
      "address": {
        "text": "Podnikatelská 550, 190 11 Praha 9 - Czech Republic",
        "iso2": "CZ",
        "lat": 50.0924962,
        "lon": 14.6127194
      }
    },
    {
      "name": "INTV spol. s r.o.",
      "website": "http://www.intv.cz",
      "address": {
        "text": "Jana Masaryka 252/6, 120 00 Praha - Czech Republic",
        "iso2": "CZ",
        "lat": 50.0701648,
        "lon": 14.4355743
      }
    },
    {
      "name": "INVEA-TECH a.s.",
      "address": "-"
    },
    {
      "name": "INVISIO Communications A/S",
      "website": "http://www.invisio.com",
      "address": {
        "text": "Stamholmen 157, 6 sal, 2650 Hvidovre - Denmark",
        "iso2": "DK",
        "lat": 55.614645,
        "lon": 12.477044
      }
    },
    {
      "name": "JHL Communication Technology GmbH",
      "website": "http://www.jhlct.com",
      "address": {
        "text": "Beethovenstr. 20, 85591 Vaterstetten - Germany",
        "iso2": "DE",
        "lat": 48.1044595,
        "lon": 11.7788602
      }
    },
    {
      "name": "JK Defence & Security Products GmbH",
      "website": "http://www.jkdefence.de",
      "address": {
        "text": "Industriering Ost 74, 47906 Kempen - Germany",
        "iso2": "DE",
        "lat": 51.3742561,
        "lon": 6.433074299999999
      }
    },
    {
      "name": "JSC „Kamenskvolokno“",
      "website": "http://www.aramid.ru",
      "address": {
        "text": "Saprigina st., 1, Kamensk-Shakhtinsky, 347801 Rostov-Don Region - Russian Federation",
        "iso2": "RU",
        "lat": 48.3290036,
        "lon": 40.2424398
      }
    },
    {
      "name": "KERMEL",
      "website": "http://www.kermel.com",
      "address": {
        "text": "20, rue Ampère, 68027 Colmar Cedex - France",
        "iso2": "FR",
        "lat": 48.0840425,
        "lon": 7.373638999999999
      }
    },
    {
      "name": "KIPAŞ MENSUCAT A.Ş.",
      "website": "http://www.kipasmensucat.com",
      "address": {
        "text": "Gaziantep yolu üzeri 7.km, 125 Kahramanmaras - Turkey",
        "iso2": "TR",
        "lat": 37.5752755,
        "lon": 36.9228223
      }
    },
    {
      "name": "LENZING FIBERS",
      "website": "http://www.lenzing.com/textile",
      "address": {
        "text": "Werkstr. 2, 4860 Lenzing - Austria",
        "iso2": "AT",
        "lat": 47.9753394,
        "lon": 13.6153359
      }
    },
    {
      "name": "LIND ELECTRONICS",
      "website": "http://www.lindelectronics.com",
      "address": {
        "text": "6414 Cambridge Street, 55426 Minneapolis, MN - USA",
        "iso2": "US",
        "lat": 44.9338228,
        "lon": -93.3615816
      }
    },
    {
      "name": "LITEYE",
      "website": "http://www.liteye.com",
      "address": {
        "text": "7060 S. Tucson Way, 80112 Centennial, Colorado - USA",
        "iso2": "US",
        "lat": 39.5883657,
        "lon": -104.835138
      }
    },
    {
      "name": "LOM PRAHA s.p.",
      "website": "http://www.lompraha.cz",
      "address": {
        "text": "Tiskařská 8, 100 38 Praha 10-Malešice - Czech Republic",
        "iso2": "CZ",
        "lat": 50.0806055,
        "lon": 14.5264501
      }
    },
    {
      "name": "LUFTHANSA TECHNIK AG",
      "website": "http://www.lufthansa-technik.com",
      "address": {
        "text": "Weg beim Jaeger 193, 223 35 Hamburg - Germany",
        "iso2": "DE",
        "lat": 53.6217046,
        "lon": 9.9969477
      }
    },
    {
      "name": "LUKAS MEINDL GmbH & Co. KG",
      "website": "http://www.meindl.de",
      "address": {
        "text": "Lukas Meindl Strasse 5-9, 83417 Kirchanschöring - Germany",
        "iso2": "DE",
        "lat": 47.95235,
        "lon": 12.8432
      }
    },
    {
      "name": "MASKPOL S.A.",
      "website": "http://www.maskpol.com.pl",
      "address": {
        "text": "Konieczki 1, 42-140 Panki - Poland",
        "iso2": "PL",
        "lat": 50.8985864,
        "lon": 18.7674579
      }
    },
    {
      "name": "MAX MERLIN spol. s r.o.",
      "website": "http://www.maxmerlin.cz",
      "address": {
        "text": "Edisonova 429b, 109 00 Praha 10 - Petrovice - Czech Republic",
        "iso2": "CZ",
        "lat": 50.0357515,
        "lon": 14.55675
      }
    },
    {
      "name": "MESIT přístroje spol. s r.o.",
      "website": "http://www.mesit.biz",
      "address": {
        "text": "Sokolovská 573, 686 01 Uherské Hradiště - Czech Republic",
        "iso2": "CZ",
        "lat": 49.0762987,
        "lon": 17.4784578
      }
    },
    {
      "name": "MINISTERSTVO OBRANY SLOVENSKEJ REPUBLIKY / MINISTRY OF DEFENCE OF THE SLOVAK REPUBLIC",
      "website": "http://www.mosr.sk",
      "address": {
        "text": "Kutuzovova 8, 832 47 Bratislava - Slovak Republic",
        "iso2": "SK",
        "lat": 48.1654561,
        "lon": 17.1303214
      }
    },
    {
      "name": "MINISTERSTVO OBRANY ČESKÉ REPUBLIKY / MINISTRY OF DEFENCE OF THE CZECH REPUBLIC",
      "website": "http://www.army.cz",
      "address": {
        "text": "Tychonova 1, 160 01 Praha - Czech Republic",
        "iso2": "CZ",
        "lat": 50.09530789999999,
        "lon": 14.4031003
      }
    },
    {
      "name": "MKU Pvt. Ltd.",
      "website": "http://www.mku.com",
      "address": {
        "text": "13 Gandhi Gram, GT Road, 208007 Kanpur - Uttar Pradesh - India",
        "iso2": "IN",
        "lat": 26.4122109,
        "lon": 80.38320999999999
      }
    },
    {
      "name": "MS Line, s.r.o.",
      "website": "http://www.msline.cz",
      "address": {
        "text": "P.O.BOX 11, 289 15 Kounice - Czech Republic",
        "iso2": "CZ",
        "lat": 50.1103096,
        "lon": 14.8526409
      }
    },
    {
      "name": "Martin Hanuš - ALP",
      "website": "http://www.alp-army.cz,%20www.fenix-protector.com",
      "address": {
        "text": "Mokrovraty 30, 262 03 Nový Knín - Czech Republic",
        "iso2": "CZ",
        "lat": 49.796941,
        "lon": 14.2555346
      }
    },
    {
      "name": "MilDef AB",
      "website": "http://www.mildef.se",
      "address": {
        "text": "Box 22079, 250 22 Helsingborg - Sweden",
        "iso2": "SE",
        "lat": 56.0464674,
        "lon": 12.6945121
      }
    },
    {
      "name": "MoD ARMAMENT AND QUARTERMASTER OFFICE",
      "website": "http://www.hmflu.gov.hu",
      "address": {
        "text": "P.O. Box:25, 1885 Budapest - Hungary",
        "iso2": "HU",
        "lat": 47.497912,
        "lon": 19.040235
      }
    },
    {
      "name": "MÖNCH PUBLISHING GROUP",
      "website": "http://www.mpgbonn.de",
      "address": {
        "text": "Heilsbachstrasse 26, 53123 Bonn - Germany",
        "iso2": "DE",
        "lat": 50.71333190000001,
        "lon": 7.040088399999999
      }
    },
    {
      "name": "NFM Group",
      "website": "http://www.nfm.no",
      "address": {
        "text": "Glynitveien 27, 1400 Ski - Norway",
        "iso2": "NO",
        "lat": 59.71932529999999,
        "lon": 10.8653785
      }
    },
    {
      "name": "NICOMATIC",
      "website": "http://www.nicomatic.com",
      "address": {
        "text": "173, rue des Fougères - Zl Les Bracots, 74890 Bons-En-Chablais - France",
        "iso2": "FR",
        "lat": 46.264451,
        "lon": 6.37031
      }
    },
    {
      "name": "NIDES s.r.o.",
      "website": "http://www.nides.cz",
      "address": {
        "text": "Šumavská 31a, 602 00 Brno - Czech Republic",
        "iso2": "CZ",
        "lat": 49.2096587,
        "lon": 16.5929795
      }
    },
    {
      "name": "NOIRET BOHAIN",
      "website": "http://www.groupe-noiret.com",
      "address": {
        "text": "ZAC du Moulin Mayeux, 02110 Bohain - France",
        "iso2": "FR",
        "lat": 49.9773212,
        "lon": 3.4450689
      }
    },
    {
      "name": "NORWEGIAN DEFENCE AND SECURITY INDUSTRIES ASSOCIATION (FSi)",
      "website": "http://www.fsi.no",
      "address": {
        "text": "Essendropsgate 3, 0303 Oslo - Norway",
        "iso2": "NO",
        "lat": 59.92874250000001,
        "lon": 10.7102207
      }
    },
    {
      "name": "NSPA - NATO Support Agency",
      "website": "http://www.nspa.nato.int",
      "address": {
        "text": "11, rue de la Gare, 8325 Capellen - Luxembourg",
        "iso2": "LU",
        "lat": 49.6415654,
        "lon": 5.9861267
      }
    },
    {
      "name": "PELI - MIPESA s.r.o.",
      "website": "http://www.mipesa.cz",
      "address": {
        "text": "Hyacintová 7, 106 00 Praha 10 - Czech Republic",
        "iso2": "CZ",
        "lat": 50.0551756,
        "lon": 14.4952564
      }
    },
    {
      "name": "PITTARDS Plc.",
      "website": "http://www.pittardsleather.com",
      "address": {
        "text": "Sherborne Road, BA21 5BA Yeovil, Somerset - United Kingdom",
        "iso2": "GB",
        "lat": 50.9440579,
        "lon": -2.6146612
      }
    },
    {
      "name": "POLARTEC",
      "website": "http://www.polartec.com",
      "address": {
        "text": "46 Stafford St, 01842 Lawrence, MA - USA",
        "iso2": "US",
        "lat": 42.7169471,
        "lon": -71.1801169
      }
    },
    {
      "name": "PRABOS PLUS a.s.",
      "website": "http://www.prabos.cz",
      "address": {
        "text": "Komenského 9, 763 21 Slavičín - Czech Republic",
        "iso2": "CZ",
        "lat": 49.0913049,
        "lon": 17.8723572
      }
    },
    {
      "name": "PRO-SYSTEMS SPA",
      "website": "http://www.pro-systems.it",
      "address": {
        "text": "Via Al Corbe 63/65, Mozzate - Italy",
        "iso2": "IT",
        "lat": 45.6625633,
        "lon": 8.9596839
      }
    },
    {
      "name": "PrimaLoft",
      "website": "http://www.primaloft.com",
      "address": {
        "text": "Rudolf-Diesel-Ring 11, 83607 Holzkirchen - Germany",
        "iso2": "DE",
        "lat": 47.8833375,
        "lon": 11.710103
      }
    },
    {
      "name": "RADMOR S.A.",
      "website": "http://www.radmor.com.pl;%20www.radmor.com",
      "address": {
        "text": "ul. Hutnicza 3, 81-212 Gdynia - Poland",
        "iso2": "PL",
        "lat": 54.538256,
        "lon": 18.4929718
      }
    },
    {
      "name": "REVISION MILITARY",
      "website": "http://www.revisionmilitary.com",
      "address": {
        "text": "Wim Duisenbergplantsoen 31, 6221 SE Maastricht - The Netherlands",
        "iso2": "NL",
        "lat": 50.8409534,
        "lon": 5.704946899999999
      }
    },
    {
      "name": "RHEINMETALL DEFENCE ELECTRONICS",
      "website": "http://www.rheinmetall-defence.com",
      "address": {
        "text": "Brueggeweg 54, 28309 Bremen - Germany",
        "iso2": "DE",
        "lat": 53.0541996,
        "lon": 8.898501
      }
    },
    {
      "name": "RSA, the Security Division of EMC",
      "address": {
        "text": "V Parku 2335/20, 148 00 Praha 4 - Czech Republic",
        "iso2": "CZ",
        "lat": 50.0280921,
        "lon": 14.4948249
      }
    },
    {
      "name": "SAAB AB",
      "website": "http://www.saabgroup.com",
      "address": {
        "text": "Gustavslundvägen 42, 10222 Stockholm - Sweden",
        "iso2": "SE",
        "lat": 59.3327036,
        "lon": 18.0656255
      }
    },
    {
      "name": "SFC ENERGY AG",
      "website": "http://www.sfc.com",
      "address": {
        "text": "Eugen-Saenger-Ring 7, 85649 Brunnthal - Germany",
        "iso2": "DE",
        "lat": 48.0413687,
        "lon": 11.6652854
      }
    },
    {
      "name": "SMALL ARMS DEFENSE JOURNAL",
      "website": "http://www.sadefensejournal.com",
      "address": {
        "text": "631 N. Stephanie St. #372, 89014 Henderson, NV - USA",
        "iso2": "US",
        "lat": 36.0664842,
        "lon": -115.0480587
      }
    },
    {
      "name": "SODATSW spol. s r.o.",
      "website": "http://www.sodatsw.cz",
      "address": {
        "text": "Horní 32, 639 00 Brno - Czech Republic",
        "iso2": "CZ",
        "lat": 49.1755484,
        "lon": 16.5916426
      }
    },
    {
      "name": "SRC BRASA Ltd",
      "website": "http://www.brasa.lv",
      "address": {
        "text": "Parslas street 3, 1002 Riga - Latvia",
        "iso2": "LV",
        "lat": 56.9360876,
        "lon": 24.0626104
      }
    },
    {
      "name": "T&G; ELEKTRO AS",
      "website": "http://www.tgelektro.no",
      "address": {
        "text": "Kirkeveien 25 B, 1363 Høvik - Norway",
        "iso2": "NO",
        "lat": 59.9031667,
        "lon": 10.5665266
      }
    },
    {
      "name": "TEIJIN ARAMID GmbH",
      "website": "http://www.teijinaramid.com",
      "address": {
        "text": "Kasinostrasse 19-21, 42103 Wuppertal - Germany",
        "iso2": "DE",
        "lat": 51.2565736,
        "lon": 7.1425597
      }
    },
    {
      "name": "TELEPLAN GLOBE AS",
      "website": "http://www.teleplanglobe.no",
      "address": {
        "text": "Fornebuveien 31, 1324 Lysaker - Norway",
        "iso2": "NO",
        "lat": 59.9081442,
        "lon": 10.6283562
      }
    },
    {
      "name": "TEPAR TEKSTIL SANAYI TICARET Ltd.",
      "website": "http://www.tepar.com",
      "address": {
        "text": "Hadımköy Mah. Celal Bayar Caddesi. No: 1, Arnavutköy (Hadımköy), 34555 Istanbul - Turkey",
        "iso2": "TR",
        "lat": 41.1459795,
        "lon": 28.632467
      }
    },
    {
      "name": "THALES NORWAY",
      "website": "http://www.thales.no",
      "address": {
        "text": "P.O.BOX 744 Sentrum, 0106 Oslo - Norway",
        "iso2": "NO",
        "lat": 59.91271889999999,
        "lon": 10.7318202
      }
    },
    {
      "name": "TTC TELEKOMUNIKACE, s.r.o.",
      "website": "http://www.ttc-telekomunikace.cz",
      "address": {
        "text": "Třebohostická 987/5, 100 00 Praha 10 - Czech Republic",
        "iso2": "CZ",
        "lat": 50.07650890000001,
        "lon": 14.5102914
      }
    },
    {
      "name": "TenCate Advanced Armour",
      "website": "http://www.tencateadvancedarmour.com",
      "address": {
        "text": "P.O. BOX 9, 7443 PV Nijverdal - The Netherlands",
        "iso2": "NL",
        "lat": 52.3704261,
        "lon": 6.467127199999999
      }
    },
    {
      "name": "TenCate Protective Fabrics",
      "website": "http://www.tencateprotectivefabrics.com",
      "address": {
        "text": "P.O.Box 186, 7440 AD Nijverdal - The Netherlands",
        "iso2": "NL",
        "lat": 52.3638863,
        "lon": 6.4627523
      }
    },
    {
      "name": "VARIEL, a.s.",
      "website": "http://www.variel.cz",
      "address": {
        "text": "Průmyslová 1034, 285 22 Zruč nad Sázavou - Czech Republic",
        "iso2": "CZ",
        "lat": 49.73545,
        "lon": 15.1048699
      }
    },
    {
      "name": "VECTRONIX AG",
      "website": "http://www.vectronix.ch",
      "address": {
        "text": "Max-Schmidheiny-Strasse 202, 9435 Heerbrugg - Switzerland",
        "iso2": "CH",
        "lat": 47.4090533,
        "lon": 9.6211045
      }
    },
    {
      "name": "VICTORINOX Rösler Praha, s.r.o.",
      "website": "http://www.victorinox.cz",
      "address": {
        "text": "Elišky Junkové 8, 102 00 Praha 10 - Czech Republic",
        "iso2": "CZ",
        "lat": 50.0449221,
        "lon": 14.5199744
      }
    },
    {
      "name": "WB ELECTRONICS S.A.",
      "website": "http://www.wb.com.pl",
      "address": {
        "text": "ul. Poznańska 129/133, 05-850 Ożarów Mazowiecki - Poland",
        "iso2": "PL",
        "lat": 52.20752,
        "lon": 20.816421
      }
    },
    {
      "name": "YKK EUROPE Ltd.",
      "website": "http://www.ykkeurope.com",
      "address": {
        "text": "Sigma, Lyoner Strasse 20, 605 28 Frankfurt am Main - Germany",
        "iso2": "DE",
        "lat": 50.0824696,
        "lon": 8.624820999999999
      }
    },
    {
      "name": "ZIP FIRELIGHTERS",
      "website": "http://www.zipfires.co.uk",
      "address": {
        "text": "4 Cleeve Court, Cleeve Road, KT22 7SD Leatherhead, Surrey - United Kingdom",
        "iso2": "GB",
        "lat": 51.3021988,
        "lon": -0.3371346
      }
    },
    {
      "name": "Zakłady Mechaniczne TARNÓW SA",
      "website": "http://www.zmt.tarnow.pl",
      "address": {
        "text": "Kochanowskiego str. 30, 33-100 Tarnów - Poland",
        "iso2": "PL",
        "lat": 50.0059095,
        "lon": 20.9681783
      }
    },
    {
      "name": "Zakłady Metalowe DEZAMET S.A.",
      "website": "http://www.dezamet.com.pl",
      "address": {
        "text": "ul. Szypowskiego 1, 39-460 Nowa Dęba - Poland",
        "iso2": "PL",
        "lat": 50.40940399999999,
        "lon": 21.728703
      }
    },
    {
      "name": "transAlpinus",
      "website": "http://www.transalpinus.cz",
      "address": {
        "text": "Trojanova 7, 120 00 Praha 2 - Czech Republic",
        "iso2": "CZ",
        "lat": 50.0742962,
        "lon": 14.4152568
      }
    },
    {
      "name": "ČESKÁ ZBROJOVKA a.s.",
      "website": "http://www.czub.cz",
      "address": {
        "text": "Svat. Čecha 1283, 688 27 Uherský Brod - Czech Republic",
        "iso2": "CZ",
        "lat": 49.02671309999999,
        "lon": 17.6331234
      }
    },
    {
      "name": "Česká pobočka AFCEA",
      "website": "http://www.afcea.cz",
      "address": {
        "text": "Dolnoměcholupská 12, budova SERVODATA, 102 00 Praha 10 - Czech Republic",
        "iso2": "CZ",
        "lat": 50.0565722,
        "lon": 14.5486212
      }
    }
  ],
  "delegationListDate": "2025-01-14T13:18:09+00:00",
  "delegation": [
    {
      "name": "Albania"
    },
    {
      "name": "Australia"
    },
    {
      "name": "Austria"
    },
    {
      "name": "Belgium"
    },
    {
      "name": "Bosnia and Herzigovina"
    },
    {
      "name": "Bulgaria"
    },
    {
      "name": "Canada"
    },
    {
      "name": "Croatia"
    },
    {
      "name": "Czech Republic"
    },
    {
      "name": "Denmark"
    },
    {
      "name": "Egypt"
    },
    {
      "name": "Estonia"
    },
    {
      "name": "Finland"
    },
    {
      "name": "France"
    },
    {
      "name": "Germany"
    },
    {
      "name": "Greece"
    },
    {
      "name": "Hungary"
    },
    {
      "name": "India"
    },
    {
      "name": "Ireland"
    },
    {
      "name": "Italy"
    },
    {
      "name": "Kazakhstan"
    },
    {
      "name": "Latvia"
    },
    {
      "name": "Netherlands"
    },
    {
      "name": "Norway"
    },
    {
      "name": "Poland"
    },
    {
      "name": "Portugal"
    },
    {
      "name": "Qatar"
    },
    {
      "name": "Romania"
    },
    {
      "name": "Russian Federation"
    },
    {
      "name": "Saudi Arabia"
    },
    {
      "name": "Serbia"
    },
    {
      "name": "Slovakia"
    },
    {
      "name": "Slovenia"
    },
    {
      "name": "South Africa"
    },
    {
      "name": "Spain"
    },
    {
      "name": "Sweden"
    },
    {
      "name": "Switzerland"
    },
    {
      "name": "Turkey"
    },
    {
      "name": "United Arab Emirates"
    },
    {
      "name": "Ukraine"
    },
    {
      "name": "United Kingdom"
    },
    {
      "name": "United States"
    }
  ]
}
