{
  "name": "Future Forces 2026",
  "series": "Future Forces",
  "edition": "2026",
  "startDate": "2026-10-21",
  "endDate": "2026-10-23",
  "address": {
    "text": "PVA EXPO PRAHA\nBeranových 667\nPrague 9 - Letňany\nCzech Republic",
    "iso2": "CZ",
    "lat": 50.129672,
    "lon": 14.5155794
  },
  "website": "http://future-forces.org/?lang=en",
  "social": [
    {
      "platform": "facebook",
      "url": "https://www.facebook.com/futureforcesforum/"
    },
    {
      "platform": "twitter",
      "url": "https://twitter.com/ForcesForum"
    },
    {
      "platform": "instagram",
      "url": "https://www.instagram.com/futureforcesforum"
    },
    {
      "platform": "linkedin",
      "url": "https://www.linkedin.com/company/future-forces-forum"
    },
    {
      "platform": "youtube",
      "url": "https://www.youtube.com/user/NATOexhibition/featured"
    }
  ],
  "organiser": [
    {
      "name": "Future Advanced Technologies Institute",
      "website": "https://future-forces-forum.org"
    }
  ],
  "exhibitorListUrl": "https://future-forces.org/exhibitors/list/state?lang=en",
  "exhibitorListDate": "2026-07-09T14:02:46+00:00",
  "exhibitor": [
    {
      "name": "3DFENSE",
      "website": "https://3dfense.com"
    },
    {
      "name": "3M",
      "address": {
        "text": "V Parku 24\n148 00 Praha 4",
        "iso2": "CZ",
        "lat": 50.0262892,
        "lon": 14.4975307
      },
      "website": "https://www.3m.cz"
    },
    {
      "name": "ADAX Fond firemního nástupnictví SICAV",
      "website": "https://www.adaxinvest.cz"
    },
    {
      "name": "ADMASYS CZ",
      "website": "https://admasys.cz"
    },
    {
      "name": "AERO Vodochody AEROSPACE a.s.",
      "address": {
        "text": "U Letiště 374, 250 70 Odolena Voda",
        "iso2": "CZ",
        "lat": 50.22045500000001,
        "lon": 14.4074204
      },
      "website": "https://www.aero.cz"
    },
    {
      "name": "AFRISO",
      "address": {
        "text": "Komerční 520, 251 01 Nupaky",
        "iso2": "CZ",
        "lat": 49.9888286,
        "lon": 14.5988614
      },
      "website": "https://afriso.cz"
    },
    {
      "name": "AKERMANN ELECTRONIC PRAHA",
      "address": {
        "text": "Moskevská 949/86\n101 00 Praha 10",
        "iso2": "CZ",
        "lat": 50.066906,
        "lon": 14.4604936
      },
      "website": "https://www.akermann.cz"
    },
    {
      "name": "ANV KNIVES",
      "address": {
        "text": "Pražská 1647\n676 02 Moravské Budějovice",
        "iso2": "CZ",
        "lat": 49.056739,
        "lon": 15.8031493
      },
      "website": "https://www.anvknives.com"
    },
    {
      "name": "ARIGA",
      "website": "https://ariga.cz"
    },
    {
      "name": "AUDIOPRO",
      "address": {
        "text": "Mladoboleslavská 1108\n197 00 Praha 9 – Kbely",
        "iso2": "CZ",
        "lat": 50.1296198,
        "lon": 14.5433235
      },
      "website": "https://www.audiopro.cz/specialni-technika"
    },
    {
      "name": "AURA",
      "address": {
        "text": "Úvoz 499/56\n602 00 Brno",
        "iso2": "CZ",
        "lat": 49.1976018,
        "lon": 16.5939639
      },
      "website": "https://www.aura.cz"
    },
    {
      "name": "AVEC CHEM",
      "address": {
        "text": "Chrudimská 1555\n535 01 Přelouč",
        "iso2": "CZ",
        "lat": 50.03071079999999,
        "lon": 15.5801691
      },
      "website": "https://www.avec.cz"
    },
    {
      "name": "AVEO ENGINEERING GROUP",
      "website": "https://aveoengineering.com"
    },
    {
      "name": "AVERIA",
      "address": {
        "text": "Praha",
        "iso2": "CZ",
        "lat": 50.0755381,
        "lon": 14.4378005
      },
      "website": "https://www.averia.news"
    },
    {
      "name": "AXENTA",
      "website": "https://www.axenta.cz"
    },
    {
      "name": "AXIANS Czech Republic",
      "website": "https://www.axians.cz"
    },
    {
      "name": "Adventure Menu s.r.o. (PRO-RATION division)",
      "address": {
        "text": "Koubkova 399/10, 120 00 Prague",
        "iso2": "CZ",
        "lat": 50.072066,
        "lon": 14.4322509
      },
      "website": "https://www.pro-ration.com"
    },
    {
      "name": "Air Navigation Services of the Czech Republic",
      "website": "https://www.rlp.cz"
    },
    {
      "name": "Atlantis telecom Ltd.",
      "address": {
        "text": "Sterboholska 1427/55\n102 00 Praha 10",
        "iso2": "CZ",
        "lat": 50.0604064,
        "lon": 14.5328063
      },
      "website": "https://www.atlantis.cz"
    },
    {
      "name": "BALLISTIC DEFEND",
      "website": "https://www.ballisticdefend.com"
    },
    {
      "name": "BLADES",
      "website": "https://www.shockblade.com"
    },
    {
      "name": "BR GROUP",
      "website": "https://www.brgroup.cz"
    },
    {
      "name": "BÖLLHOFF",
      "website": "https://www.boellhoff.com"
    },
    {
      "name": "CAIRO CZ",
      "address": {
        "text": "Lubina 1952\n744 01 Frenštát pod Radhoštěm",
        "iso2": "CZ",
        "lat": 49.53615569999999,
        "lon": 18.2072162
      },
      "website": "https://www.cairocz.cz"
    },
    {
      "name": "CANON CZ",
      "address": {
        "text": "Jankovcova 1595/14B 17000 Holešovice",
        "iso2": "CZ",
        "lat": 50.1074069,
        "lon": 14.4546587
      },
      "website": "https://www.canon.cz"
    },
    {
      "name": "CB SERVIS CENTRUM",
      "address": {
        "text": "Borek 473\n373 67 Borek",
        "iso2": "CZ",
        "lat": 49.0300204,
        "lon": 14.5098311
      },
      "website": "https://www.cbservis.com"
    },
    {
      "name": "CCTV - CZECH CYBER TV",
      "website": "https://czechcyber.tv"
    },
    {
      "name": "CESNET",
      "website": "https://www.cesnet.cz"
    },
    {
      "name": "CLV PARDUBICE"
    },
    {
      "name": "COLT CZ GROUP",
      "website": "https://www.coltczgroup.com"
    },
    {
      "name": "CONSENTA",
      "address": {
        "text": "Podnikatelská 539 Praha 9 - Běchovice, 190 11",
        "iso2": "CZ",
        "lat": 50.0924603,
        "lon": 14.6080483
      },
      "website": "https://consenta.cz"
    },
    {
      "name": "CRYTUR",
      "website": "https://www.crytur.cz"
    },
    {
      "name": "CYBER DRONE SOLUTIONS",
      "website": "https://cyberdronesolutions.com"
    },
    {
      "name": "CZ DEFENCE Magazine",
      "address": {
        "text": "Machuldova 578/19, Prague 4",
        "iso2": "CZ",
        "lat": 50.0103592,
        "lon": 14.4516616
      },
      "website": "https://www.czdefence.cz"
    },
    {
      "name": "CZECH ARMED FORCES",
      "website": "https://www.army.cz"
    },
    {
      "name": "CZECH CYBER CENTER",
      "address": {
        "text": "Dopravní 500/9\n104 00 Prague 10",
        "iso2": "CZ",
        "lat": 50.0353243,
        "lon": 14.5925083
      },
      "website": "https://www.kybercentrum.cz"
    },
    {
      "name": "CZECH EXPORT BANK",
      "address": {
        "text": "Vodičkova 701/34, 111 21, Prague 1",
        "iso2": "CZ",
        "lat": 50.0799993,
        "lon": 14.4233161
      },
      "website": "https://www.ceb.cz"
    },
    {
      "name": "CZECHIA SYSTEMS",
      "website": "https://czechiasystems.cz"
    },
    {
      "name": "CZECHOSLOVAK GROUP",
      "address": {
        "text": "U Rustonky 714/1\nPrague 8, 186 00",
        "iso2": "CZ",
        "lat": 50.1002642,
        "lon": 14.4675546
      },
      "website": "https://www.czechoslovakgroup.com"
    },
    {
      "name": "Cyber and Information Warfare Command",
      "address": {
        "text": "Kounicova 65\n602 00 Brno",
        "iso2": "CZ",
        "lat": 49.2077317,
        "lon": 16.5947985
      },
      "website": "https://www.army.cz"
    },
    {
      "name": "Czech Technical University in Prague - Faculty of Mechanical Engineering",
      "website": "https://rcmt.cvut.cz"
    },
    {
      "name": "DEKONTA / DEKONTA CBRN",
      "address": {
        "text": "Volutová 2523/14\n158 00 Praha 5",
        "iso2": "CZ",
        "lat": 50.0501962,
        "lon": 14.3391009
      },
      "website": "https://www.dekontacbrn.cz"
    },
    {
      "name": "DISK SYSTEMS",
      "address": {
        "text": "Sokolská 13, 680 01 Boskovice",
        "iso2": "CZ",
        "lat": 49.4912563,
        "lon": 16.6587033
      },
      "website": "https://www.disk.cz"
    },
    {
      "name": "DSS",
      "website": "https://dss-cz.com"
    },
    {
      "name": "Danish Embassy in Prague",
      "address": {
        "text": "Maltézské náměstí 5, Praha 1",
        "iso2": "CZ",
        "lat": 50.0858803,
        "lon": 14.4051557
      },
      "website": "https://tjekkiet.um.dk"
    },
    {
      "name": "Defence and Security Industry Association",
      "address": {
        "text": "Washingtonova 25, Praha 1",
        "iso2": "CZ",
        "lat": 50.0825417,
        "lon": 14.432012
      },
      "website": "https://www.aobp.cz"
    },
    {
      "name": "EASY SOFTWARE"
    },
    {
      "name": "EGER CZ, s.r.o. / X-ARMOR s.r.o.",
      "address": {
        "text": "Pod novým lesem 70/55, Praha 6, 16200",
        "iso2": "CZ",
        "lat": 50.0926609,
        "lon": 14.3610349
      },
      "website": "https://www.x-armor.cz"
    },
    {
      "name": "ELVAC",
      "website": "https://www.elvac.eu"
    },
    {
      "name": "EURO SECURITY PRODUCTS",
      "address": {
        "text": "Hyacintová 20, Prague 10, 106 00",
        "iso2": "CZ",
        "lat": 50.0543837,
        "lon": 14.4945828
      },
      "website": "https://www.esp-products.com"
    },
    {
      "name": "EUROLAMP",
      "address": {
        "text": "Topolová 1418, 684 01 Slavkov u Brna",
        "iso2": "CZ",
        "lat": 49.1446505,
        "lon": 16.8817421
      },
      "website": "https://www.eurolamp.cz"
    },
    {
      "name": "EVPÚ Defence",
      "website": "https://www.evpudefence.com"
    },
    {
      "name": "EXPLOSIA a.s.",
      "website": "https://www.explosia.cz"
    },
    {
      "name": "G.S.A. - BALLISTECH",
      "website": "https://gsa-ballistech.cz"
    },
    {
      "name": "GLOMEX Military Supplies",
      "address": {
        "text": "Průběžná 3207/74a\n100 00 Praha 10",
        "iso2": "CZ",
        "lat": 50.0669025,
        "lon": 14.4958406
      },
      "website": "https://www.glomex-ms.com"
    },
    {
      "name": "GOFORE",
      "website": "https://gofore.com"
    },
    {
      "name": "GRANT DETECTION S.R.O.",
      "address": {
        "text": "Hradecká 1152/11, Hradec Králové, 500 03",
        "iso2": "CZ",
        "lat": 50.2023041,
        "lon": 15.8315207
      },
      "website": "https://grantdetection.com"
    },
    {
      "name": "GWZ",
      "website": "https://www.gwz.cz"
    },
    {
      "name": "HICO Czech",
      "website": "https://www.hico.com"
    },
    {
      "name": "HIKMICRO",
      "website": "https://www.thermvisia.com"
    },
    {
      "name": "HOLÍK INTERNATIONAL",
      "website": "https://www.holik-international.cz"
    },
    {
      "name": "HQH SYSTEM",
      "address": {
        "text": "Na Jarove 2049/29\n130 00 Praha 3",
        "iso2": "CZ",
        "lat": 50.0898491,
        "lon": 14.4893682
      },
      "website": "https://www.hqh.cz"
    },
    {
      "name": "HSF",
      "website": "https://www.hsf.systems"
    },
    {
      "name": "INFRAHEX",
      "website": "https://www.infrahex.com"
    },
    {
      "name": "INTELDAT",
      "address": {
        "text": "Popovičky 100, 25101 Popovičky",
        "iso2": "CZ",
        "lat": 49.9625442,
        "lon": 14.5978035
      },
      "website": "https://www.inteldatfiber.com"
    },
    {
      "name": "INTERLINK CS",
      "address": {
        "text": "Lomena 9\n162 00 Prague",
        "iso2": "CZ",
        "lat": 50.0943715,
        "lon": 14.3779396
      },
      "website": "https://www.interlinkcs.cz"
    },
    {
      "name": "JD DVOŘÁK",
      "website": "https://www.jddvorak.cz"
    },
    {
      "name": "JISR INSTITUTE",
      "address": {
        "text": "Na Strži 241/28\n140 00 Praha 4, Krč",
        "iso2": "CZ",
        "lat": 50.0441205,
        "lon": 14.4391348
      },
      "website": "https://www.jisr-institute.org"
    },
    {
      "name": "KAITRADE",
      "address": {
        "text": "U Elektry 830/2b",
        "iso2": "CZ",
        "lat": 50.103326,
        "lon": 14.5198677
      },
      "website": "https://kaitrade.cz"
    },
    {
      "name": "KBP INTERNATIONAL",
      "website": "https://www.kbpinternational.com"
    },
    {
      "name": "KEMPER",
      "website": "https://www.kemper.eu/cs"
    },
    {
      "name": "KENTIGEN",
      "website": "https://www.kentigen.com"
    },
    {
      "name": "KOUTNÝ",
      "address": {
        "text": "Okružní 4200/4a\n796 01 Prostějov",
        "iso2": "CZ",
        "lat": 49.4637305,
        "lon": 17.1095102
      },
      "website": "https://www.koutny.cz"
    },
    {
      "name": "LIAZ",
      "address": {
        "text": "Kamenická 743\n460 06 Liberec",
        "iso2": "CZ",
        "lat": 50.7430005,
        "lon": 15.0649543
      },
      "website": "https://www.liaz-uav.com"
    },
    {
      "name": "LOM PRAHA",
      "address": {
        "text": "Tiskařská 270/8\n108 00 Praha 10",
        "iso2": "CZ",
        "lat": 50.0798103,
        "lon": 14.5286361
      },
      "website": "https://www.lompraha.cz"
    },
    {
      "name": "LUVO FIREARMS",
      "address": {
        "text": "Rejskova 7\n120 00 Praha 2",
        "iso2": "CZ",
        "lat": 50.0667717,
        "lon": 14.434322
      },
      "website": "https://www.luvo.cz"
    },
    {
      "name": "MCAE Systems",
      "address": {
        "text": "Knínická 1771/6\n664 34 Kuřim",
        "iso2": "CZ",
        "lat": 49.2943993,
        "lon": 16.5214933
      },
      "website": "https://www.mcae.cz"
    },
    {
      "name": "MEOPTA",
      "address": {
        "text": "Kabelikova 1, 75002 Prerov",
        "iso2": "CZ",
        "lat": 49.45472609999999,
        "lon": 17.4727259
      },
      "website": "https://www.meopta.com"
    },
    {
      "name": "MESIT asd, s.r.o.",
      "website": "https://www.mesit.cz"
    },
    {
      "name": "METAL ARSENAL s.r.o. - ECCOTARP",
      "address": {
        "text": "Poděbradova 1920",
        "iso2": "CZ",
        "lat": 50.1995622,
        "lon": 14.859157
      },
      "website": "https://www.eccotarp.com"
    },
    {
      "name": "MILITARY TECHNICAL INSTITUTE",
      "address": {
        "text": "Mladoboleslavská 944\n197 00 Praha 9 - Kbely",
        "iso2": "CZ",
        "lat": 50.12607389999999,
        "lon": 14.5321292
      },
      "website": "https://www.vtusp.cz"
    },
    {
      "name": "MOLPIR GROUP CZ",
      "address": {
        "text": "Technologická 838/15\n77900 Olomouc",
        "iso2": "CZ",
        "lat": 49.5938841,
        "lon": 17.2990051
      },
      "website": "https://www.molpir.com"
    },
    {
      "name": "MS LINE",
      "address": {
        "text": "Vykáň 82\n289 15 Kounice",
        "iso2": "CZ",
        "lat": 50.120714,
        "lon": 14.8144919
      },
      "website": "https://www.msline.cz"
    },
    {
      "name": "Ministry of Defence of the Czech Republic",
      "address": {
        "text": "Tychonova 221/1\n160 01 Praha 6",
        "iso2": "CZ",
        "lat": 50.0953297,
        "lon": 14.4035044
      },
      "website": "https://www.army.cz"
    },
    {
      "name": "Ministry of the Interior of the Czech Republic",
      "address": {
        "text": "Nad Štolou 936/3, P. O. BOX 21\n170 34 Praha 7",
        "iso2": "CZ",
        "lat": 50.0988483,
        "lon": 14.4218153
      },
      "website": "https://www.mvcr.cz"
    },
    {
      "name": "Moravský letecký klastr",
      "website": "https://www.czech-aerospace.cz"
    },
    {
      "name": "NADAČNÍ FOND REGI BASE I.",
      "address": {
        "text": "Konviktská 291/24\n110 00 Praha 1",
        "iso2": "CZ",
        "lat": 50.0832421,
        "lon": 14.4156862
      },
      "website": "https://www.regibase.cz"
    },
    {
      "name": "NANUK CASES",
      "address": {
        "text": "Hrozenkovská 3\n155 21 Praha 5 - Zličín",
        "iso2": "CZ",
        "lat": 50.0601735,
        "lon": 14.2930871
      },
      "website": "https://www.nanukcase.cz"
    },
    {
      "name": "NIDES",
      "address": {
        "text": "Turanka 1222/115, Slatina, 627 00 Brno",
        "iso2": "CZ",
        "lat": 49.1712023,
        "lon": 16.6800535
      },
      "website": "https://www.nides.cz"
    },
    {
      "name": "NORD-LOCK",
      "website": "https://www.nord-lock.com"
    },
    {
      "name": "National Cyber and Information Security Agency (NÚKIB)",
      "address": {
        "text": "Mučednická 1125/31\n616 00 Brno-Žabovřesky",
        "iso2": "CZ",
        "lat": 49.2083817,
        "lon": 16.5849333
      },
      "website": "https://nukib.cz"
    },
    {
      "name": "OCTAVE",
      "website": "https://www.octave.com"
    },
    {
      "name": "OMNIPOL a.s.",
      "website": "https://omnipol.com"
    },
    {
      "name": "OPTIDYNEX",
      "website": "https://www.optidynex.com"
    },
    {
      "name": "PBS VELKÁ BÍTEŠ",
      "address": {
        "text": "Vlkovská 279\n569 01 Velká Bíteš",
        "iso2": "CZ",
        "lat": 49.2997999,
        "lon": 16.2147636
      },
      "website": "https://www.pbs.cz"
    },
    {
      "name": "PEI-Genesis",
      "address": {
        "text": "Postoloprtska 2675, Louny, 440 01",
        "iso2": "CZ",
        "lat": 50.3551295,
        "lon": 13.7741982
      },
      "website": "https://www.peiconnect.cz"
    },
    {
      "name": "PILECKY Ltd.",
      "address": {
        "text": "Mokrovraty 177, 262 03 Novy Knin",
        "iso2": "CZ",
        "lat": 49.7927691,
        "lon": 14.2601663
      },
      "website": "https://www.pilecky.cz"
    },
    {
      "name": "PRAGODATA",
      "website": "https://www.pragodata.cz"
    },
    {
      "name": "PRAMACOM-HT",
      "address": {
        "text": "Na piskach 1667/36\n160 00 Praha 6",
        "iso2": "CZ",
        "lat": 50.1049481,
        "lon": 14.3730027
      },
      "website": "https://www.infrared.cz"
    },
    {
      "name": "PROAMMO Central Europe",
      "address": {
        "text": "Kvapilova 9\n150 00 Prague 5",
        "iso2": "CZ",
        "lat": 50.0652841,
        "lon": 14.3732409
      },
      "website": "https://www.proammo.cz"
    },
    {
      "name": "PROLAB ENGINEERING / FACULTY OF ENGINEERING, CZU Prague",
      "address": {
        "text": "Kamýcká 872, Prague",
        "iso2": "CZ",
        "lat": 50.1293152,
        "lon": 14.3742647
      },
      "website": "https://www.prolabengineering.com"
    },
    {
      "name": "QUITTNER & SCHIMEK",
      "address": {
        "text": "Komenského 304\n509 01 Nová Paka",
        "iso2": "CZ",
        "lat": 50.4928263,
        "lon": 15.5199746
      },
      "website": "https://www.qscomp.cz"
    },
    {
      "name": "RAY SERVICE",
      "address": {
        "text": "Huštěnovská 2022\n686 03 Staré Město",
        "iso2": "CZ",
        "lat": 49.0841954,
        "lon": 17.4487634
      },
      "website": "https://www.rayservice.com"
    },
    {
      "name": "RESCUE TRAILER",
      "address": {
        "text": "468 47 Zlatá Olešnice 184",
        "iso2": "CZ",
        "lat": 50.7077567,
        "lon": 15.3537514
      },
      "website": "https://www.rescuetrailer.cz"
    },
    {
      "name": "RIGAD",
      "address": {
        "text": "Nádražní 21, Semily, 51301",
        "iso2": "CZ",
        "lat": 50.6017939,
        "lon": 15.3233078
      },
      "website": "https://www.rigad.cz"
    },
    {
      "name": "ROHDE & SCHWARZ",
      "address": {
        "text": "Hadovka Office Park\nEvropská 2590/33c\n160 00 Praha 6",
        "iso2": "CZ",
        "lat": 50.0994822,
        "lon": 14.3778645
      },
      "website": "https://www.rohde-schwarz.com"
    },
    {
      "name": "S-TECH VENTURES",
      "website": "https://s-techventures.com"
    },
    {
      "name": "SECURITY MAGAZÍN",
      "address": {
        "text": "Heinemannova 6\nPraha 6",
        "iso2": "CZ",
        "lat": 50.11234959999999,
        "lon": 14.3918738
      },
      "website": "https://www.securitymagazin.cz"
    },
    {
      "name": "SH COMMERCE",
      "website": "https://www.shcommerce.cz"
    },
    {
      "name": "SPEEL PRAHA",
      "address": {
        "text": "Beranových 130, Praha 9 - Letňany, 199 05",
        "iso2": "CZ",
        "lat": 50.1331284,
        "lon": 14.5133773
      },
      "website": "https://www.speel.cz"
    },
    {
      "name": "SPRINT, spol. s r.o.",
      "website": "https://www.sprintcz.cz"
    },
    {
      "name": "STV ARMS",
      "website": "https://www.stvarms.cz"
    },
    {
      "name": "STV GROUP",
      "website": "https://www.stvgroup.cz"
    },
    {
      "name": "SVOS",
      "website": "https://www.armsvos.cz"
    },
    {
      "name": "TAKTIK",
      "website": "https://taktik.cz"
    },
    {
      "name": "TEBO",
      "website": "https://www.tebo.cz"
    },
    {
      "name": "TENEO 3000",
      "website": "https://teneo.cz"
    },
    {
      "name": "THERMVISIA",
      "address": {
        "text": "Karla Engliše 3201/6, 150 00 Praha",
        "iso2": "CZ",
        "lat": 50.0699829,
        "lon": 14.4013948
      },
      "website": "https://www.thermvisia.com"
    },
    {
      "name": "TOPAGRI",
      "address": {
        "text": "Košťálkova 1527\n266 01 Beroun",
        "iso2": "CZ",
        "lat": 49.9529091,
        "lon": 14.048218
      },
      "website": "https://www.topagri.cz"
    },
    {
      "name": "TRL DRONES",
      "website": "https://trldrones.cz"
    },
    {
      "name": "TRL SPACE SYSTEMS",
      "address": {
        "text": "Plynárenská 499/1, Brno",
        "iso2": "CZ",
        "lat": 49.1969404,
        "lon": 16.626328
      },
      "website": "https://www.trlspace.com"
    },
    {
      "name": "TRUCK SERVIS ČÁSLAV s.r.o.",
      "address": {
        "text": "Pod Nádražím 1205, 286 01 Čáslav",
        "iso2": "CZ",
        "lat": 49.915534,
        "lon": 15.3988215
      },
      "website": "https://servisvozidel.cz"
    },
    {
      "name": "TTC TELEKOMUNIKACE",
      "address": {
        "text": "Třebohostická 987/5\n100 00 Praha 10 – Strašnice",
        "iso2": "CZ",
        "lat": 50.07650890000001,
        "lon": 14.5102914
      },
      "website": "https://www.ttc-telekomunikace.cz"
    },
    {
      "name": "The Red Poppies Association",
      "address": {
        "text": "Milanska 414, 10900 Prague",
        "iso2": "CZ",
        "lat": 50.0422854,
        "lon": 14.554529
      },
      "website": "https://www.spolekvlcimaky.cz/en"
    },
    {
      "name": "U&C UAS",
      "website": "https://www.uacuas.com"
    },
    {
      "name": "URC SYSTEMS",
      "address": {
        "text": "Vrahovická 825/156b\n798 11 Prostějov",
        "iso2": "CZ",
        "lat": 49.478254,
        "lon": 17.1407757
      },
      "website": "https://www.urc-systems.cz"
    },
    {
      "name": "UVEX SAFETY",
      "address": {
        "text": "Na Jamách 394, 516 01 Rychnov nad Kněžnou",
        "iso2": "CZ",
        "lat": 50.1511059,
        "lon": 16.2769364
      },
      "website": "https://www.uvex-safety.cz"
    },
    {
      "name": "VCL DEFENCE",
      "website": "https://vcldefence.com"
    },
    {
      "name": "VOP CZ",
      "address": {
        "text": "Dukelská 102\n742 42 Šenov u Nového Jičína",
        "iso2": "CZ",
        "lat": 49.6151884,
        "lon": 17.9932891
      },
      "website": "https://www.vop.cz"
    },
    {
      "name": "VR GROUP",
      "address": {
        "text": "Tiskařská 270/8\n108 00 Prague 10",
        "iso2": "CZ",
        "lat": 50.0798103,
        "lon": 14.5286361
      },
      "website": "https://www.vrg.cz"
    },
    {
      "name": "VZLU AEROSPACE",
      "address": {
        "text": "Beranovych 130\n199 00 Prague 9",
        "iso2": "CZ",
        "lat": 50.1331284,
        "lon": 14.5133773
      },
      "website": "https://www.vzlu.cz"
    },
    {
      "name": "WILD US",
      "website": "https://www.wildus.cz"
    },
    {
      "name": "WORKSWELL",
      "website": "https://workswell.eu"
    },
    {
      "name": "XBARRIER",
      "website": "https://xbarrier.cz"
    },
    {
      "name": "ZAITRA",
      "website": "https://zaitra.io"
    }
  ]
}
