{
  "name": "MSPO 2026",
  "series": "MSPO",
  "edition": "2026",
  "alias": [
    "34rd International Defence Industry Exhibition MSPO",
    "Międzynarodowy Salon Przemysłu Obronnego"
  ],
  "startDate": "2026-09-08",
  "endDate": "2026-09-11",
  "address": {
    "text": "Targi Kielce\nSt. Zakładowa 1\n25-672 Kielce\nPoland",
    "iso2": "PL",
    "lat": 50.8989729,
    "lon": 20.5885514
  },
  "website": "https://www.targikielce.pl/en/mspo",
  "organiser": {
    "name": "Targi Kielce",
    "address": "Targi Kielce\nSt. Zakładowa 1\n25-672 Kielce\nPoland",
    "website": "https://www.targikielce.pl",
    "social": [
      {
        "platform": "facebook",
        "url": "https://www.facebook.com/targikielce"
      },
      {
        "platform": "twitter",
        "url": "https://twitter.com/targikielce"
      },
      {
        "platform": "instagram",
        "url": "https://www.instagram.com/targikielce/"
      },
      {
        "platform": "youtube",
        "url": "https://www.youtube.com/user/TargiKielce1"
      },
      {
        "platform": "linkedin",
        "url": "https://www.linkedin.com/company/targi-kielce-sa"
      }
    ]
  },
  "exhibitorListUrl": "https://www.targikielce.pl/en/mspo/list-of-exhibitors",
  "exhibitorListDate": "2026-07-09T15:22:21+00:00",
  "exhibitor": [
    {
      "name": "\"ALSTOR\" A.ZWIERZYNSKI I WSPÓLNICY SPÓŁKA Z OGRANICZONĄ ODPOWIEDZIALNOŚCIĄ",
      "exhibitorUrl": "https://www.targikielce.pl/en/mspo/list-of-exhibitors/alstor-azwierzynski-i-wspolnicy-spolka-z-ograniczona-odpowiedzialnoscia,3810995",
      "address": {
        "text": "ul. Wenecka 12, 03-244 Warszawa, Poland",
        "iso2": "PL",
        "lat": 52.298462,
        "lon": 21.0206751
      }
    },
    {
      "name": "\"BARWA SYSTEM\" SPÓŁKA Z OGRANICZONĄ ODPOWIEDZIALNOŚCIĄ",
      "exhibitorUrl": "https://www.targikielce.pl/en/mspo/list-of-exhibitors/barwa-system-spolka-z-ograniczona-odpowiedzialnoscia,3811280",
      "address": {
        "text": "ul. Przemysłowa 21, 11-034 Stawiguda, Poland",
        "iso2": "PL",
        "lat": 53.6505585,
        "lon": 20.4043327
      },
      "website": "www.barwasystem.pl"
    },
    {
      "name": "\"CERTOOLS\" SP. J. CEFAM SP. Z O. O., MKHAN SP. Z O.O.",
      "exhibitorUrl": "https://www.targikielce.pl/en/mspo/list-of-exhibitors/certools-sp-j-cefam-sp-z-o-o-mkhan-sp-z-oo,3811274",
      "address": {
        "text": "ul. Wspólna 23 B, 95-200 Pabianice, Poland",
        "iso2": "PL",
        "lat": 51.6671105,
        "lon": 19.3292965
      },
      "website": "www.certools.pl"
    },
    {
      "name": "\"DHL EXEL SUPPLY CHAIN (POLAND)\" SPÓŁKA Z OGRANICZ ONĄ ODPOWIEDZIALNOŚCIĄ",
      "exhibitorUrl": "https://www.targikielce.pl/en/mspo/list-of-exhibitors/dhl-exel-supply-chain-poland-spolka-z-ogranicz-ona-odpowiedzialnoscia,3813071",
      "address": {
        "text": "ul. Komitetu Obrony Robotników 45D, 02-146 Warszawa, Poland",
        "iso2": "PL",
        "lat": 52.1824158,
        "lon": 20.9661967
      }
    },
    {
      "name": "\"DHL GLOBAL FORWARDING\" SPÓŁKA Z OGRANICZONĄ ODPOWIEDZIALNOŚCIĄ",
      "exhibitorUrl": "https://www.targikielce.pl/en/mspo/list-of-exhibitors/dhl-global-forwarding-spolka-z-ograniczona-odpowiedzialnoscia,3811892",
      "address": {
        "text": "ul. Krakowiaków 44, 02-255 Warszawa, Poland",
        "iso2": "PL",
        "lat": 52.18992840000001,
        "lon": 20.9467579
      },
      "website": "www.dhl.com/pl-pl/home/spedycja-miedzynarodowa.html"
    },
    {
      "name": "\"INTER SICHERHEITS SERVICE\" SPÓŁKA Z OGRANICZONĄ ODPOWIEDZIALNOŚCIĄ",
      "exhibitorUrl": "https://www.targikielce.pl/en/mspo/list-of-exhibitors/inter-sicherheits-service-spolka-z-ograniczona-odpowiedzialnoscia,3811316",
      "address": {
        "text": "ul. Kobylogórska 2, 66-400 Gorzów Wielkopolski, Poland",
        "iso2": "PL",
        "lat": 52.7203843,
        "lon": 15.2533795
      },
      "website": "www.iss.net.pl"
    },
    {
      "name": "\"KRYPTON POLSKA\" SPÓŁKA Z OGRANICZONĄ ODPOWIEDZIALNOŚCIĄ",
      "exhibitorUrl": "https://www.targikielce.pl/en/mspo/list-of-exhibitors/krypton-polska-spolka-z-ograniczona-odpowiedzialnoscia,3810851",
      "address": {
        "text": "KOLEJOWA 1, 01-217 WARSZAWA, Poland",
        "iso2": "PL",
        "lat": 52.22364899999999,
        "lon": 20.970367
      }
    },
    {
      "name": "\"LEDATEL\" SPÓŁKA Z OGRANICZONĄ ODPOWIEDZIALNOŚCIĄ I WSPÓLNICY SPÓŁKA KOMANDYTOWA",
      "exhibitorUrl": "https://www.targikielce.pl/en/mspo/list-of-exhibitors/ledatel-spolka-z-ograniczona-odpowiedzialnoscia-i-wspolnicy-spolka-komandytowa,3810863",
      "address": {
        "text": "ul. Terespolska 144, 05-074 Nowy Konik, Poland",
        "iso2": "PL",
        "lat": 52.2213043,
        "lon": 21.2935513
      }
    },
    {
      "name": "\"MEGMAR LOGISTICS & CONSULTING\" SP. Z O.O.",
      "exhibitorUrl": "https://www.targikielce.pl/en/mspo/list-of-exhibitors/megmar-logistics-consulting-sp-z-oo,3810473",
      "address": {
        "text": "ul. Marii Skłodowskiej-Curie 10, 99-300 Kutno, Poland",
        "iso2": "PL",
        "lat": 52.236738,
        "lon": 19.353228
      },
      "website": "www.megmar.pl"
    },
    {
      "name": "\"PAGACZ I SYNOWIE\" SP. Z O.O.",
      "exhibitorUrl": "https://www.targikielce.pl/en/mspo/list-of-exhibitors/pagacz-i-synowie-sp-z-oo,3810803",
      "address": {
        "text": "ul. Studzienna 36, 87-100 Toruń, Poland",
        "iso2": "PL",
        "lat": 53.0205383,
        "lon": 18.6330009
      },
      "website": "pagacz.com.pl/kontakt"
    },
    {
      "name": "\"PCE POLSKA\" - SPÓŁKA Z OGRANICZONĄ ODPOWIEDZIALNOŚCIĄ",
      "exhibitorUrl": "https://www.targikielce.pl/en/mspo/list-of-exhibitors/pce-polska-spolka-z-ograniczona-odpowiedzialnoscia,3811097",
      "address": {
        "text": "ul. Podwalna 8A, 58-200 Dzierżoniów, Poland",
        "iso2": "PL",
        "lat": 50.7220358,
        "lon": 16.6358152
      }
    },
    {
      "name": "\"PEX DEFENCE POLSKA\" SPÓŁKA Z OGRANICZONĄ ODPOWIEDZIALNOŚCIĄ",
      "exhibitorUrl": "https://www.targikielce.pl/en/mspo/list-of-exhibitors/pex-defence-polska-spolka-z-ograniczona-odpowiedzialnoscia,3813290",
      "address": {
        "text": "ŚWIĘTOSŁAWA 270A, 39-200 DĘBICA, Poland",
        "iso2": "PL",
        "lat": 50.0803687,
        "lon": 21.4358909
      }
    },
    {
      "name": "\"PKE POLSKA\" SPÓŁKA Z OGRANICZONĄ ODPOWIEDZIALNOŚCIĄ",
      "exhibitorUrl": "https://www.targikielce.pl/en/mspo/list-of-exhibitors/pke-polska-spolka-z-ograniczona-odpowiedzialnoscia,3811778",
      "address": {
        "text": "ul. Osmańska 14, 02-823 Warszawa, Poland",
        "iso2": "PL",
        "lat": 52.154874,
        "lon": 20.9956288
      }
    },
    {
      "name": "\"POL-MARE\" SPÓŁKA Z OGRANICZONĄ ODPOWIEDZIALNOŚCIĄ SPÓŁKA KOMANDYTOWA",
      "exhibitorUrl": "https://www.targikielce.pl/en/mspo/list-of-exhibitors/pol-mare-spolka-z-ograniczona-odpowiedzialnoscia-spolka-komandytowa,3810767",
      "address": {
        "text": "ul. Kadłubowców 2, 81-336 Gdynia, Poland",
        "iso2": "PL",
        "lat": 54.5330798,
        "lon": 18.5165192
      }
    },
    {
      "name": "\"RIELLO DELTA POWER\" SPÓŁKA Z OGRANICZONĄ ODPOWIEDZIALNOŚCIĄ",
      "exhibitorUrl": "https://www.targikielce.pl/en/mspo/list-of-exhibitors/riello-delta-power-spolka-z-ograniczona-odpowiedzialnoscia,3810365",
      "address": {
        "text": "ul. Krasnowolska 82R, 02-849 Warszawa, Poland",
        "iso2": "PL",
        "lat": 52.14285599999999,
        "lon": 20.9979406
      },
      "website": "www.deltapower.pl"
    },
    {
      "name": "3M POLAND Sp. z o.o.",
      "exhibitorUrl": "https://www.targikielce.pl/en/mspo/list-of-exhibitors/3m-poland-sp-z-oo,3810689",
      "address": {
        "text": "Al. Katowicka 117, Kajetany, 05-830 NADARZYN, Poland",
        "iso2": "PL",
        "lat": 52.0834371,
        "lon": 20.8014128
      },
      "website": "www.3m.pl/bhp"
    },
    {
      "name": "4MILITARY SPÓŁKA Z OGRANICZONĄ ODPOWIEDZIALNOŚCIĄ",
      "exhibitorUrl": "https://www.targikielce.pl/en/mspo/list-of-exhibitors/4military-spolka-z-ograniczona-odpowiedzialnoscia,3811874",
      "address": {
        "text": "ul. Tadeusza Ważewskiego 66, 30-499 Kraków, Poland",
        "iso2": "PL",
        "lat": 49.9841683,
        "lon": 19.901126
      }
    },
    {
      "name": "4iG Space and Defence Technologies Plc.",
      "exhibitorUrl": "https://www.targikielce.pl/en/mspo/list-of-exhibitors/4ig-space-and-defence-technologies-plc,3812654",
      "address": {
        "text": "Krisztina körút 39, 1013 Budapest, Hungary",
        "iso2": "HU",
        "lat": 47.49949489999999,
        "lon": 19.0264723
      }
    },
    {
      "name": "ABILUS GROUP Sp. z o.o.",
      "exhibitorUrl": "https://www.targikielce.pl/en/mspo/list-of-exhibitors/abilus-group-sp-z-oo,3810377",
      "address": {
        "text": "ul. Przemysłowa 24, 32-083 Balice, Poland",
        "iso2": "PL",
        "lat": 50.0664582,
        "lon": 19.7960666
      },
      "website": "www.dragonwinch.com"
    },
    {
      "name": "ABPLANALP SPÓŁKA Z OGRANICZONĄ ODPOWIEDZIALNOŚCIĄ",
      "exhibitorUrl": "https://www.targikielce.pl/en/mspo/list-of-exhibitors/abplanalp-spolka-z-ograniczona-odpowiedzialnoscia,3813593",
      "address": {
        "text": "KOSTRZYŃSKA 36, 02-979 WARSZAWA, Poland",
        "iso2": "PL",
        "lat": 52.189344,
        "lon": 21.0791561
      },
      "website": "www.abplanalp.pl"
    },
    {
      "name": "ABRIS PL SPÓŁKA Z OGRANICZONĄ ODPOWIEDZIALNOŚCIĄ",
      "exhibitorUrl": "https://www.targikielce.pl/en/mspo/list-of-exhibitors/abris-pl-spolka-z-ograniczona-odpowiedzialnoscia,3812285",
      "address": {
        "text": "ul. Juliana Smulikowskiego 4 A/16, 00-389 Warszawa, Poland",
        "iso2": "PL",
        "lat": 52.2372706,
        "lon": 21.031343
      }
    },
    {
      "name": "ACADA",
      "exhibitorUrl": "https://www.targikielce.pl/en/mspo/list-of-exhibitors/acada,3837098",
      "address": {
        "text": "Blue Cross Centre, E1C 9J8 Moncton, New Brunswick, Canada",
        "iso2": "CA",
        "lat": 46.0888682,
        "lon": -64.77490809999999
      },
      "website": "www.ac-ada.ca"
    },
    {
      "name": "ACE6 Technology Pte Ltd",
      "exhibitorUrl": "https://www.targikielce.pl/en/mspo/list-of-exhibitors/ace6-technology-pte-ltd,3812897",
      "address": {
        "text": "3791 Jln Bukit Merah, E-Centre@Redhill, #10-15, 159471 Singapore, Singapore",
        "iso2": "SG",
        "lat": 1.2853164,
        "lon": 103.8116263
      }
    },
    {
      "name": "ACP SYSTEMS POLSKA SPÓŁKA Z OGRANICZONĄ ODPOWIEDZIALNOŚCIĄ",
      "exhibitorUrl": "https://www.targikielce.pl/en/mspo/list-of-exhibitors/acp-systems-polska-spolka-z-ograniczona-odpowiedzialnoscia,3812327",
      "address": {
        "text": "ul. Kolejowa 2, 55-010 Radwanice, Poland",
        "iso2": "PL",
        "lat": 51.0295196,
        "lon": 17.1225997
      },
      "website": "www.acpsystems.pl"
    },
    {
      "name": "ACS Armoured Car Systems GmbH",
      "exhibitorUrl": "https://www.targikielce.pl/en/mspo/list-of-exhibitors/acs-armoured-car-systems-gmbh,3812789",
      "address": {
        "text": "Winterbruckenweg 60, 86316 Friedberg, Germany",
        "iso2": "DE",
        "lat": 48.4061093,
        "lon": 10.9499808
      },
      "website": "www.acs-armoured-cars.com"
    },
    {
      "name": "AERONAUTICS Ltd.",
      "exhibitorUrl": "https://www.targikielce.pl/en/mspo/list-of-exhibitors/aeronautics-ltd,3811007",
      "address": {
        "text": "Nachal Snir St 10,, 8122447 Yavne, Israel",
        "iso2": "IL",
        "lat": 31.9001037,
        "lon": 34.7370239
      }
    },
    {
      "name": "AGENTOOLS SPÓŁKA Z OGRANICZONĄ ODPOWIEDZIALNOŚCIĄ SPÓŁKA KOMANDYTOWA",
      "exhibitorUrl": "https://www.targikielce.pl/en/mspo/list-of-exhibitors/agentools-spolka-z-ograniczona-odpowiedzialnoscia-spolka-komandytowa,3811364",
      "address": {
        "text": "ul. Oliwkowa 10A, 61-306 POZNAŃ, Poland",
        "iso2": "PL",
        "lat": 52.3585716,
        "lon": 17.0194519
      }
    },
    {
      "name": "AIAD - Italian Companies for Aerospace, Defence an d Security Federation",
      "exhibitorUrl": "https://www.targikielce.pl/en/mspo/list-of-exhibitors/aiad-italian-companies-for-aerospace-defence-an-d-security-federation,3812576",
      "address": {
        "text": "Via Nazionale, 54, 00184 Rome, Italy",
        "iso2": "IT",
        "lat": 41.8996697,
        "lon": 12.4919371
      },
      "website": "aiad.it"
    },
    {
      "name": "AICEP-BIURO RADCY HANDLOWEGO AMBASADY PORTUGALII",
      "exhibitorUrl": "https://www.targikielce.pl/en/mspo/list-of-exhibitors/aicep-biuro-radcy-handlowego-ambasady-portugalii,3811400",
      "address": {
        "text": "ul. Ateńska 37, 03-978 Warszawa, Poland",
        "iso2": "PL",
        "lat": 52.2245049,
        "lon": 21.0664096
      }
    },
    {
      "name": "AIR&ROAD SERVICE SPÓŁKA Z OGRANICZONĄ ODPOWIEDZIALNOŚCIĄ",
      "exhibitorUrl": "https://www.targikielce.pl/en/mspo/list-of-exhibitors/airroad-service-spolka-z-ograniczona-odpowiedzialnoscia,3812429",
      "address": {
        "text": "ul. Mazowiecka 36/1, 05-077 Warszawa, Poland",
        "iso2": "PL",
        "lat": 52.2248198,
        "lon": 21.2363219
      },
      "website": "arscompany.eu"
    },
    {
      "name": "AKA Energy Systems (Aspin Kemp & Associates Inc.)",
      "exhibitorUrl": "https://www.targikielce.pl/en/mspo/list-of-exhibitors/aka-energy-systems-aspin-kemp-associates-inc,3837050",
      "address": {
        "text": "23 Brook Street, C0A1R0 Montague,Prince Edward Island, Canada",
        "iso2": "CA",
        "lat": 46.1669399,
        "lon": -62.64591000000001
      }
    },
    {
      "name": "AKADEMIA GÓRNICZO-HUTNICZA IM.STANISŁAWA STASZICA W KRAKOWIE",
      "exhibitorUrl": "https://www.targikielce.pl/en/mspo/list-of-exhibitors/akademia-gorniczo-hutnicza-imstanislawa-staszica-w-krakowie,3810323",
      "address": {
        "text": "Aleja Adama Mickiewicza 30, 30-059 Kraków, Poland",
        "iso2": "PL",
        "lat": 50.06487800000001,
        "lon": 19.9234119
      }
    },
    {
      "name": "ALLISON TRANSMISSION B. V.",
      "exhibitorUrl": "https://www.targikielce.pl/en/mspo/list-of-exhibitors/allison-transmission-b-v,3811586",
      "address": {
        "text": "Baanhoek 188, 3361GN Sliedrecht, Netherlands",
        "iso2": "NL",
        "lat": 51.82468799999999,
        "lon": 4.732161
      }
    },
    {
      "name": "ALTAIR TECHNOLOGIES LLC",
      "exhibitorUrl": "https://www.targikielce.pl/en/mspo/list-of-exhibitors/altair-technologies-llc,3818899",
      "address": {
        "text": "7 Khreshchatyk Street, 01001 Kyiv, Ukraine",
        "iso2": "UA",
        "lat": 50.4501524,
        "lon": 30.5258197
      },
      "website": "altairtech.com.ua"
    },
    {
      "name": "ALTARIA SOLUTIONS Sp. z o.o.",
      "exhibitorUrl": "https://www.targikielce.pl/en/mspo/list-of-exhibitors/altaria-solutions-sp-z-oo,3811358",
      "address": {
        "text": "AL. JEROZOLIMSKIE 56 C, 00-803 WARSZAWA, Poland",
        "iso2": "PL",
        "lat": 52.2263487,
        "lon": 20.9964822
      },
      "website": "www.altaria.pl"
    },
    {
      "name": "AMBASADA REPUBLIKI SŁOWACKIEJ W WARSZAWIE",
      "exhibitorUrl": "https://www.targikielce.pl/en/mspo/list-of-exhibitors/ambasada-republiki-slowackiej-w-warszawie,3811796",
      "address": {
        "text": "ul. Litewska 6, 00-581 Warszawa, Poland",
        "iso2": "PL",
        "lat": 52.2168866,
        "lon": 21.0221998
      },
      "website": "mzv.sk/varsava-en"
    },
    {
      "name": "AMERICAN TOOLING GROUP Sp. z o.o.",
      "exhibitorUrl": "https://www.targikielce.pl/en/mspo/list-of-exhibitors/american-tooling-group-sp-z-oo,3811967",
      "address": {
        "text": "Łąka 260P, 36-004 ŁĄKA, Poland",
        "iso2": "PL",
        "lat": 50.0862287,
        "lon": 22.1232655
      }
    },
    {
      "name": "AMG INDUSTRIEVERSORGUNG und AUTOMATIK - Zaopatrzenie Przemysłu i Automatyka Andrzej Gałdyn",
      "exhibitorUrl": "https://www.targikielce.pl/en/mspo/list-of-exhibitors/amg-industrieversorgung-und-automatik-zaopatrzenie-przemyslu-i-automatyka-andrzej-galdyn,3811232",
      "address": {
        "text": "ul. Legionów 47c, 82-300 Elbląg, Poland",
        "iso2": "PL",
        "lat": 54.18147,
        "lon": 19.42139
      },
      "website": "amgautomatyka.pl"
    },
    {
      "name": "AMZ-KUTNO S.A.",
      "exhibitorUrl": "https://www.targikielce.pl/en/mspo/list-of-exhibitors/amz-kutno-sa,3810539",
      "address": {
        "text": "ul. Sklęczkowska 18, 99-300 Kutno, Poland",
        "iso2": "PL",
        "lat": 52.22105870000001,
        "lon": 19.4016292
      },
      "website": "www.amz.pl"
    },
    {
      "name": "AP LUX S.A.",
      "exhibitorUrl": "https://www.targikielce.pl/en/mspo/list-of-exhibitors/ap-lux-sa,3813053",
      "address": {
        "text": "6, rue Heine, L- 1720 Luxembourg, Luxembourg",
        "iso2": "LU",
        "lat": 49.6050946,
        "lon": 6.1305176
      },
      "website": "www.ap-lux.com"
    },
    {
      "name": "AP-FLYER Sp. z o.o.",
      "exhibitorUrl": "https://www.targikielce.pl/en/mspo/list-of-exhibitors/ap-flyer-sp-z-oo,3810623",
      "address": {
        "text": "ul. Żegańska 2d, 04-713 Warszawa, Poland",
        "iso2": "PL",
        "lat": 52.205097,
        "lon": 21.1696867
      },
      "website": "www.ap-flyer.pl"
    },
    {
      "name": "APEM GmbH",
      "exhibitorUrl": "https://www.targikielce.pl/en/mspo/list-of-exhibitors/apem-gmbh,3811610",
      "address": {
        "text": "Feringastrasse 12B, 85774 Unterföhring, Germany",
        "iso2": "DE",
        "lat": 48.1777459,
        "lon": 11.6345635
      },
      "website": "www.apem.com"
    },
    {
      "name": "APEXO INC.",
      "exhibitorUrl": "https://www.targikielce.pl/en/mspo/list-of-exhibitors/apexo-inc,3836993",
      "address": {
        "text": "58 rue Cherrier, suite E, J6A 3Z3 Repentigny, Quebec, Canada",
        "iso2": "CA",
        "lat": 45.7312573,
        "lon": -73.46125649999999
      }
    },
    {
      "name": "API SMART SPÓŁKA Z OGRANICZONĄ ODPOWIEDZIALNOŚCIĄ",
      "exhibitorUrl": "https://www.targikielce.pl/en/mspo/list-of-exhibitors/api-smart-spolka-z-ograniczona-odpowiedzialnoscia,3819212",
      "address": {
        "text": "ZAWIŁA 65L, 30-390 KRAKÓW, Poland",
        "iso2": "PL",
        "lat": 50.0092955,
        "lon": 19.898079
      },
      "website": "www.apismart.pl"
    },
    {
      "name": "AQ Wiring Systems STG Sp. z o.o.",
      "exhibitorUrl": "https://www.targikielce.pl/en/mspo/list-of-exhibitors/aq-wiring-systems-stg-sp-z-oo,3811478",
      "address": {
        "text": "ul. Biznes Park 5, Linowiec, 83-200 Starogard Gdański, Poland",
        "iso2": "PL",
        "lat": 53.9995938,
        "lon": 18.4926629
      },
      "website": "aqwiring.pl"
    },
    {
      "name": "ARKOM JAROSŁAW SOTOMSKI",
      "exhibitorUrl": "https://www.targikielce.pl/en/mspo/list-of-exhibitors/arkom-jaroslaw-sotomski,3810311",
      "address": {
        "text": "ul. Mokra 30, Henryków-Urocze, 05-504 ZŁOTOKŁOS, Poland",
        "iso2": "PL",
        "lat": 51.9899506,
        "lon": 20.918401
      },
      "website": "www.arkom.com.pl"
    },
    {
      "name": "ARMIT SPÓŁKA Z OGRANICZONĄ ODPOWIEDZIALNOŚCIĄ",
      "exhibitorUrl": "https://www.targikielce.pl/en/mspo/list-of-exhibitors/armit-spolka-z-ograniczona-odpowiedzialnoscia,3811472",
      "address": {
        "text": "Aleja Krakowska 110/114, 02-256 Warszawa, Poland",
        "iso2": "PL",
        "lat": 52.1772771,
        "lon": 20.945913
      }
    },
    {
      "name": "ARMOR GLOBAL LOGISTICS SPÓŁKA Z OGRANICZONĄ ODPOWIEDZIALNOŚCIĄ",
      "exhibitorUrl": "https://www.targikielce.pl/en/mspo/list-of-exhibitors/armor-global-logistics-spolka-z-ograniczona-odpowiedzialnoscia,3811979",
      "address": {
        "text": "ul. Wojewody Wachowiaka 9B/2, 81-418 Gdynia, Poland",
        "iso2": "PL",
        "lat": 54.5011764,
        "lon": 18.5381471
      },
      "website": "armorlogistics.pl"
    },
    {
      "name": "ARQUIMEA",
      "exhibitorUrl": "https://www.targikielce.pl/en/mspo/list-of-exhibitors/arquimea,3817402",
      "address": {
        "text": "Avenida Premios Nobel, 51, 28850 Torrejón de Ardoz, Madrid, Spain",
        "iso2": "ES",
        "lat": 40.4723666,
        "lon": -3.4314177
      },
      "website": "www.arquimea.com"
    },
    {
      "name": "ARX Robotics",
      "exhibitorUrl": "https://www.targikielce.pl/en/mspo/list-of-exhibitors/arx-robotics,3813161",
      "address": {
        "text": "Möslstraße 19B, 85445 Oberding, Germany",
        "iso2": "DE",
        "lat": 48.3364784,
        "lon": 11.83623
      }
    },
    {
      "name": "ASELSAN ELEKTRONIK SANAYI VE TICARET A.S.",
      "exhibitorUrl": "https://www.targikielce.pl/en/mspo/list-of-exhibitors/aselsan-elektronik-sanayi-ve-ticaret-as,3810971",
      "address": {
        "text": "ISTIKLAL MARSI CAD., 06200 ANKARA, Turkey",
        "iso2": "TR",
        "lat": 39.9683957,
        "lon": 32.7642727
      },
      "website": "aselsan.com.tr"
    },
    {
      "name": "ASTAT Sp. z o.o.",
      "exhibitorUrl": "https://www.targikielce.pl/en/mspo/list-of-exhibitors/astat-sp-z-oo,3810671",
      "address": {
        "text": "ul. Dąbrowskiego 441, 60-451 POZNAŃ, Poland",
        "iso2": "PL",
        "lat": 52.432481,
        "lon": 16.827029
      },
      "website": "www.astat.pl"
    },
    {
      "name": "ASTE SPÓŁKA Z OGRANICZONĄ ODPOWIEDZIALNOŚCIĄ",
      "exhibitorUrl": "https://www.targikielce.pl/en/mspo/list-of-exhibitors/aste-spolka-z-ograniczona-odpowiedzialnoscia,3811424",
      "address": {
        "text": "ul. Magnacka 25, Kowale, 80-180 Gdańsk, Poland",
        "iso2": "PL",
        "lat": 54.3123196,
        "lon": 18.5444025
      },
      "website": "www.aste.pl"
    },
    {
      "name": "ASTRA CONCEPT SPÓŁKA Z OGRANICZONĄ ODPOWIEDZIALNOŚCIĄ",
      "exhibitorUrl": "https://www.targikielce.pl/en/mspo/list-of-exhibitors/astra-concept-spolka-z-ograniczona-odpowiedzialnoscia,3810677",
      "address": {
        "text": "ul. Przy Agorze 28/10, 01-930 Warszawa, Poland",
        "iso2": "PL",
        "lat": 52.2892956,
        "lon": 20.9341756
      },
      "website": "www.astraltd.pl"
    },
    {
      "name": "ATDI Spółka z o.o.",
      "exhibitorUrl": "https://www.targikielce.pl/en/mspo/list-of-exhibitors/atdi-spolka-z-oo,3810695",
      "address": {
        "text": "ul. Nowy Świat 54/56, 00-363 Warszawa, Poland",
        "iso2": "PL",
        "lat": 52.2351752,
        "lon": 21.01873
      },
      "website": "www.atdi.com"
    },
    {
      "name": "ATZT TransService LLC",
      "exhibitorUrl": "https://www.targikielce.pl/en/mspo/list-of-exhibitors/atzt-transservice-llc,3812957",
      "address": {
        "text": "St. Stepan Rudnytskyi, 4, 03195 Kyiv, Ukraine",
        "iso2": "UA",
        "lat": 50.4503596,
        "lon": 30.5245025
      },
      "website": "www.trans-service.com.ua/en"
    },
    {
      "name": "AUTERION",
      "exhibitorUrl": "https://www.targikielce.pl/en/mspo/list-of-exhibitors/auterion,3818627",
      "address": {
        "text": "4250 Fairfax Drive, Suite 350, 22203 Arlington, Virginia (VA), United States",
        "iso2": "US",
        "lat": 38.8817458,
        "lon": -77.1122196
      },
      "website": "www.auterion.com"
    },
    {
      "name": "AUTO PODLASIE SPÓŁKA Z OGRANICZONĄ ODPOWIEDZIALNOŚCIĄ",
      "exhibitorUrl": "https://www.targikielce.pl/en/mspo/list-of-exhibitors/auto-podlasie-spolka-z-ograniczona-odpowiedzialnoscia,3836621",
      "address": {
        "text": "ul. Terespolska 14, 08-110 Siedlce, Poland",
        "iso2": "PL",
        "lat": 52.1493,
        "lon": 22.3114879
      },
      "website": "www.autopodlasie.com.pl"
    },
    {
      "name": "AUTOBAST SPÓŁKA Z OGRANICZONĄ ODPOWIEDZIALNOŚCIĄ",
      "exhibitorUrl": "https://www.targikielce.pl/en/mspo/list-of-exhibitors/autobast-spolka-z-ograniczona-odpowiedzialnoscia,3812504",
      "address": {
        "text": "ul. Wolności 69A, 34-220 Maków Podhalański, Poland",
        "iso2": "PL",
        "lat": 49.7307669,
        "lon": 19.6644302
      },
      "website": "auto-bast.com"
    },
    {
      "name": "AUTOGYRO POLAND SPÓŁKA Z OGRANICZONĄ ODPOWIEDZIALNOŚCIĄ",
      "exhibitorUrl": "https://www.targikielce.pl/en/mspo/list-of-exhibitors/autogyro-poland-spolka-z-ograniczona-odpowiedzialnoscia,3812684",
      "address": {
        "text": "ul. Elżbiety Drużbackiej 92, 30-699 Kraków, Poland",
        "iso2": "PL",
        "lat": 49.9742317,
        "lon": 19.9827131
      },
      "website": "www.autogyropoland.com"
    },
    {
      "name": "AVIATION TECHNIK SPÓŁKA Z OGRANICZONĄ ODPOWIEDZIAL NOŚCIĄ",
      "exhibitorUrl": "https://www.targikielce.pl/en/mspo/list-of-exhibitors/aviation-technik-spolka-z-ograniczona-odpowiedzial-noscia,3812597",
      "address": {
        "text": "ul. Wojska Polskiego 65/34, 85-825 Bydgoszcz, Poland",
        "iso2": "PL",
        "lat": 53.1075293,
        "lon": 18.0443964
      },
      "website": "www.aviationtechnik.pl"
    },
    {
      "name": "AWARES Sp. z o.o.",
      "exhibitorUrl": "https://www.targikielce.pl/en/mspo/list-of-exhibitors/awares-sp-z-oo,3810611",
      "address": {
        "text": "ul. Ryżowa 49, 02-495 Warszawa, Poland",
        "iso2": "PL",
        "lat": 52.1854249,
        "lon": 20.9053679
      }
    },
    {
      "name": "AXON' CABLE SA",
      "exhibitorUrl": "https://www.targikielce.pl/en/mspo/list-of-exhibitors/axon-cable-sa,3812057",
      "address": {
        "text": "Visku lela 21 C, LV-5410 Dauvapils, Latvia",
        "iso2": "LV",
        "lat": 55.9022338,
        "lon": 26.5607827
      }
    },
    {
      "name": "AXTER AEROSPACE",
      "exhibitorUrl": "https://www.targikielce.pl/en/mspo/list-of-exhibitors/axter-aerospace,3813497",
      "address": {
        "text": "Emilio Alzamora 29, 28914 Leganés, Madrid, Spain",
        "iso2": "ES",
        "lat": 40.3114849,
        "lon": -3.7702353
      },
      "website": "www.axteraerospace.com"
    },
    {
      "name": "Aaronia AG",
      "exhibitorUrl": "https://www.targikielce.pl/en/mspo/list-of-exhibitors/aaronia-ag,3812777",
      "address": {
        "text": "Aaroniaweg 1, 54597 Strickscheid, Germany",
        "iso2": "DE",
        "lat": 50.1422374,
        "lon": 6.3083695
      }
    },
    {
      "name": "AccuBeat Ltd.",
      "exhibitorUrl": "https://www.targikielce.pl/en/mspo/list-of-exhibitors/accubeat-ltd,3816412",
      "address": {
        "text": "5, Ha'Marpeh Str., 9777405 Jerusalem, Israel",
        "iso2": "IL",
        "lat": 31.8018265,
        "lon": 35.2112856
      },
      "website": "www.accubeat.com"
    },
    {
      "name": "Adaptive Marine Solutions Inc.",
      "exhibitorUrl": "https://www.targikielce.pl/en/mspo/list-of-exhibitors/adaptive-marine-solutions-inc,3837104",
      "address": {
        "text": "Suite 302, 4017 Carling Avenue, K2K 2A3 Ottawa, Ontario, Canada",
        "iso2": "CA",
        "lat": 45.33909509999999,
        "lon": -75.9002276
      },
      "website": "www.ams-ink.ca"
    },
    {
      "name": "Advanced Protection Systems S.A.",
      "exhibitorUrl": "https://www.targikielce.pl/en/mspo/list-of-exhibitors/advanced-protection-systems-sa,3811049",
      "address": {
        "text": "Plac Kaszubski 8/311, 81-350 Gdynia, Poland",
        "iso2": "PL",
        "lat": 54.5227902,
        "lon": 18.5425253
      },
      "website": "apsystems.tech"
    },
    {
      "name": "Advantage St. John's Inc.",
      "exhibitorUrl": "https://www.targikielce.pl/en/mspo/list-of-exhibitors/advantage-st-johns-inc,3837110",
      "address": {
        "text": "100 New Gower Street, Newfoundland and Labrador, A1C6K3 St. John's, Canada",
        "iso2": "CA",
        "lat": 47.5590124,
        "lon": -52.7134879
      }
    },
    {
      "name": "Advantech Europe B.V.",
      "exhibitorUrl": "https://www.targikielce.pl/en/mspo/list-of-exhibitors/advantech-europe-bv,3812153",
      "address": {
        "text": "Science Park Eindhoven, 5692 ER Son en Breugel, Netherlands",
        "iso2": "NL",
        "lat": 51.4996785,
        "lon": 5.4541122
      },
      "website": "campaign.advantech.online/en/ruggedcomputing"
    },
    {
      "name": "Adventure Tactical",
      "exhibitorUrl": "https://www.targikielce.pl/en/mspo/list-of-exhibitors/adventure-tactical,3836945",
      "address": {
        "text": "444 Beaconsfield Blvd, suite 201, H9W 4C1 Beaconsfield, Quebec, Canada",
        "iso2": "CA",
        "lat": 45.4196167,
        "lon": -73.8796107
      }
    },
    {
      "name": "Agencja Uzbrojenia",
      "exhibitorUrl": "https://www.targikielce.pl/en/mspo/list-of-exhibitors/agencja-uzbrojenia,3837170",
      "address": {
        "text": "ul. Królewska 1/7, 00-909 Warszawa, Poland",
        "iso2": "PL",
        "lat": 52.2404603,
        "lon": 21.0142624
      }
    },
    {
      "name": "Airbility Inc",
      "exhibitorUrl": "https://www.targikielce.pl/en/mspo/list-of-exhibitors/airbility-inc,3813296",
      "address": {
        "text": "210-1, 303, Pungse-ro, Pungse-myeon, Dongnam-gu, 31214 Cheonan, South Korea",
        "iso2": "KR",
        "lat": 36.741226,
        "lon": 127.1182028
      }
    },
    {
      "name": "Airbus SAS",
      "exhibitorUrl": "https://www.targikielce.pl/en/mspo/list-of-exhibitors/airbus-sas,3811139",
      "address": {
        "text": "2 rond-point Emile Dewoitine, 31700 Blagnac, France",
        "iso2": "FR",
        "lat": 43.6248823,
        "lon": 1.3838477
      },
      "website": "www.airbus.com"
    },
    {
      "name": "Alchemy",
      "exhibitorUrl": "https://www.targikielce.pl/en/mspo/list-of-exhibitors/alchemy,3836996",
      "address": {
        "text": "265 Breithaupt St Unit 5, N2H 5H3 Kitchener, Ontario, Canada",
        "iso2": "CA",
        "lat": 43.4578721,
        "lon": -80.48809349999999
      }
    },
    {
      "name": "Alex Sp. z o.o.",
      "exhibitorUrl": "https://www.targikielce.pl/en/mspo/list-of-exhibitors/alex-sp-z-oo,3810515",
      "address": {
        "text": "ul. Przędzalniana 8B, 15-688 Białystok, Poland",
        "iso2": "PL",
        "lat": 53.15845299999999,
        "lon": 23.080404
      }
    },
    {
      "name": "Allen-Vanguard Corporation",
      "exhibitorUrl": "https://www.targikielce.pl/en/mspo/list-of-exhibitors/allen-vanguard-corporation,3836975",
      "address": {
        "text": "2405 ST. LAURENT BLVD, SUITE K, K1G 5B4 Ottawa, Ontario, Canada",
        "iso2": "CA",
        "lat": 45.3817939,
        "lon": -75.6242273
      }
    },
    {
      "name": "Amphenol",
      "exhibitorUrl": "https://www.targikielce.pl/en/mspo/list-of-exhibitors/amphenol,3812087",
      "address": {
        "text": "2 rue Clément ADER, 08110 Carignan, France",
        "iso2": "FR",
        "lat": 49.64729,
        "lon": 5.152267999999999
      },
      "website": "amphenolamao.com"
    },
    {
      "name": "Anduril Industries",
      "exhibitorUrl": "https://www.targikielce.pl/en/mspo/list-of-exhibitors/anduril-industries,3812918",
      "address": {
        "text": "1400 Anduril, 92626 Costa Mesa, United States",
        "iso2": "US",
        "lat": 33.6938715,
        "lon": -117.9169715
      },
      "website": "www.anduril.com"
    },
    {
      "name": "Armament Technology Inc.",
      "exhibitorUrl": "https://www.targikielce.pl/en/mspo/list-of-exhibitors/armament-technology-inc,3836951",
      "address": {
        "text": "60 Otter Lake Court, B3S1L9 Halifax, Nova Scotia, Canada",
        "iso2": "CA",
        "lat": 44.6475145,
        "lon": -63.6696063
      }
    },
    {
      "name": "Association of British Columbia Defence and Marine Industries (ABCDMI)",
      "exhibitorUrl": "https://www.targikielce.pl/en/mspo/list-of-exhibitors/association-of-british-columbia-defence-and-marine-industries-abcdmi,3837053",
      "address": {
        "text": "201-2527 Beacon Avenue, V8L 1Y1 Sidney, British Columbia, Canada",
        "iso2": "CA",
        "lat": 48.6488779,
        "lon": -123.3957557
      }
    },
    {
      "name": "Astute Electronics Ltd",
      "exhibitorUrl": "https://www.targikielce.pl/en/mspo/list-of-exhibitors/astute-electronics-ltd,3811922",
      "address": {
        "text": "Astute House, Rutherford Close, Stevenage, SG1 2EF, Hertfordshire,, United Kingdom",
        "iso2": "GB",
        "lat": 51.9071451,
        "lon": -0.2223527
      },
      "website": "www.astutegroup.com"
    },
    {
      "name": "Autonomous Guard",
      "exhibitorUrl": "https://www.targikielce.pl/en/mspo/list-of-exhibitors/autonomous-guard,3812993",
      "address": {
        "text": "Ha' Tahana 1, 4453001 KFAR SABA, Israel",
        "iso2": "IL",
        "lat": 32.1737171,
        "lon": 34.8911936
      }
    },
    {
      "name": "AviaNera Technologies, a.s",
      "exhibitorUrl": "https://www.targikielce.pl/en/mspo/list-of-exhibitors/avianera-technologies-as,3835940",
      "address": {
        "text": "U Rustonky 714/1, 186 00 Praha 8, Czechia",
        "iso2": "CZ",
        "lat": 50.1002642,
        "lon": 14.4675546
      },
      "website": "avianeratech.com"
    },
    {
      "name": "Aviation Specialties Unlimited",
      "exhibitorUrl": "https://www.targikielce.pl/en/mspo/list-of-exhibitors/aviation-specialties-unlimited,3818579",
      "address": {
        "text": "4632 West aeronca Street, 83705 Boise, United States",
        "iso2": "US",
        "lat": 43.5633457,
        "lon": -116.238917
      }
    },
    {
      "name": "Aviato Sp. z o.o.",
      "exhibitorUrl": "https://www.targikielce.pl/en/mspo/list-of-exhibitors/aviato-sp-z-oo,3812963",
      "address": {
        "text": "Zakrzowska 21 A, 51-672 Wrocław, Poland",
        "iso2": "PL",
        "lat": 51.1510626,
        "lon": 17.1172699
      }
    },
    {
      "name": "B3D S.C.",
      "exhibitorUrl": "https://www.targikielce.pl/en/mspo/list-of-exhibitors/b3d-sc,3810809",
      "address": {
        "text": "ul. Wspólna 28, 62-110 DAMASŁAWEK, Poland",
        "iso2": "PL",
        "lat": 52.8470392,
        "lon": 17.5002844
      },
      "website": "b3d.com.pl"
    },
    {
      "name": "BAE Systems PLC",
      "exhibitorUrl": "https://www.targikielce.pl/en/mspo/list-of-exhibitors/bae-systems-plc,3818618",
      "address": {
        "text": "Victory Point, GU16 7EX Frimley, United Kingdom",
        "iso2": "GB",
        "lat": 51.31540810000001,
        "lon": -0.7457699999999999
      }
    },
    {
      "name": "BAGAR S.PIASECKI SPÓŁKA JAWNA",
      "exhibitorUrl": "https://www.targikielce.pl/en/mspo/list-of-exhibitors/bagar-spiasecki-spolka-jawna,3810665",
      "address": {
        "text": "ul. Boczna 11, 55-040 TYNIEC MAŁY, Poland",
        "iso2": "PL",
        "lat": 51.01703790000001,
        "lon": 16.9215873
      }
    },
    {
      "name": "BALS - POLSKA ELEKTROTECHNIKA SPÓŁKA Z OGRANICZONĄ ODPOWIEDZIALNOŚCIĄ",
      "exhibitorUrl": "https://www.targikielce.pl/en/mspo/list-of-exhibitors/bals-polska-elektrotechnika-spolka-z-ograniczona-odpowiedzialnoscia,3811328",
      "address": {
        "text": "ul. Łubniańska 4a, Brynica, 46-024 Łubniany, Poland",
        "iso2": "PL",
        "lat": 50.799425,
        "lon": 17.942125
      },
      "website": "www.bals.pl"
    },
    {
      "name": "BARTH Präzisionstechnik GmbH",
      "exhibitorUrl": "https://www.targikielce.pl/en/mspo/list-of-exhibitors/barth-prazisionstechnik-gmbh,3813011",
      "address": {
        "text": "Austrasse 25, 88521 Ertingen-Binzwangen, Germany",
        "iso2": "DE",
        "lat": 48.1099149,
        "lon": 9.425592199999999
      },
      "website": "www.barth-praezisionstechnik.de"
    },
    {
      "name": "BAVARIAN PAVILION",
      "exhibitorUrl": "https://www.targikielce.pl/en/mspo/list-of-exhibitors/bavarian-pavilion,3812945",
      "address": {
        "text": "Rosenheimer Strasse 143c, 81671 München, Germany",
        "iso2": "DE",
        "lat": 48.1235385,
        "lon": 11.6035801
      },
      "website": "www.bayern-international.de"
    },
    {
      "name": "BEC Defense",
      "exhibitorUrl": "https://www.targikielce.pl/en/mspo/list-of-exhibitors/bec-defense,3818621",
      "address": {
        "text": "2384 State Highway 2547, 42071 Murray, United States",
        "iso2": "US",
        "lat": 36.5762384,
        "lon": -88.3152813
      }
    },
    {
      "name": "BERLOPAK SPÓŁKA Z OGRANICZONĄ ODPOWIEDZIALNOŚCIĄ",
      "exhibitorUrl": "https://www.targikielce.pl/en/mspo/list-of-exhibitors/berlopak-spolka-z-ograniczona-odpowiedzialnoscia,3811628",
      "address": {
        "text": "Aleja gen. A. Chruściela \"Montera\" 39A/6, 04-454 Warszawa, Poland",
        "iso2": "PL",
        "lat": 52.2600086,
        "lon": 21.1621839
      },
      "website": "www.berlopak.pl"
    },
    {
      "name": "BIRD Aerosystems",
      "exhibitorUrl": "https://www.targikielce.pl/en/mspo/list-of-exhibitors/bird-aerosystems,3812267",
      "address": {
        "text": "10 Hasadnaot Street P.O. Box 4038, 4614001 Herzliya, Israel",
        "iso2": "IL",
        "lat": 32.1609354,
        "lon": 34.8063115
      },
      "website": "www.birdaero.com"
    },
    {
      "name": "BIURO HANDLOWE RUDA SPÓŁKA Z OGRANICZONĄ ODPOWIEDZIALNOŚCIĄ SPÓŁKA KOMANDYTOWA",
      "exhibitorUrl": "https://www.targikielce.pl/en/mspo/list-of-exhibitors/biuro-handlowe-ruda-spolka-z-ograniczona-odpowiedzialnoscia-spolka-komandytowa,3810659",
      "address": {
        "text": "ul. Emila Zegadłowicza 10, 40-555 Katowice, Poland",
        "iso2": "PL",
        "lat": 50.2332034,
        "lon": 18.9927461
      }
    },
    {
      "name": "BKT ELEKTRONIK SPÓŁKA Z OGRANICZONĄ ODPOWIEDZIALNOŚCIĄ",
      "exhibitorUrl": "https://www.targikielce.pl/en/mspo/list-of-exhibitors/bkt-elektronik-spolka-z-ograniczona-odpowiedzialnoscia,3811109",
      "address": {
        "text": "ul. Wiejska 6, Lisi Ogon, 86-065 Łochowo, Poland",
        "iso2": "PL",
        "lat": 53.1232386,
        "lon": 17.8684484
      }
    },
    {
      "name": "BMF BOGUSŁAW FOSZMANOWICZ",
      "exhibitorUrl": "https://www.targikielce.pl/en/mspo/list-of-exhibitors/bmf-boguslaw-foszmanowicz,3811286",
      "address": {
        "text": "ul. Szkolna 7, Wierzchowisko, 42-233 MYKANÓW, Poland",
        "iso2": "PL",
        "lat": 50.8638777,
        "lon": 19.1373269
      },
      "website": "www.bmf.pl"
    },
    {
      "name": "BORIMEX SPÓŁKA Z OGRANICZONĄ ODPOWIEDZIALNOŚCIĄ",
      "exhibitorUrl": "https://www.targikielce.pl/en/mspo/list-of-exhibitors/borimex-spolka-z-ograniczona-odpowiedzialnoscia,3811634",
      "address": {
        "text": "Borowa 110A, 39-305 Borowa, Poland",
        "iso2": "PL",
        "lat": 50.4018209,
        "lon": 21.3482559
      },
      "website": "gomander.com"
    },
    {
      "name": "BROKELMANN SPÓŁKA Z OGRANICZONĄ ODPOWIEDZIALNOŚCIĄ",
      "exhibitorUrl": "https://www.targikielce.pl/en/mspo/list-of-exhibitors/brokelmann-spolka-z-ograniczona-odpowiedzialnoscia,3827521",
      "address": {
        "text": "STAWNA 6, 56-300 MILICZ, Poland",
        "iso2": "PL",
        "lat": 51.5218596,
        "lon": 17.2935308
      }
    },
    {
      "name": "BULLETPROVE SPÓŁKA Z OGRANICZONĄ ODPOWIEDZIALNOŚCIĄ",
      "exhibitorUrl": "https://www.targikielce.pl/en/mspo/list-of-exhibitors/bulletprove-spolka-z-ograniczona-odpowiedzialnoscia,3811997",
      "address": {
        "text": "ul. Ignacego Mościckiego 1, 24-110 Puławy, Poland",
        "iso2": "PL",
        "lat": 51.4455519,
        "lon": 21.9696013
      },
      "website": "bulletprove.pl"
    },
    {
      "name": "Babcock Corporate Services Limited",
      "exhibitorUrl": "https://www.targikielce.pl/en/mspo/list-of-exhibitors/babcock-corporate-services-limited,3813143",
      "address": {
        "text": "1000 Lakeside, North Harbour, Western Road Portsmouth, Hampshire PO6 3EN, PO6 3EN Hampshire, United Kingdom",
        "iso2": "GB",
        "lat": 50.8415396,
        "lon": -1.0835932
      }
    },
    {
      "name": "Babcock International",
      "exhibitorUrl": "https://www.targikielce.pl/en/mspo/list-of-exhibitors/babcock-international,3811886",
      "address": {
        "text": "33 Wigmore Street, W1U 1QX London, United Kingdom",
        "iso2": "GB",
        "lat": 51.5163476,
        "lon": -0.1481471
      },
      "website": "www.babcockinternational.com"
    },
    {
      "name": "Bagira systems cz",
      "exhibitorUrl": "https://www.targikielce.pl/en/mspo/list-of-exhibitors/bagira-systems-cz,3813041",
      "address": {
        "text": "Street: Čechyňská 417/9, 602 00 Brno, Czechia",
        "iso2": "CZ",
        "lat": 49.1901764,
        "lon": 16.6213911
      }
    },
    {
      "name": "Base Camp Connect",
      "exhibitorUrl": "https://www.targikielce.pl/en/mspo/list-of-exhibitors/base-camp-connect,3837092",
      "address": {
        "text": "101-2190 3e Rue, G6W 6V4 Lévis, Quebec, Canada",
        "iso2": "CA",
        "lat": 46.749481,
        "lon": -71.2286248
      }
    },
    {
      "name": "Bittium",
      "exhibitorUrl": "https://www.targikielce.pl/en/mspo/list-of-exhibitors/bittium,3818740",
      "address": {
        "text": "Ritaharjuntie 1, 90590 Oulu, Finland",
        "iso2": "FI",
        "lat": 65.060766,
        "lon": 25.4467116
      },
      "website": "www.bittium.com"
    },
    {
      "name": "Biuro Radcy Handlowego Ambasady Szwecji Placówka Dyplomatyczna",
      "exhibitorUrl": "https://www.targikielce.pl/en/mspo/list-of-exhibitors/biuro-radcy-handlowego-ambasady-szwecji-placowka-dyplomatyczna,3810629",
      "address": {
        "text": "ul. Bagatela 3, 00-585 Warszawa, Poland",
        "iso2": "PL",
        "lat": 52.2134825,
        "lon": 21.0253467
      }
    },
    {
      "name": "BlackBerry",
      "exhibitorUrl": "https://www.targikielce.pl/en/mspo/list-of-exhibitors/blackberry,3837122",
      "address": {
        "text": "2200 University Avenue East, N2K 0A7 Waterloo, Ontario, Canada",
        "iso2": "CA",
        "lat": 43.5172397,
        "lon": -80.51372339999999
      }
    },
    {
      "name": "Blighter Surveillance Systems",
      "exhibitorUrl": "https://www.targikielce.pl/en/mspo/list-of-exhibitors/blighter-surveillance-systems,3818029",
      "address": {
        "text": "Iceni House, CB10 1NY Great Chesterford, United Kingdom",
        "iso2": "GB",
        "lat": 52.062073,
        "lon": 0.1907933
      }
    },
    {
      "name": "Blighter Surveillance Systems Ltd",
      "exhibitorUrl": "https://www.targikielce.pl/en/mspo/list-of-exhibitors/blighter-surveillance-systems-ltd,3812480",
      "address": {
        "text": "Iceni House, London Road, Great Chesterford, CB10 1NY Saffron Walden, United Kingdom",
        "iso2": "GB",
        "lat": 52.062073,
        "lon": 0.1907933
      },
      "website": "www.blighter.com"
    },
    {
      "name": "Blitzfall s.r.o.",
      "exhibitorUrl": "https://www.targikielce.pl/en/mspo/list-of-exhibitors/blitzfall-sro,3813302",
      "address": {
        "text": "Encovany 106, 737 01 Polepy, Czechia",
        "iso2": "CZ",
        "lat": 50.5087944,
        "lon": 14.2700774
      }
    },
    {
      "name": "Boeing",
      "exhibitorUrl": "https://www.targikielce.pl/en/mspo/list-of-exhibitors/boeing,3811790",
      "address": {
        "text": "929 Long Bridge Drive, 22202 Arlington, VA, United States",
        "iso2": "US",
        "lat": 38.8642623,
        "lon": -77.05006
      },
      "website": "www.Boeing.com"
    },
    {
      "name": "Bombardier Defense",
      "exhibitorUrl": "https://www.targikielce.pl/en/mspo/list-of-exhibitors/bombardier-defense,3818630",
      "address": {
        "text": "400 Cote Vertu West, H4S1Y9 Droval, Quebec (QC), Canada",
        "iso2": "CA",
        "lat": 45.4760476,
        "lon": -73.7289986
      }
    },
    {
      "name": "Bruhn Newtech A/S",
      "exhibitorUrl": "https://www.targikielce.pl/en/mspo/list-of-exhibitors/bruhn-newtech-as,3818231",
      "address": {
        "text": "Kongens Nytorv 17, 1050 København K, Denmark",
        "iso2": "DK",
        "lat": 55.679581,
        "lon": 12.584783
      },
      "website": "bruhn-newtech.com"
    },
    {
      "name": "Bspl 1 Sp. z o.o.",
      "exhibitorUrl": "https://www.targikielce.pl/en/mspo/list-of-exhibitors/bspl-1-sp-z-oo,3812351",
      "address": {
        "text": "ul. rtm. Witolda Pileckiego 8, 32-050 Skawina, Poland",
        "iso2": "PL",
        "lat": 49.9781822,
        "lon": 19.792483
      },
      "website": "www.bspl.pl"
    },
    {
      "name": "Business Region Gothenburg",
      "exhibitorUrl": "https://www.targikielce.pl/en/mspo/list-of-exhibitors/business-region-gothenburg,3836597",
      "address": {
        "text": "Östra Hamngatan 5, 411 10 Göteborg, Sweden",
        "iso2": "SE",
        "lat": 57.70931819999999,
        "lon": 11.9663289
      }
    },
    {
      "name": "Business Region West",
      "exhibitorUrl": "https://www.targikielce.pl/en/mspo/list-of-exhibitors/business-region-west,3836600",
      "address": {
        "text": "Nohabgatan 14, 461 53 Trollhättan, Sweden",
        "iso2": "SE",
        "lat": 58.2717192,
        "lon": 12.27895
      }
    },
    {
      "name": "Business-Park Göppingen GmbH",
      "exhibitorUrl": "https://www.targikielce.pl/en/mspo/list-of-exhibitors/business-park-goppingen-gmbh,3813434",
      "address": {
        "text": "Manfred-Wörner-Straße 115, 73037 Göppingen, Germany",
        "iso2": "DE",
        "lat": 48.7136332,
        "lon": 9.690754600000002
      },
      "website": "www.businesspark-gp.de"
    },
    {
      "name": "C Tech Bilisim Teknolojileri San. ve Tic. A.S.",
      "exhibitorUrl": "https://www.targikielce.pl/en/mspo/list-of-exhibitors/c-tech-bilisim-teknolojileri-san-ve-tic-as,3812690",
      "address": {
        "text": "teknopark 1/1, 34912 istanbul, Turkey",
        "iso2": "TR",
        "lat": 40.921134,
        "lon": 29.313703
      }
    },
    {
      "name": "C.E. Niehoff & Co.",
      "exhibitorUrl": "https://www.targikielce.pl/en/mspo/list-of-exhibitors/ce-niehoff-co,3818633",
      "address": {
        "text": "2021 Lee St., 60202 Evanston, Illinois (IL), United States",
        "iso2": "US",
        "lat": 42.036249,
        "lon": -87.7020159
      },
      "website": "www.ceniehoff.com"
    },
    {
      "name": "C.E.S. İLERİ KOMPOZİT VE SAV. TEKN. SAN. VE TİC. A.Ş.",
      "exhibitorUrl": "https://www.targikielce.pl/en/mspo/list-of-exhibitors/ces-ileri-kompozit-ve-sav-tekn-san-ve-tic-as,3812753",
      "address": {
        "text": "Malıköy Anadolu OSB 12. Cadde No:20 06909, 06909 Sincan, Turkey",
        "iso2": "TR",
        "lat": 39.81174,
        "lon": 32.3944649
      }
    },
    {
      "name": "CAE",
      "exhibitorUrl": "https://www.targikielce.pl/en/mspo/list-of-exhibitors/cae,3836825",
      "address": {
        "text": "8585 Chem. de la Côte-de-Liesse, H4T 1G6 SAINT-LAURENT, QUEBEC, Canada",
        "iso2": "CA",
        "lat": 45.4790734,
        "lon": -73.7069971
      }
    },
    {
      "name": "CASTELIOR SPÓŁKA Z OGRANICZONĄ ODPOWIEDZIALNOŚCIĄ",
      "exhibitorUrl": "https://www.targikielce.pl/en/mspo/list-of-exhibitors/castelior-spolka-z-ograniczona-odpowiedzialnoscia,3812063",
      "address": {
        "text": "MASZYNOWA 28, 55-330 ŹRÓDŁA, Poland",
        "iso2": "PL",
        "lat": 51.1681508,
        "lon": 16.7290027
      }
    },
    {
      "name": "CEL Aerospace",
      "exhibitorUrl": "https://www.targikielce.pl/en/mspo/list-of-exhibitors/cel-aerospace,3836984",
      "address": {
        "text": "7150 Rue John-Molson, J3Y 1R4 Saint-Hubert, Quebec, Canada",
        "iso2": "CA",
        "lat": 45.5167587,
        "lon": -73.39747559999999
      }
    },
    {
      "name": "CELLCO COMMUNICATIONS SPÓŁKA Z OGRANICZONĄ ODPOWIEDZIALNOŚCIĄ",
      "exhibitorUrl": "https://www.targikielce.pl/en/mspo/list-of-exhibitors/cellco-communications-spolka-z-ograniczona-odpowiedzialnoscia,3811103",
      "address": {
        "text": "ul. Szczecińska 30E, 73-108 Kobylanka, Poland",
        "iso2": "PL",
        "lat": 53.3478681,
        "lon": 14.8514988
      },
      "website": "www.cellco.com.pl"
    },
    {
      "name": "CENTER 3D PRINT SPÓŁKA Z OGRANICZONĄ ODPOWIEDZIALNOŚCIĄ",
      "exhibitorUrl": "https://www.targikielce.pl/en/mspo/list-of-exhibitors/center-3d-print-spolka-z-ograniczona-odpowiedzialnoscia,3811916",
      "address": {
        "text": "KUŹNICY KOŁŁĄTAJOWSKIEJ 13/205, 31-234 KRAKÓW, Poland",
        "iso2": "PL",
        "lat": 50.0981508,
        "lon": 19.9543227
      }
    },
    {
      "name": "CENTRUM PROMOCJI INNOWACJI I ROZWOJU",
      "exhibitorUrl": "https://www.targikielce.pl/en/mspo/list-of-exhibitors/centrum-promocji-innowacji-i-rozwoju,3818882",
      "address": {
        "text": "ul. Żurawia 71/2.04, 15-540 Białystok, Poland",
        "iso2": "PL",
        "lat": 53.1118304,
        "lon": 23.1912529
      },
      "website": "www.evoluma.pl"
    },
    {
      "name": "CENTRUM ŁUKASIEWICZ",
      "exhibitorUrl": "https://www.targikielce.pl/en/mspo/list-of-exhibitors/centrum-lukasiewicz,3818911",
      "address": {
        "text": "ul. Puławska 469, 02-844 Warszawa, Poland",
        "iso2": "PL",
        "lat": 52.1357004,
        "lon": 21.0188387
      },
      "website": "www.lukasiewicz.gov.pl"
    },
    {
      "name": "CEOTRONICS AG",
      "exhibitorUrl": "https://www.targikielce.pl/en/mspo/list-of-exhibitors/ceotronics-ag,3813332",
      "address": {
        "text": "Adam-Opel-Str. 6, 63322 Rödermark, Germany",
        "iso2": "DE",
        "lat": 49.98290069999999,
        "lon": 8.7983528
      },
      "website": "www.ceotronics.com"
    },
    {
      "name": "CERIN S.P.A.",
      "exhibitorUrl": "https://www.targikielce.pl/en/mspo/list-of-exhibitors/cerin-spa,3819103",
      "address": {
        "text": "VIA ENRICO FERMI 15, 37010 AFFI, Italy",
        "iso2": "IT",
        "lat": 45.56429929999999,
        "lon": 10.7666592
      },
      "website": "www.cerin.it"
    },
    {
      "name": "CFE POLSKA SPÓŁKA Z OGRANICZONĄ ODPOWIEDZIALNOŚCIĄ",
      "exhibitorUrl": "https://www.targikielce.pl/en/mspo/list-of-exhibitors/cfe-polska-spolka-z-ograniczona-odpowiedzialnoscia,3812969",
      "address": {
        "text": "ul. Komitetu Obrony Robotników 48, 02-146 Warszawa, Poland",
        "iso2": "PL",
        "lat": 52.1837925,
        "lon": 20.9670096
      },
      "website": "cfe.com.pl/pl"
    },
    {
      "name": "CGP SAS",
      "exhibitorUrl": "https://www.targikielce.pl/en/mspo/list-of-exhibitors/cgp-sas,3812801",
      "address": {
        "text": "62 route du coin, 42400 ST-CHAMOND, France",
        "iso2": "FR",
        "lat": 45.4673784,
        "lon": 4.5318947
      }
    },
    {
      "name": "CLIMATIC SPÓŁKA Z OGRANICZONĄ ODPOWIEDZIALNOŚCIĄ SPÓŁKA KOMANDYTOWA",
      "exhibitorUrl": "https://www.targikielce.pl/en/mspo/list-of-exhibitors/climatic-spolka-z-ograniczona-odpowiedzialnoscia-spolka-komandytowa,3811394",
      "address": {
        "text": "ul. Żytnia 6, Reguły, 05-816 MICHAŁOWICE, Poland",
        "iso2": "PL",
        "lat": 52.180494,
        "lon": 20.8751358
      },
      "website": "climatic.pl"
    },
    {
      "name": "CLOUDFERRO SPÓŁKA AKCYJNA",
      "exhibitorUrl": "https://www.targikielce.pl/en/mspo/list-of-exhibitors/cloudferro-spolka-akcyjna,3811724",
      "address": {
        "text": "ul. Nowogrodzka 31, 00-511 Warszawa, Poland",
        "iso2": "PL",
        "lat": 52.22893,
        "lon": 21.0135239
      }
    },
    {
      "name": "CNIM Systèmes Industriels",
      "exhibitorUrl": "https://www.targikielce.pl/en/mspo/list-of-exhibitors/cnim-systemes-industriels,3811151",
      "address": {
        "text": "Zone Portuaire de Brégaillon CS 60208, 83 507 La Seyne sur Mer, France",
        "iso2": "FR",
        "lat": 43.1094524,
        "lon": 5.8829645
      },
      "website": "www.cnim-systemes-industriels.com"
    },
    {
      "name": "COGNOR SPÓŁKA AKCYJNA Oddział HSJ w Stalowej Woli",
      "exhibitorUrl": "https://www.targikielce.pl/en/mspo/list-of-exhibitors/cognor-spolka-akcyjna-oddzial-hsj-w-stalowej-woli,3811157",
      "address": {
        "text": "ul. Zielona 26, 42-360 Poraj, Poland",
        "iso2": "PL",
        "lat": 50.674135,
        "lon": 19.224712
      },
      "website": "www.hsjsa.pl"
    },
    {
      "name": "COMPANY OF ELECTRONIC TECHNOLOGIES LLC",
      "exhibitorUrl": "https://www.targikielce.pl/en/mspo/list-of-exhibitors/company-of-electronic-technologies-llc,3812213",
      "address": {
        "text": "45-v Olesia Honchara, 01054 Kyiv, Ukraine",
        "iso2": "UA",
        "lat": 50.4500876,
        "lon": 30.5062221
      }
    },
    {
      "name": "CONTINEO POLAND SPÓŁKA Z OGRANICZONĄ ODPOWIEDZIALNOŚCIĄ",
      "exhibitorUrl": "https://www.targikielce.pl/en/mspo/list-of-exhibitors/contineo-poland-spolka-z-ograniczona-odpowiedzialnoscia,3812393",
      "address": {
        "text": "RONDO IGNACEGO DASZYŃSKIEGO 2B/2645, 00-843 WARSZAWA, Poland",
        "iso2": "PL",
        "lat": 52.2301711,
        "lon": 20.9840822
      }
    },
    {
      "name": "CONTRANS TI SPÓŁKA Z OGRANICZONĄ ODPOWIEDZIALNOŚCIĄ",
      "exhibitorUrl": "https://www.targikielce.pl/en/mspo/list-of-exhibitors/contrans-ti-spolka-z-ograniczona-odpowiedzialnoscia,3811310",
      "address": {
        "text": "ul. Kwiatowa 7B, 55-114 Szewce, Poland",
        "iso2": "PL",
        "lat": 51.2096442,
        "lon": 16.9616094
      },
      "website": "WWW.CONTRANS.PL"
    },
    {
      "name": "CREOTECH INSTRUMENTS SPÓŁKA AKCYJNA",
      "exhibitorUrl": "https://www.targikielce.pl/en/mspo/list-of-exhibitors/creotech-instruments-spolka-akcyjna,3811502",
      "address": {
        "text": "ul. Jana Pawła II 66, 05-500 Piaseczno, Poland",
        "iso2": "PL",
        "lat": 52.0749673,
        "lon": 21.0096501
      },
      "website": "www.creotech.pl"
    },
    {
      "name": "CS Composites Solutions AG",
      "exhibitorUrl": "https://www.targikielce.pl/en/mspo/list-of-exhibitors/cs-composites-solutions-ag,3812495",
      "address": {
        "text": "Schwanenfelstrasse 10, 8212 Neuhausen am Rheinfall, Switzerland",
        "iso2": "CH",
        "lat": 47.687848,
        "lon": 8.618978300000002
      }
    },
    {
      "name": "CSGM A.S.",
      "exhibitorUrl": "https://www.targikielce.pl/en/mspo/list-of-exhibitors/csgm-as,3811145",
      "address": {
        "text": "U Rustonky 714/1, Karlin, 186 00 Praha 8, Czechia",
        "iso2": "CZ",
        "lat": 50.1002642,
        "lon": 14.4675546
      },
      "website": "www.czechoslovakgroup.com"
    },
    {
      "name": "CSI SPÓŁKA AKCYJNA",
      "exhibitorUrl": "https://www.targikielce.pl/en/mspo/list-of-exhibitors/csi-spolka-akcyjna,3810647",
      "address": {
        "text": "ul. Sosnowiecka 89, 31-345 Kraków, Poland",
        "iso2": "PL",
        "lat": 50.0932252,
        "lon": 19.8922379
      },
      "website": "csi.pl"
    },
    {
      "name": "CSST Limited",
      "exhibitorUrl": "https://www.targikielce.pl/en/mspo/list-of-exhibitors/csst-limited,3812075",
      "address": {
        "text": "Bramston Road, SW17 0JR Londyn, United Kingdom",
        "iso2": "GB",
        "lat": 51.4348579,
        "lon": -0.1832715
      },
      "website": "www.bez-dymu.pl"
    },
    {
      "name": "Calian Technologies Ltd",
      "exhibitorUrl": "https://www.targikielce.pl/en/mspo/list-of-exhibitors/calian-technologies-ltd,3836978",
      "address": {
        "text": "770 Palladium Dr. 4th floor,, K2V 1C8 Ottawa, Ontario, Canada",
        "iso2": "CA",
        "lat": 45.2983969,
        "lon": -75.9217133
      }
    },
    {
      "name": "CamPro",
      "exhibitorUrl": "https://www.targikielce.pl/en/mspo/list-of-exhibitors/campro,3837047",
      "address": {
        "text": "47 rue de Rotterdam, G3A 1S8 St-Augustin-de-Desmaures, Canada",
        "iso2": "CA",
        "lat": 46.751828,
        "lon": -71.4383529
      }
    },
    {
      "name": "Cambridge Aerospace Limited",
      "exhibitorUrl": "https://www.targikielce.pl/en/mspo/list-of-exhibitors/cambridge-aerospace-limited,3813131",
      "address": {
        "text": "Founders Law, 1 Temple Avenue London EC4Y 0HA, EC4Y 0HA London, United Kingdom",
        "iso2": "GB",
        "lat": 51.5112813,
        "lon": -0.108266
      }
    },
    {
      "name": "Cambridge Aerospace Ltd",
      "exhibitorUrl": "https://www.targikielce.pl/en/mspo/list-of-exhibitors/cambridge-aerospace-ltd,3818035",
      "address": {
        "text": "C/O Founders Law Ltd, Hamilton House, 1 Temple Avenue,, EC4Y 0HA London, United Kingdom",
        "iso2": "GB",
        "lat": 51.5112813,
        "lon": -0.108266
      }
    },
    {
      "name": "Canadian UAVs",
      "exhibitorUrl": "https://www.targikielce.pl/en/mspo/list-of-exhibitors/canadian-uavs,3836909",
      "address": {
        "text": "6732 8th street NE, t2e8m4 Calgary, Alberta, Canada",
        "iso2": "CA",
        "lat": 51.1138199,
        "lon": -114.04442
      }
    },
    {
      "name": "Case-Pack Hanna Rutkowska",
      "exhibitorUrl": "https://www.targikielce.pl/en/mspo/list-of-exhibitors/case-pack-hanna-rutkowska,3810281",
      "address": {
        "text": "UL. WOJSKA POLSKIEGO 75, 62-030 LUBOŃ K/POZNANIA, Poland",
        "iso2": "PL",
        "lat": 52.34223429999999,
        "lon": 16.8581744
      },
      "website": "case-pack.com.pl"
    },
    {
      "name": "Cellula Robotics Limited",
      "exhibitorUrl": "https://www.targikielce.pl/en/mspo/list-of-exhibitors/cellula-robotics-limited,3836906",
      "address": {
        "text": "5140 N Fraser Way, Unit 101, V5J 0J4 Burnaby, British Columbia, Canada",
        "iso2": "CA",
        "lat": 49.1983416,
        "lon": -123.000235
      }
    },
    {
      "name": "Centrum Rozwojowo-Wdrożeniowe TELESYSTEM-MESKO Sp. z o.o.",
      "exhibitorUrl": "https://www.targikielce.pl/en/mspo/list-of-exhibitors/centrum-rozwojowo-wdrozeniowe-telesystem-mesko-sp-z-oo,3810815",
      "address": {
        "text": "ul. Warszawska 51, Lubiczów, 05-082 Stare Babice, Poland",
        "iso2": "PL",
        "lat": 52.2414676,
        "lon": 20.8766402
      },
      "website": "telesystem.eu"
    },
    {
      "name": "Cevians",
      "exhibitorUrl": "https://www.targikielce.pl/en/mspo/list-of-exhibitors/cevians,3836918",
      "address": {
        "text": "2341 boul Alfred-Nobel, H4S 2B8 Montreal, Quebec, Canada",
        "iso2": "CA",
        "lat": 45.4825001,
        "lon": -73.76008999999999
      }
    },
    {
      "name": "Chelton Ltd.",
      "exhibitorUrl": "https://www.targikielce.pl/en/mspo/list-of-exhibitors/chelton-ltd,3812759",
      "address": {
        "text": "The Chelton Centre, Fourth Avenue, SL7 1TF Marlow, United Kingdom",
        "iso2": "GB",
        "lat": 51.5747504,
        "lon": -0.7579745999999999
      }
    },
    {
      "name": "Chess Dynamics",
      "exhibitorUrl": "https://www.targikielce.pl/en/mspo/list-of-exhibitors/chess-dynamics,3818011",
      "address": {
        "text": "Quadrant House, North Heath Lane Industrial Estate, RH12 5QE Horsham, United Kingdom",
        "iso2": "GB",
        "lat": 51.08081989999999,
        "lon": -0.3177876
      },
      "website": "www.chess-dynamics.com"
    },
    {
      "name": "Chess Dynamics Ltd",
      "exhibitorUrl": "https://www.targikielce.pl/en/mspo/list-of-exhibitors/chess-dynamics-ltd,3813083",
      "address": {
        "text": "Quadrant House North East Business Park Horsham RH12 5QE, RH12 5QE Horsham, United Kingdom",
        "iso2": "GB",
        "lat": 51.0808382,
        "lon": -0.3185372
      }
    },
    {
      "name": "China-Hefei Chenhui Defense Technology Co.,Ltd",
      "exhibitorUrl": "https://www.targikielce.pl/en/mspo/list-of-exhibitors/china-hefei-chenhui-defense-technology-coltd,3816473",
      "address": {
        "text": "Room 901,Building K4,Phase 2,Zhong'an Chuanggu Science Park, 23088 Hefei, China",
        "iso2": "CN",
        "lat": 31.83981,
        "lon": 117.21029
      }
    },
    {
      "name": "Clavister AB",
      "exhibitorUrl": "https://www.targikielce.pl/en/mspo/list-of-exhibitors/clavister-ab,3813521",
      "address": {
        "text": "Sjögatan 6 j, 891 60 Örnsköldsvik, Sweden",
        "iso2": "SE",
        "lat": 63.2805248,
        "lon": 18.7372509
      },
      "website": "www.clavister.com"
    },
    {
      "name": "Cobham SATCOM A/S",
      "exhibitorUrl": "https://www.targikielce.pl/en/mspo/list-of-exhibitors/cobham-satcom-as,3818197",
      "address": {
        "text": "Lundtoftevej 160, 2800 Kongens Lyngby, Denmark",
        "iso2": "DK",
        "lat": 55.7937545,
        "lon": 12.52331
      }
    },
    {
      "name": "Colt Canada Corporation",
      "exhibitorUrl": "https://www.targikielce.pl/en/mspo/list-of-exhibitors/colt-canada-corporation,3836966",
      "address": {
        "text": "1036 Wilson Avenue, N2C 1J3 Kitchener, Ontario, Canada",
        "iso2": "CA",
        "lat": 43.4079696,
        "lon": -80.4387962
      }
    },
    {
      "name": "Comazo GmbH & Co KG",
      "exhibitorUrl": "https://www.targikielce.pl/en/mspo/list-of-exhibitors/comazo-gmbh-co-kg,3812726",
      "address": {
        "text": "Martin Luther Str. 1, 72461 Albstadt, Germany",
        "iso2": "DE",
        "lat": 48.253075,
        "lon": 9.0171869
      },
      "website": "protect.comazo.de/en"
    },
    {
      "name": "Commtact Ltd",
      "exhibitorUrl": "https://www.targikielce.pl/en/mspo/list-of-exhibitors/commtact-ltd,3812612",
      "address": {
        "text": "Nahal Snir 10, 8122447 Yavne, Israel",
        "iso2": "IL",
        "lat": 31.9001037,
        "lon": 34.7370239
      },
      "website": "commtact-systems.com"
    },
    {
      "name": "Comrod Communication AS",
      "exhibitorUrl": "https://www.targikielce.pl/en/mspo/list-of-exhibitors/comrod-communication-as,3811019",
      "address": {
        "text": "Fiskaavegen 1, N-4120 Tau, Norway",
        "iso2": "NO",
        "lat": 59.0653454,
        "lon": 5.9239494
      },
      "website": "www.comrod.com"
    },
    {
      "name": "Concept Sp. z o.o.",
      "exhibitorUrl": "https://www.targikielce.pl/en/mspo/list-of-exhibitors/concept-sp-z-oo,3810617",
      "address": {
        "text": "Al.Gen.W.Andersa 593, 43-300 Bielsko-Biała, Poland",
        "iso2": "PL",
        "lat": 49.8225693,
        "lon": 19.0794698
      }
    },
    {
      "name": "Curtiss-Wright Corporation",
      "exhibitorUrl": "https://www.targikielce.pl/en/mspo/list-of-exhibitors/curtiss-wright-corporation,3813587",
      "address": {
        "text": "130 Harbour Place Drive, Suite 300, Davidson, NC 28036 Davidson, NC 28036, United States",
        "iso2": "US",
        "lat": 35.5033108,
        "lon": -80.86317199999999
      },
      "website": "curtisswright.com"
    },
    {
      "name": "D-Fend Solutions",
      "exhibitorUrl": "https://www.targikielce.pl/en/mspo/list-of-exhibitors/d-fend-solutions,3812570",
      "address": {
        "text": "13 Zarchin st., 4th floor, 4366241 Ra'anana, Israel",
        "iso2": "IL",
        "lat": 32.184781,
        "lon": 34.871326
      },
      "website": "d-fendsolutions.com"
    },
    {
      "name": "D-TA Systems Inc.",
      "exhibitorUrl": "https://www.targikielce.pl/en/mspo/list-of-exhibitors/d-ta-systems-inc,3836939",
      "address": {
        "text": "2500 Lancaster Rd, K1B 4S5 Ottawa, Ontario, Canada",
        "iso2": "CA",
        "lat": 45.4016569,
        "lon": -75.61598839999999
      }
    },
    {
      "name": "D.N.I.-PL SPÓŁKA Z OGRANICZONĄ ODPOWIEDZIALNOŚCIĄ",
      "exhibitorUrl": "https://www.targikielce.pl/en/mspo/list-of-exhibitors/dni-pl-spolka-z-ograniczona-odpowiedzialnoscia,3811880",
      "address": {
        "text": "ul. Bratysławska 1A, 31-201 Kraków, Poland",
        "iso2": "PL",
        "lat": 50.0855559,
        "lon": 19.934216
      },
      "website": "www.gnpforgun.com"
    },
    {
      "name": "DACPOL SPÓŁKA Z OGRANICZONĄ ODPOWIEDZIALNOŚCIĄ",
      "exhibitorUrl": "https://www.targikielce.pl/en/mspo/list-of-exhibitors/dacpol-spolka-z-ograniczona-odpowiedzialnoscia,3810395",
      "address": {
        "text": "OKULICKIEGO 5J, 05-500 PIASECZNO, Poland",
        "iso2": "PL",
        "lat": 52.0839537,
        "lon": 21.0295202
      }
    },
    {
      "name": "DASSAULT SYSTEMES SPÓŁKA Z OGRANICZONĄ ODPOWIEDZIALNOŚCIĄ",
      "exhibitorUrl": "https://www.targikielce.pl/en/mspo/list-of-exhibitors/dassault-systemes-spolka-z-ograniczona-odpowiedzialnoscia,3810359",
      "address": {
        "text": "ul. Kapelanka 42, 30-347 Kraków, Poland",
        "iso2": "PL",
        "lat": 50.0354415,
        "lon": 19.9249422
      }
    },
    {
      "name": "DEFENCE-Technology",
      "exhibitorUrl": "https://www.targikielce.pl/en/mspo/list-of-exhibitors/defence-technology,3813458",
      "address": {
        "text": "Nobelstrasse 21, 72108 Rottenburg a.N., Germany",
        "iso2": "DE",
        "lat": 48.4959942,
        "lon": 8.8162594
      }
    },
    {
      "name": "DEFENSES SOLUTION LLC",
      "exhibitorUrl": "https://www.targikielce.pl/en/mspo/list-of-exhibitors/defenses-solution-llc,3818968",
      "address": {
        "text": "str. Solomyanska, 03110 Kyiv, Ukraine",
        "iso2": "UA",
        "lat": 50.4503596,
        "lon": 30.5245025
      }
    },
    {
      "name": "DELTA OPTICAL Sp. z o.o. Sp. k.",
      "exhibitorUrl": "https://www.targikielce.pl/en/mspo/list-of-exhibitors/delta-optical-sp-z-oo-sp-k,3810731",
      "address": {
        "text": "Nowe Osiny, ul. Piękna 1, 05-300 Mińsk Mazowiecki, Poland",
        "iso2": "PL",
        "lat": 52.1798535,
        "lon": 21.6114803
      }
    },
    {
      "name": "DEMARKO S.A.",
      "exhibitorUrl": "https://www.targikielce.pl/en/mspo/list-of-exhibitors/demarko-sa,3811256",
      "address": {
        "text": "Kolonia Zygmunt 31 B, 41-909 Bytom, Poland",
        "iso2": "PL",
        "lat": 50.3220055,
        "lon": 18.9155152
      }
    },
    {
      "name": "DESTINUS",
      "exhibitorUrl": "https://www.targikielce.pl/en/mspo/list-of-exhibitors/destinus,3812936",
      "address": {
        "text": "Haaksbergerstraat 71, 7554 PA HENGELO, Netherlands",
        "iso2": "NL",
        "lat": 52.24879929999999,
        "lon": 6.770321999999999
      },
      "website": "www.destinus.com"
    },
    {
      "name": "DEVIRO",
      "exhibitorUrl": "https://www.targikielce.pl/en/mspo/list-of-exhibitors/deviro,3818680",
      "address": {
        "text": "Symfiropilska Street, 49005 Dnipro, Ukraine",
        "iso2": "UA",
        "lat": 48.464717,
        "lon": 35.046183
      },
      "website": "deviro.ua"
    },
    {
      "name": "DEW Engineering & Development",
      "exhibitorUrl": "https://www.targikielce.pl/en/mspo/list-of-exhibitors/dew-engineering-development,3837086",
      "address": {
        "text": "3249 Hawthorne Road, K1G 4G2 Ottawa, Ontario, Canada",
        "iso2": "CA",
        "lat": 45.382209,
        "lon": -75.60185779999999
      }
    },
    {
      "name": "DGT Sp. z o.o.",
      "exhibitorUrl": "https://www.targikielce.pl/en/mspo/list-of-exhibitors/dgt-sp-z-oo,3810737",
      "address": {
        "text": "ul. Młyńska 7, 83-010 Straszyn, Poland",
        "iso2": "PL",
        "lat": 54.2771342,
        "lon": 18.5678601
      },
      "website": "www.dgt.pl"
    },
    {
      "name": "DILECTRO SPÓŁKA Z OGRANICZONĄ ODPOWIEDZIALNOŚCIĄ",
      "exhibitorUrl": "https://www.targikielce.pl/en/mspo/list-of-exhibitors/dilectro-spolka-z-ograniczona-odpowiedzialnoscia,3811178",
      "address": {
        "text": "ul. Brukselska 4, 03-973 Warszawa, Poland",
        "iso2": "PL",
        "lat": 52.2245943,
        "lon": 21.0652651
      },
      "website": "dilectro.pl"
    },
    {
      "name": "DMC Europe GmbH",
      "exhibitorUrl": "https://www.targikielce.pl/en/mspo/list-of-exhibitors/dmc-europe-gmbh,3812333",
      "address": {
        "text": "In der Au 29, 61550 Oberursel, Germany",
        "iso2": "DE",
        "lat": 50.1872646,
        "lon": 8.5916172
      },
      "website": "www.dmctools.eu/en_us"
    },
    {
      "name": "DNFZ",
      "exhibitorUrl": "https://www.targikielce.pl/en/mspo/list-of-exhibitors/dnfz,3812771",
      "address": {
        "text": "Carnotstrasse 1, 10587 Berlin, Germany",
        "iso2": "DE",
        "lat": 52.52276,
        "lon": 13.3210101
      },
      "website": "dfnz.com"
    },
    {
      "name": "DOLEZYCH Sp. z o.o.",
      "exhibitorUrl": "https://www.targikielce.pl/en/mspo/list-of-exhibitors/dolezych-sp-z-oo,3810749",
      "address": {
        "text": "ul. Koszykowa 1 B, 40-760 KATOWICE, Poland",
        "iso2": "PL",
        "lat": 50.2248346,
        "lon": 18.9232716
      },
      "website": "dolezych.pl"
    },
    {
      "name": "DOLL Fahrzeugbau GmbH",
      "exhibitorUrl": "https://www.targikielce.pl/en/mspo/list-of-exhibitors/doll-fahrzeugbau-gmbh,3812387",
      "address": {
        "text": "Industriestrasse 13, 77728 Oppenau, Germany",
        "iso2": "DE",
        "lat": 48.4756782,
        "lon": 8.1536818
      }
    },
    {
      "name": "DOMAR MS SPÓŁKA Z OGRANICZONĄ ODPOWIEDZIALNOŚCIĄ",
      "exhibitorUrl": "https://www.targikielce.pl/en/mspo/list-of-exhibitors/domar-ms-spolka-z-ograniczona-odpowiedzialnoscia,3810383",
      "address": {
        "text": "ul. Botaniczna 54/56, 04-543 Warszawa, Poland",
        "iso2": "PL",
        "lat": 52.2305939,
        "lon": 21.1563799
      }
    },
    {
      "name": "DOMGOS 2 SPÓŁKA Z OGRANICZONĄ ODPOWIEDZIALNOŚCIĄ",
      "exhibitorUrl": "https://www.targikielce.pl/en/mspo/list-of-exhibitors/domgos-2-spolka-z-ograniczona-odpowiedzialnoscia,3812369",
      "address": {
        "text": "ul. HUTNICZA 5-9, 42-600 TARNOWSKIE GÓRY, Poland",
        "iso2": "PL",
        "lat": 50.4439406,
        "lon": 18.8664366
      }
    },
    {
      "name": "DONIMET BIS SPÓŁKA Z OGRANICZONĄ ODPOWIEDZIALNOŚCIĄ",
      "exhibitorUrl": "https://www.targikielce.pl/en/mspo/list-of-exhibitors/donimet-bis-spolka-z-ograniczona-odpowiedzialnoscia,3812219",
      "address": {
        "text": "ul. Gośniewska 43, 05-660 Warka, Poland",
        "iso2": "PL",
        "lat": 51.7921212,
        "lon": 21.1755798
      },
      "website": "www.donimet.com.pl"
    },
    {
      "name": "DRABPOL SPÓŁKA JAWNA P. DRABCZYŃSKI I WSPÓLNIK",
      "exhibitorUrl": "https://www.targikielce.pl/en/mspo/list-of-exhibitors/drabpol-spolka-jawna-p-drabczynski-i-wspolnik,3810713",
      "address": {
        "text": "ul. Akacjowa 24/26, 42-233 Mykanów, Poland",
        "iso2": "PL",
        "lat": 50.90629389999999,
        "lon": 19.2032243
      },
      "website": "drabpol.pl"
    },
    {
      "name": "DUOL d.o.o.",
      "exhibitorUrl": "https://www.targikielce.pl/en/mspo/list-of-exhibitors/duol-doo,3831319",
      "address": {
        "text": "Kamnik pod Krimom 142,, 1352 Preserje, Slovenia",
        "iso2": "SI",
        "lat": 45.9639357,
        "lon": 14.4031258
      }
    },
    {
      "name": "Daimler Truck Polska Sp. z o.o.",
      "exhibitorUrl": "https://www.targikielce.pl/en/mspo/list-of-exhibitors/daimler-truck-polska-sp-z-oo,3811748",
      "address": {
        "text": "ul. Gottlieba Daimlera 1, 02-460 Warszawa, Poland",
        "iso2": "PL",
        "lat": 52.2058639,
        "lon": 20.9398217
      },
      "website": "www.mercedes-benz-trucks.com/pl"
    },
    {
      "name": "Dammo ApS",
      "exhibitorUrl": "https://www.targikielce.pl/en/mspo/list-of-exhibitors/dammo-aps,3818237",
      "address": {
        "text": "Sydvestvej 134, 2600 Glostrup, Denmark",
        "iso2": "DK",
        "lat": 55.6617046,
        "lon": 12.3726786
      }
    },
    {
      "name": "Dantherm A/S",
      "exhibitorUrl": "https://www.targikielce.pl/en/mspo/list-of-exhibitors/dantherm-as,3811172",
      "address": {
        "text": "Marienlystvej 65, 78-00 SKIVE, Denmark",
        "iso2": "DK",
        "lat": 56.6002838,
        "lon": 9.021769899999999
      },
      "website": "www.danthermgroup.com"
    },
    {
      "name": "De Havilland Canada",
      "exhibitorUrl": "https://www.targikielce.pl/en/mspo/list-of-exhibitors/de-havilland-canada,3837089",
      "address": {
        "text": "4100 Westwinds Drive NE, T3J 4L2 Calgary, Alberta, Canada",
        "iso2": "CA",
        "lat": 51.1006693,
        "lon": -113.9752401
      }
    },
    {
      "name": "Deep Trekker Inc.",
      "exhibitorUrl": "https://www.targikielce.pl/en/mspo/list-of-exhibitors/deep-trekker-inc,3837074",
      "address": {
        "text": "155 Washburn Dr, N2R 1S1 Kitchener, Ontario, Canada",
        "iso2": "CA",
        "lat": 43.4006793,
        "lon": -80.49242350000002
      }
    },
    {
      "name": "Deep Vision Inc.",
      "exhibitorUrl": "https://www.targikielce.pl/en/mspo/list-of-exhibitors/deep-vision-inc,3837059",
      "address": {
        "text": "C/O The PIER 1209 Marginal Road, B3H 4P8 Halifax, Nova Scotia, Canada",
        "iso2": "CA",
        "lat": 44.6406279,
        "lon": -63.5660711
      }
    },
    {
      "name": "Dell Technologies and Tufftek",
      "exhibitorUrl": "https://www.targikielce.pl/en/mspo/list-of-exhibitors/dell-technologies-and-tufftek,3836948",
      "address": {
        "text": "1000 Innovation Drive, k2k3e7 Ottawa, Ontario, Canada",
        "iso2": "CA",
        "lat": 45.3439874,
        "lon": -75.9245074
      }
    },
    {
      "name": "Diehl Defence GmbH & Co.KG",
      "exhibitorUrl": "https://www.targikielce.pl/en/mspo/list-of-exhibitors/diehl-defence-gmbh-cokg,3811514",
      "address": {
        "text": "Alte Nußdorfer Straße 13, 88662 Überlingen, Germany",
        "iso2": "DE",
        "lat": 47.7686254,
        "lon": 9.1744661
      },
      "website": "www.diehl.com/defence/en"
    },
    {
      "name": "Domo Tactical Communications (DTC) Ltd",
      "exhibitorUrl": "https://www.targikielce.pl/en/mspo/list-of-exhibitors/domo-tactical-communications-dtc-ltd,3818023",
      "address": {
        "text": "Fusion 2, 1100 Parkway, Whiteley, PO15 7AB Hampshire, United Kingdom",
        "iso2": "GB",
        "lat": 50.8763122,
        "lon": -1.2468515
      },
      "website": "www.dtccodan.com"
    },
    {
      "name": "Dräger Polska Sp. z o. o.",
      "exhibitorUrl": "https://www.targikielce.pl/en/mspo/list-of-exhibitors/drager-polska-sp-z-o-o,3811742",
      "address": {
        "text": "ul. Posag 7 Panien 1, 02-495 Warszawa, Poland",
        "iso2": "PL",
        "lat": 52.2053235,
        "lon": 20.885654
      },
      "website": "www.draeger.com"
    },
    {
      "name": "E-MILITARIA.PL TOMASZ KIRCZUK SPÓŁKA KOMANDYTOWA",
      "exhibitorUrl": "https://www.targikielce.pl/en/mspo/list-of-exhibitors/e-militariapl-tomasz-kirczuk-spolka-komandytowa,3812603",
      "address": {
        "text": "ul. Partyzantów 111/7, 51-679 Wrocław, Poland",
        "iso2": "PL",
        "lat": 51.1074726,
        "lon": 17.1099043
      }
    },
    {
      "name": "EBERSPAECHER Sp. z o.o.",
      "exhibitorUrl": "https://www.targikielce.pl/en/mspo/list-of-exhibitors/eberspaecher-sp-z-oo,3834338",
      "address": {
        "text": "ul. Okrężna 17, Wysogotowo, 62-081 Przeźmierowo, Poland",
        "iso2": "PL",
        "lat": 52.4176237,
        "lon": 16.7800341
      }
    },
    {
      "name": "EC TEST SYSTEMS Sp. z o.o.",
      "exhibitorUrl": "https://www.targikielce.pl/en/mspo/list-of-exhibitors/ec-test-systems-sp-z-oo,3810641",
      "address": {
        "text": "ul. Ciepłownicza 28, 31-574 Kraków, Poland",
        "iso2": "PL",
        "lat": 50.0528585,
        "lon": 20.002341
      },
      "website": "www.ects.pl"
    },
    {
      "name": "ECO-LINE Sp. z o.o.",
      "exhibitorUrl": "https://www.targikielce.pl/en/mspo/list-of-exhibitors/eco-line-sp-z-oo,3811898",
      "address": {
        "text": "ul. Kazimierza Pużaka 16C, 38-400 Krosno, Poland",
        "iso2": "PL",
        "lat": 49.6925067,
        "lon": 21.743272
      },
      "website": "www.ecoline.com.pl"
    },
    {
      "name": "ECRIMESA Electro Crisol Metal S.A.",
      "exhibitorUrl": "https://www.targikielce.pl/en/mspo/list-of-exhibitors/ecrimesa-electro-crisol-metal-sa,3811520",
      "address": {
        "text": "AVENIDA DE PARAYAS, E-39011 SANTANDER, Spain",
        "iso2": "ES",
        "lat": 43.4448215,
        "lon": -3.8336471
      },
      "website": "WWW.ECRIMESA.ES"
    },
    {
      "name": "EDePro d.o.o",
      "exhibitorUrl": "https://www.targikielce.pl/en/mspo/list-of-exhibitors/edepro-doo,3811184",
      "address": {
        "text": "33 Kralja Milutina Street, 11000 Belgrade, Serbia",
        "iso2": "RS",
        "lat": 44.802936,
        "lon": 20.4650323
      },
      "website": "www.edepro.com"
    },
    {
      "name": "EFAFLEX POLSKA - BRAMY PRZEMYSŁOWE SZYBKIE SPÓŁKA Z OGRANICZONĄ ODPOWIEDZIALNOŚCIĄ",
      "exhibitorUrl": "https://www.targikielce.pl/en/mspo/list-of-exhibitors/efaflex-polska-bramy-przemyslowe-szybkie-spolka-z-ograniczona-odpowiedzialnoscia,3811460",
      "address": {
        "text": "ul. Krótka 27A, 42-200 Częstochowa, Poland",
        "iso2": "PL",
        "lat": 50.8163407,
        "lon": 19.124338
      }
    },
    {
      "name": "EKO-MOTO SP. Z O.O.",
      "exhibitorUrl": "https://www.targikielce.pl/en/mspo/list-of-exhibitors/eko-moto-sp-z-oo,3810725",
      "address": {
        "text": "ul. ŚW. BRATA ALBERTA 105/107, 42-224 Częstochowa, Poland",
        "iso2": "PL",
        "lat": 50.8572385,
        "lon": 19.1315907
      },
      "website": "eko-moto.pl"
    },
    {
      "name": "EKO-TECH SPÓŁKA Z OGRANICZONĄ ODPOWIEDZIALNOŚCIĄ S PÓŁKA KOMANDYTOWA",
      "exhibitorUrl": "https://www.targikielce.pl/en/mspo/list-of-exhibitors/eko-tech-spolka-z-ograniczona-odpowiedzialnoscia-s-polka-komandytowa,3827590",
      "address": {
        "text": "FABRYCZNA 1B, 42-660 KALETY, Poland",
        "iso2": "PL",
        "lat": 50.5615794,
        "lon": 18.8936661
      },
      "website": "converting-tasm.pl"
    },
    {
      "name": "EKOLOT AEROSPACE AND DEFENSE SPÓŁKA Z OGRANICZONĄ ODPOWIEDZIALNOŚCIĄ",
      "exhibitorUrl": "https://www.targikielce.pl/en/mspo/list-of-exhibitors/ekolot-aerospace-and-defense-spolka-z-ograniczona-odpowiedzialnoscia,3812879",
      "address": {
        "text": "ul. Przemysłowa 3A, Szczepańcowa, 38-457 Chorkówka, Poland",
        "iso2": "PL",
        "lat": 49.67580230000001,
        "lon": 21.7239868
      }
    },
    {
      "name": "EL-CAB Sp.z o.o.",
      "exhibitorUrl": "https://www.targikielce.pl/en/mspo/list-of-exhibitors/el-cab-spz-oo,3810317",
      "address": {
        "text": "UL. OBORNICKA 37, 62-005 OWIŃSKA, BOLECHOWO-OSIEDLE, Poland",
        "iso2": "PL",
        "lat": 52.54521310000001,
        "lon": 16.9710111
      },
      "website": "www.el-cab.com.pl"
    },
    {
      "name": "ELEKTROTIM SPÓŁKA AKCYJNA",
      "exhibitorUrl": "https://www.targikielce.pl/en/mspo/list-of-exhibitors/elektrotim-spolka-akcyjna,3811211",
      "address": {
        "text": "ul. Stargardzka 8, 54-156 Wrocław, Poland",
        "iso2": "PL",
        "lat": 51.1327643,
        "lon": 16.9490562
      },
      "website": "www.elektrotim.pl"
    },
    {
      "name": "ELESA+GANTER Polska Sp. z o.o.",
      "exhibitorUrl": "https://www.targikielce.pl/en/mspo/list-of-exhibitors/elesaganter-polska-sp-z-oo,3810743",
      "address": {
        "text": "ul. Słoneczna 42a, Stara Iwiczna, 05-500 PIASECZNO, Poland",
        "iso2": "PL",
        "lat": 52.084329,
        "lon": 21.0015063
      },
      "website": "www.elesa-ganter.pl"
    },
    {
      "name": "ELMARK AUTOMATYKA SPÓŁKA AKCYJNA",
      "exhibitorUrl": "https://www.targikielce.pl/en/mspo/list-of-exhibitors/elmark-automatyka-spolka-akcyjna,3810329",
      "address": {
        "text": "ul. Bukowińska 22/1B, 02-703 WARSZAWA, Poland",
        "iso2": "PL",
        "lat": 52.1839875,
        "lon": 21.0248232
      }
    },
    {
      "name": "ELTEN GMBH",
      "exhibitorUrl": "https://www.targikielce.pl/en/mspo/list-of-exhibitors/elten-gmbh,3811616",
      "address": {
        "text": "OSTWALL 7-13, DE-47589 UEDEM, Germany",
        "iso2": "DE",
        "lat": 51.6675361,
        "lon": 6.2764255
      },
      "website": "elten.com"
    },
    {
      "name": "EMAG Systems GmbH",
      "exhibitorUrl": "https://www.targikielce.pl/en/mspo/list-of-exhibitors/emag-systems-gmbh,3812606",
      "address": {
        "text": "Austrasse 24, D-73084 SALACH, Germany",
        "iso2": "DE",
        "lat": 48.6894244,
        "lon": 9.7306425
      },
      "website": "www.emag.com"
    },
    {
      "name": "EMBRAER",
      "exhibitorUrl": "https://www.targikielce.pl/en/mspo/list-of-exhibitors/embraer,3813155",
      "address": {
        "text": "Tv. do Campo da Telheira 155 Arm. 6, 4470-828 Maia, Portugal",
        "iso2": "PT",
        "lat": 41.2401729,
        "lon": -8.6913806
      },
      "website": "embraer.com"
    },
    {
      "name": "EMCO LTD",
      "exhibitorUrl": "https://www.targikielce.pl/en/mspo/list-of-exhibitors/emco-ltd,3812147",
      "address": {
        "text": "121, Tsarigradsko Shose Blvd., 1784 Sofia, Bulgaria",
        "iso2": "BG",
        "lat": 42.6573587,
        "lon": 23.3868874
      }
    },
    {
      "name": "ENAMOR SPÓŁKA Z OGRANICZONĄ ODPOWIEDZIALNOŚCIĄ",
      "exhibitorUrl": "https://www.targikielce.pl/en/mspo/list-of-exhibitors/enamor-spolka-z-ograniczona-odpowiedzialnoscia,3811205",
      "address": {
        "text": "ul. Inżynierska 1, 81-512 Gdynia, Poland",
        "iso2": "PL",
        "lat": 54.486453,
        "lon": 18.5385795
      },
      "website": "www.enamor.pl"
    },
    {
      "name": "ENGINEERING COMPANY ENERGY LIMITED LIABILITY COMPA NY (EC ENERGY LLC)",
      "exhibitorUrl": "https://www.targikielce.pl/en/mspo/list-of-exhibitors/engineering-company-energy-limited-liability-compa-ny-ec-energy-llc,3818692",
      "address": {
        "text": "Kytayenka St., 61020 Kharkiv, Ukraine",
        "iso2": "UA",
        "lat": 50.00201269999999,
        "lon": 36.3073994
      },
      "website": "www.tpke.org"
    },
    {
      "name": "ENTIRE M SPÓŁKA Z OGRANICZONĄ ODPOWIEDZIALNOŚCIĄ",
      "exhibitorUrl": "https://www.targikielce.pl/en/mspo/list-of-exhibitors/entire-m-spolka-z-ograniczona-odpowiedzialnoscia,3811199",
      "address": {
        "text": "al. Architektów 7, 54-115 Wrocław, Poland",
        "iso2": "PL",
        "lat": 51.1366612,
        "lon": 16.929421
      },
      "website": "entirem.com"
    },
    {
      "name": "EPICOM, S.A.",
      "exhibitorUrl": "https://www.targikielce.pl/en/mspo/list-of-exhibitors/epicom-sa,3817405",
      "address": {
        "text": "17, MARIE CURIE ST 6TH FLOOR, 28521 RIVAS-VACIAMADRID (MADRID), Spain",
        "iso2": "ES",
        "lat": 40.3364942,
        "lon": -3.5237186
      },
      "website": "www.epicom.es"
    },
    {
      "name": "ERGO POS SPÓŁKA Z OGRANICZONĄ ODPOWIEDZIALNOŚCIĄ",
      "exhibitorUrl": "https://www.targikielce.pl/en/mspo/list-of-exhibitors/ergo-pos-spolka-z-ograniczona-odpowiedzialnoscia,3813386",
      "address": {
        "text": "PŁK. STANISŁAWA DĄBKA 22, 30-732 KRAKÓW, Poland",
        "iso2": "PL",
        "lat": 50.0361915,
        "lon": 20.0253386
      }
    },
    {
      "name": "ESEA AUTOMATION SRL",
      "exhibitorUrl": "https://www.targikielce.pl/en/mspo/list-of-exhibitors/esea-automation-srl,3819067",
      "address": {
        "text": "VIA NAZIONALE 56/A, 65012 VILLANOVA, Italy",
        "iso2": "IT",
        "lat": 42.3973125,
        "lon": 14.1383943
      },
      "website": "www.gruppoesea.it"
    },
    {
      "name": "ETL Systems",
      "exhibitorUrl": "https://www.targikielce.pl/en/mspo/list-of-exhibitors/etl-systems,3817202",
      "address": {
        "text": "Coldwell Radio Station, Madley, HR2 9NE Hereford, United Kingdom",
        "iso2": "GB",
        "lat": 52.01991289999999,
        "lon": -2.8542782
      },
      "website": "www.etlsystems.com"
    },
    {
      "name": "ETRONIKA SPÓŁKA Z OGRANICZONĄ ODPOWIEDZIALNOŚCIĄ",
      "exhibitorUrl": "https://www.targikielce.pl/en/mspo/list-of-exhibitors/etronika-spolka-z-ograniczona-odpowiedzialnoscia,3810347",
      "address": {
        "text": "ul. Wapienna 43/45,, 04-691 Warszawa, Poland",
        "iso2": "PL",
        "lat": 52.21324000000001,
        "lon": 21.1450408
      }
    },
    {
      "name": "EURENCO",
      "exhibitorUrl": "https://www.targikielce.pl/en/mspo/list-of-exhibitors/eurenco,3812189",
      "address": {
        "text": "123 Allée de Brantes, 84700 SORGUES, France",
        "iso2": "FR",
        "lat": 43.9959941,
        "lon": 4.866091
      }
    },
    {
      "name": "EUROGOLD WOJCIECH PYRZYŃSKI",
      "exhibitorUrl": "https://www.targikielce.pl/en/mspo/list-of-exhibitors/eurogold-wojciech-pyrzynski,3812708",
      "address": {
        "text": "ul. Marii Skłodowskiej-Curie 101, 87-100 Toruń, Poland",
        "iso2": "PL",
        "lat": 53.037342,
        "lon": 18.6834252
      }
    },
    {
      "name": "EWT AUTOMOTIVE POLSKA SPÓŁKA Z OGRANICZONĄ ODPOWIEDZIALNOŚCIĄ",
      "exhibitorUrl": "https://www.targikielce.pl/en/mspo/list-of-exhibitors/ewt-automotive-polska-spolka-z-ograniczona-odpowiedzialnoscia,3811496",
      "address": {
        "text": "ul. Poznańska 343, Ołtarzew, 05-850 Ożarów Mazowiecki, Poland",
        "iso2": "PL",
        "lat": 52.2105399,
        "lon": 20.7467922
      }
    },
    {
      "name": "EXACT FORESTALL DEFENCE SPÓŁKA Z OGRANICZONĄ ODPOW IEDZIALNOŚCIĄ",
      "exhibitorUrl": "https://www.targikielce.pl/en/mspo/list-of-exhibitors/exact-forestall-defence-spolka-z-ograniczona-odpow-iedzialnoscia,3830098",
      "address": {
        "text": "Aleja Najświętszej Maryi Panny 49/12, 42-217 Częstochowa, Poland",
        "iso2": "PL",
        "lat": 50.8120003,
        "lon": 19.1111929
      },
      "website": "exactforestall.com/en"
    },
    {
      "name": "EXCALIBUR ARMY spol. s r.o.",
      "exhibitorUrl": "https://www.targikielce.pl/en/mspo/list-of-exhibitors/excalibur-army-spol-s-ro,3835931",
      "address": {
        "text": "U Rustonky 714/1, 18600 Praha 8, Czechia",
        "iso2": "CZ",
        "lat": 50.1002642,
        "lon": 14.4675546
      },
      "website": "www.excaliburarmy.cz/#"
    },
    {
      "name": "EXCOR sp. z o.o.",
      "exhibitorUrl": "https://www.targikielce.pl/en/mspo/list-of-exhibitors/excor-sp-z-oo,3810269",
      "address": {
        "text": "ul. Ratajska 10, 91-231 Łódź, Poland",
        "iso2": "PL",
        "lat": 51.8096448,
        "lon": 19.3729192
      }
    },
    {
      "name": "EXPLOSIA A.S.",
      "exhibitorUrl": "https://www.targikielce.pl/en/mspo/list-of-exhibitors/explosia-as,3811562",
      "address": {
        "text": "PARDUBICE-SEMTIN 107, 530 02 PARDUBICE, Czechia",
        "iso2": "CZ",
        "lat": 50.06331429999999,
        "lon": 15.7274933
      }
    },
    {
      "name": "Echodyne",
      "exhibitorUrl": "https://www.targikielce.pl/en/mspo/list-of-exhibitors/echodyne,3818636",
      "address": {
        "text": "12112 115th Ave. NE, Ste. A, 98034 Kirkland, Washington (WA), United States",
        "iso2": "US",
        "lat": 47.7089296,
        "lon": -122.1873851
      },
      "website": "www.echodyne.com"
    },
    {
      "name": "Ecoclean GmbH",
      "exhibitorUrl": "https://www.targikielce.pl/en/mspo/list-of-exhibitors/ecoclean-gmbh,3813440",
      "address": {
        "text": "Muehlenstrasse 12, 70794 Filderstadt, Germany",
        "iso2": "DE",
        "lat": 48.677029,
        "lon": 9.2256451
      },
      "website": "ecoclean-group.net"
    },
    {
      "name": "Egida IT Security Solutions sp. z o.o.",
      "exhibitorUrl": "https://www.targikielce.pl/en/mspo/list-of-exhibitors/egida-it-security-solutions-sp-z-oo,3817933",
      "address": {
        "text": "Ul. Gen. Józefa Zajączka 32, 01-510 Warszawa, Poland",
        "iso2": "PL",
        "lat": 52.2616202,
        "lon": 20.9893304
      }
    },
    {
      "name": "Eisele GmbH",
      "exhibitorUrl": "https://www.targikielce.pl/en/mspo/list-of-exhibitors/eisele-gmbh,3813503",
      "address": {
        "text": "Lise-Meitner-Straße 8/1, 71332 Waiblingen, Germany",
        "iso2": "DE",
        "lat": 48.8245454,
        "lon": 9.3232266
      }
    },
    {
      "name": "Elasto Proxy Inc.",
      "exhibitorUrl": "https://www.targikielce.pl/en/mspo/list-of-exhibitors/elasto-proxy-inc,3837125",
      "address": {
        "text": "4035 Lavoisier Street, J7H 1N1 Boisbriand, Quebec, Canada",
        "iso2": "CA",
        "lat": 45.6310558,
        "lon": -73.8689792
      }
    },
    {
      "name": "Eldisy GmbH",
      "exhibitorUrl": "https://www.targikielce.pl/en/mspo/list-of-exhibitors/eldisy-gmbh,3813368",
      "address": {
        "text": "Buschstückenstraße 12, 39638 Gardelegen, Germany",
        "iso2": "DE",
        "lat": 52.5433774,
        "lon": 11.3991569
      }
    },
    {
      "name": "Element Materials Technology AB",
      "exhibitorUrl": "https://www.targikielce.pl/en/mspo/list-of-exhibitors/element-materials-technology-ab,3813539",
      "address": {
        "text": "Asj-Vägen 7, 582 54 Linköping, Sweden",
        "iso2": "SE",
        "lat": 58.4044131,
        "lon": 15.6510437
      },
      "website": "www.element.com"
    },
    {
      "name": "Elettronica spa",
      "exhibitorUrl": "https://www.targikielce.pl/en/mspo/list-of-exhibitors/elettronica-spa,3812528",
      "address": {
        "text": "Via Tiburtina Valeria Km 13.700, 00131 Rome, Italy",
        "iso2": "IT",
        "lat": 41.93736,
        "lon": 12.6183129
      },
      "website": "www.eltgroup.net"
    },
    {
      "name": "Elomatic Oy",
      "exhibitorUrl": "https://www.targikielce.pl/en/mspo/list-of-exhibitors/elomatic-oy,3813470",
      "address": {
        "text": "Itäinen Rantaaktu 72, 20810 Turku, Finland",
        "iso2": "FI",
        "lat": 60.437752,
        "lon": 22.2431842
      },
      "website": "www.elomatic.com"
    },
    {
      "name": "Enercon Technologies Ltd.",
      "exhibitorUrl": "https://www.targikielce.pl/en/mspo/list-of-exhibitors/enercon-technologies-ltd,3812093",
      "address": {
        "text": "P.O.B. 13011, 27 Yad Harutzim St., Siim Park, Bldg. 5, 4237901 Netanya, Israel",
        "iso2": "IL",
        "lat": 32.284698,
        "lon": 34.865662
      },
      "website": "www.enercon.co.il"
    },
    {
      "name": "Environmental Instruments Canada Inc.",
      "exhibitorUrl": "https://www.targikielce.pl/en/mspo/list-of-exhibitors/environmental-instruments-canada-inc,3837128",
      "address": {
        "text": "202-135 Robin Cres., S7L 6M3 Saskatoon, Saskatchewan, Canada",
        "iso2": "CA",
        "lat": 52.1573723,
        "lon": -106.6792733
      }
    },
    {
      "name": "Escribano Mechanical & Engineering (EM&E Group)",
      "exhibitorUrl": "https://www.targikielce.pl/en/mspo/list-of-exhibitors/escribano-mechanical-engineering-eme-group,3813575",
      "address": {
        "text": "Av. Punto Es, 10, 28805 Alcalá de Henares, Madrid, 28805 Alcalá de Henares, Madrid, Spain",
        "iso2": "ES",
        "lat": 40.515144,
        "lon": -3.3431017
      },
      "website": "eme-es.com"
    },
    {
      "name": "Essentra Components",
      "exhibitorUrl": "https://www.targikielce.pl/en/mspo/list-of-exhibitors/essentra-components,3810635",
      "address": {
        "text": "ul. Maratońska 104A, 94-007 Łódź, Poland",
        "iso2": "PL",
        "lat": 51.73255049999999,
        "lon": 19.3752431
      },
      "website": "www.essentracomponents.com/pl-pl"
    },
    {
      "name": "Estonian Defence and Aerospace Industry Association",
      "exhibitorUrl": "https://www.targikielce.pl/en/mspo/list-of-exhibitors/estonian-defence-and-aerospace-industry-association,3811802",
      "address": {
        "text": "Lõõta 6, 11415 Tallinn, Estonia",
        "iso2": "EE",
        "lat": 59.4220148,
        "lon": 24.8290622
      }
    },
    {
      "name": "Eurotemp GmbH",
      "exhibitorUrl": "https://www.targikielce.pl/en/mspo/list-of-exhibitors/eurotemp-gmbh,3813452",
      "address": {
        "text": "Behringstraße 7, 71083 Herrenberg, Germany",
        "iso2": "DE",
        "lat": 48.57693279999999,
        "lon": 8.886473500000001
      }
    },
    {
      "name": "Evertz Microsystems LTD.",
      "exhibitorUrl": "https://www.targikielce.pl/en/mspo/list-of-exhibitors/evertz-microsystems-ltd,3836867",
      "address": {
        "text": "5292 John Lucas Drive, l7l 5z9 Burlington, Canada",
        "iso2": "CA",
        "lat": 43.3917597,
        "lon": -79.76962739999999
      },
      "website": "www.evertz.com"
    },
    {
      "name": "Exsel Group",
      "exhibitorUrl": "https://www.targikielce.pl/en/mspo/list-of-exhibitors/exsel-group,3812045",
      "address": {
        "text": "Bagley Lane, SW6 2BW London, United Kingdom",
        "iso2": "GB",
        "lat": 51.4736364,
        "lon": -0.1860109
      }
    },
    {
      "name": "F.C. Lane Electronics Limited",
      "exhibitorUrl": "https://www.targikielce.pl/en/mspo/list-of-exhibitors/fc-lane-electronics-limited,3812468",
      "address": {
        "text": "Slinfold Lodge, Slinfold, Horsham, RH13 0RN West Sussex, United Kingdom",
        "iso2": "GB",
        "lat": 51.0579121,
        "lon": -0.3274216
      },
      "website": "www.fclane.com"
    },
    {
      "name": "FABRYKA MASZYN I URZĄDZEŃ \"OMAG\" SPÓŁKA Z OGRANICZONĄ ODPOWIEDZIALNOŚCIĄ",
      "exhibitorUrl": "https://www.targikielce.pl/en/mspo/list-of-exhibitors/fabryka-maszyn-i-urzadzen-omag-spolka-z-ograniczona-odpowiedzialnoscia,3811442",
      "address": {
        "text": "ul. Górnicza 8, Brzezinka, 32-600 Oświęcim, Poland",
        "iso2": "PL",
        "lat": 50.0420595,
        "lon": 19.1957693
      },
      "website": "WWW.OMAG.PL"
    },
    {
      "name": "FAE S.p.A.",
      "exhibitorUrl": "https://www.targikielce.pl/en/mspo/list-of-exhibitors/fae-spa,3811568",
      "address": {
        "text": "Zona Produttiva 18, 38013 Fondo - Borgo d'Anaunia (TN), Italy",
        "iso2": "IT",
        "lat": 46.4365458,
        "lon": 11.1401368
      }
    },
    {
      "name": "FALCON DRONES SPÓŁKA Z OGRANICZONĄ ODPOWIEDZIALNOŚCIĄ",
      "exhibitorUrl": "https://www.targikielce.pl/en/mspo/list-of-exhibitors/falcon-drones-spolka-z-ograniczona-odpowiedzialnoscia,3812201",
      "address": {
        "text": "ul. Arkuszowa 39, 01-934 Warszawa, Poland",
        "iso2": "PL",
        "lat": 52.28333079999999,
        "lon": 20.9043374
      }
    },
    {
      "name": "FC Lane Electronics Ltd",
      "exhibitorUrl": "https://www.targikielce.pl/en/mspo/list-of-exhibitors/fc-lane-electronics-ltd,3818032",
      "address": {
        "text": "Stane Street, Slinfold, RH130RN Horsham, United Kingdom",
        "iso2": "GB",
        "lat": 51.0732237,
        "lon": -0.4145308
      }
    },
    {
      "name": "FERROPLAST ZBIGNIEW, ELŻBIETA, DAWID RYBICCY SPÓŁKA JAWNA",
      "exhibitorUrl": "https://www.targikielce.pl/en/mspo/list-of-exhibitors/ferroplast-zbigniew-elzbieta-dawid-rybiccy-spolka-jawna,3811334",
      "address": {
        "text": "Świdwinek 29 a, 78-300 ŚWIDWIN, Poland",
        "iso2": "PL",
        "lat": 53.7598843,
        "lon": 15.8120968
      },
      "website": "europeanshelters.pl"
    },
    {
      "name": "FGB: Fertigungsgerätebau Adolf Steinbach GmbH & Co .KG",
      "exhibitorUrl": "https://www.targikielce.pl/en/mspo/list-of-exhibitors/fgb-fertigungsgeratebau-adolf-steinbach-gmbh-co-kg,3813197",
      "address": {
        "text": "Strahlunger Str. 18, 97616 Salz, Germany",
        "iso2": "DE",
        "lat": 50.291306,
        "lon": 10.2237683
      },
      "website": "www.fgb.de"
    },
    {
      "name": "FHTM SPÓŁKA Z OGRANICZONĄ ODPOWIEDZIALNOŚCIĄ",
      "exhibitorUrl": "https://www.targikielce.pl/en/mspo/list-of-exhibitors/fhtm-spolka-z-ograniczona-odpowiedzialnoscia,3811223",
      "address": {
        "text": "ul. Graniczna 8C, Wrocław, 54-610 Wrocław, Poland",
        "iso2": "PL",
        "lat": 51.1059118,
        "lon": 16.9297882
      }
    },
    {
      "name": "FIBERPRO, Inc",
      "exhibitorUrl": "https://www.targikielce.pl/en/mspo/list-of-exhibitors/fiberpro-inc,3812405",
      "address": {
        "text": "26-55, Gajeongbuk-ro, Yuseong-gu, Daejeon 34113, Korea, 34113 Daejeon, South Korea",
        "iso2": "KR",
        "lat": 36.3870185,
        "lon": 127.3669394
      }
    },
    {
      "name": "FIBRAIN Sp. z o.o.",
      "exhibitorUrl": "https://www.targikielce.pl/en/mspo/list-of-exhibitors/fibrain-sp-z-oo,3810371",
      "address": {
        "text": "Zaczernie 190F, 36-062 Zaczernie, Poland",
        "iso2": "PL",
        "lat": 50.1059951,
        "lon": 22.00734
      },
      "website": "fibrain.pl"
    },
    {
      "name": "FIN Sp. z o.o.",
      "exhibitorUrl": "https://www.targikielce.pl/en/mspo/list-of-exhibitors/fin-sp-z-oo,3811712",
      "address": {
        "text": "Al. Krakowska 110/114, 02-256 WARSZAWA, Poland",
        "iso2": "PL",
        "lat": 52.17784380000001,
        "lon": 20.9469621
      },
      "website": "www.finzoo.pl"
    },
    {
      "name": "FINAL SPÓŁKA AKCYJNA",
      "exhibitorUrl": "https://www.targikielce.pl/en/mspo/list-of-exhibitors/final-spolka-akcyjna,3811556",
      "address": {
        "text": "ul. Koksownicza 9, 42-523 Dąbrowa Górnicza, Poland",
        "iso2": "PL",
        "lat": 50.3388313,
        "lon": 19.3289758
      },
      "website": "final.pl"
    },
    {
      "name": "FINCANTIERI SpA",
      "exhibitorUrl": "https://www.targikielce.pl/en/mspo/list-of-exhibitors/fincantieri-spa,3812510",
      "address": {
        "text": "Via Genova, 1, 34121 Trieste, Italy",
        "iso2": "IT",
        "lat": 45.6520988,
        "lon": 13.769963
      },
      "website": "www.fincantieri.com/it"
    },
    {
      "name": "FINDER POLSKA SPÓŁKA Z OGRANICZONA ODPOWIEDZIALNOŚ CIĄ",
      "exhibitorUrl": "https://www.targikielce.pl/en/mspo/list-of-exhibitors/finder-polska-spolka-z-ograniczona-odpowiedzialnos-cia,3812855",
      "address": {
        "text": "ul. Logistyczna 27, Sady, 62-080 Tarnowo Podgórne, Poland",
        "iso2": "PL",
        "lat": 52.4473192,
        "lon": 16.7377812
      }
    },
    {
      "name": "FLYFOCUS SPÓŁKA Z OGRANICZONĄ ODPOWIEDZIALNOŚCIĄ",
      "exhibitorUrl": "https://www.targikielce.pl/en/mspo/list-of-exhibitors/flyfocus-spolka-z-ograniczona-odpowiedzialnoscia,3816470",
      "address": {
        "text": "ul. Fort Wola 22, 01-258 Warszawa, Poland",
        "iso2": "PL",
        "lat": 52.2247291,
        "lon": 20.9288229
      },
      "website": "flyfocus.pl"
    },
    {
      "name": "FORCEPOL sp. z o.o.",
      "exhibitorUrl": "https://www.targikielce.pl/en/mspo/list-of-exhibitors/forcepol-sp-z-oo,3810299",
      "address": {
        "text": "ul. Modlińska 190, 03-119 Warszawa, Poland",
        "iso2": "PL",
        "lat": 52.3264061,
        "lon": 20.9696613
      },
      "website": "www.forcepol.com"
    },