{
  "name": "Pacific 2019",
  "series": "Pacific",
  "edition": "2019",
  "startDate": "2019-10-08",
  "endDate": "2019-10-10",
  "address": {
    "text": "International Convention Centre\n14 Darling Drive\nSydney\nNSW 2000\nAustralia",
    "iso2": "AU",
    "lat": -33.8748582,
    "lon": 151.199509
  },
  "website": "https://2019.pacificexpo.com.au",
  "social": [
    {
      "platform": "linkedin",
      "url": "https://www.linkedin.com/company/pacific-2017?trk=company_name"
    },
    {
      "platform": "twitter",
      "url": "https://www.twitter.com/Pacific2019Expo"
    }
  ],
  "exhibitorListUrl": "https://ems.infosalons.com.au/modifiedlisting/5d351e890a669fb00a000006",
  "exhibitorListDate": "2021-03-11T13:33:03+00:00",
  "exhibitor": [
    {
      "name": "12thLevel Pty Ltd",
      "address": {
        "text": "14/11 National Circuit, Barton ACT\nCanberra 2600 2600 Australia",
        "iso2": "AU",
        "lat": -35.3083525,
        "lon": 149.1330594
      },
      "website": "http://www.12thlevel.com.au"
    },
    {
      "name": "2G Robotics Inc.",
      "address": {
        "text": "120 Randall Drive Units 1E F Ontario\nWaterloo N2V 1C6 Canada",
        "iso2": "CA",
        "lat": 43.5019252,
        "lon": -80.5515988
      },
      "website": "http://www.2grobotics.com"
    },
    {
      "name": "3M Australia",
      "address": {
        "text": "Building A 1 Rivett Road NSW\nNorth Ryde 2113 Australia",
        "iso2": "AU",
        "lat": -33.7973326,
        "lon": 151.1393184
      },
      "website": "http://www.3m.com.au/ppesafety"
    },
    {
      "name": "ADES TECHNOLOGIES - AUXIM",
      "address": {
        "text": "13, rue E Martel ZI La Chauvetierre FRANCE\nSAINT-ETIENNE 42100 France",
        "iso2": "FR",
        "lat": 45.4168041,
        "lon": 4.378377
      },
      "website": "http://www.ades-technologies.com"
    },
    {
      "name": "AIAD - Italian Industries Federation for Aerospace, Defence and Security",
      "address": {
        "text": "Via Nazionale, 54\nRome 00184 Italy",
        "iso2": "IT",
        "lat": 41.8996697,
        "lon": 12.4919371
      },
      "website": "http://www.aiad.it"
    },
    {
      "name": "AIDN National",
      "address": {
        "text": "PO Box 5541 ACT\nKingston 2604 Australia",
        "iso2": "AU",
        "lat": -35.3137238,
        "lon": 149.1441358
      },
      "website": "http://www.aidn.org.au"
    },
    {
      "name": "AIDN-NT",
      "address": {
        "text": "NADO, 76 The Esplanade NT\nDarwin 0820 Australia",
        "iso2": "AU",
        "lat": -12.4264942,
        "lon": 130.8475181
      },
      "website": "http://www.aidnnt.com.au"
    },
    {
      "name": "ALTRAD",
      "address": {
        "text": "125 Rue du Mas de Carbonnier\nMontpellier 34000 France",
        "iso2": "FR",
        "lat": 43.6050139,
        "lon": 3.9092538
      },
      "website": "http://www.altrad.com"
    },
    {
      "name": "AME Systems",
      "address": {
        "text": "18 Gordon st Vic\nArarat 3135 Australia",
        "iso2": "AU",
        "lat": -37.2895911,
        "lon": 142.9465973
      },
      "website": "http://amesystems.com.au"
    },
    {
      "name": "AMERIS Group",
      "address": {
        "text": "348 rue des Metiers\nTourlaville 50110 France",
        "iso2": "FR",
        "lat": 49.636071,
        "lon": -1.585917
      },
      "website": "http://www.ameris.net"
    },
    {
      "name": "AMI Group",
      "address": {
        "text": "107 Forsyth Street WA\nOConnor 6163 Australia",
        "iso2": "AU",
        "lat": -32.0559885,
        "lon": 115.7925576
      },
      "website": "http://www.amigroup.co"
    },
    {
      "name": "AMOG Pty Ltd",
      "address": {
        "text": "19 Business Park Drive Victoria\nNotting Hill 3168 Australia",
        "iso2": "AU",
        "lat": -37.9019804,
        "lon": 145.1308152
      },
      "website": "http://www.amog.consulting"
    },
    {
      "name": "AMS Group",
      "address": {
        "text": "655 MacArthur Avenue central QLD\nPinkenba 4008 Australia",
        "iso2": "AU",
        "lat": -27.4371861,
        "lon": 153.1108982
      },
      "website": "http://www.ams.group"
    },
    {
      "name": "AMW Professional Services",
      "address": {
        "text": "Level 1, 1/7 Beaconsfield St ACT\nFyshwick 2609 Australia",
        "iso2": "AU",
        "lat": -35.3374436,
        "lon": 149.1835666
      },
      "website": "http://www.amwps.com"
    },
    {
      "name": "ANI - OSBORNE NAVAL SHIPYARD",
      "address": {
        "text": "61 Veitch Road SA\nOsborne 5015 Australia",
        "iso2": "AU",
        "lat": -34.78828180000001,
        "lon": 138.5110845
      },
      "website": "http://www.ani.com.au"
    },
    {
      "name": "APC Technology",
      "address": {
        "text": "991 Port Road South Australia\nCheltenham 5014 Australia",
        "iso2": "AU",
        "lat": -34.8689453,
        "lon": 138.5189903
      },
      "website": "http://www.apctechnology.com.au"
    },
    {
      "name": "AQS Oceania Pty Ltd",
      "address": {
        "text": "8/14 Harrington Street QLD\nArundel 4214 Australia",
        "iso2": "AU",
        "lat": -27.9326703,
        "lon": 153.3687667
      },
      "website": "http://www.aqsoceania.com.au"
    },
    {
      "name": "AQUALUMA LED LIGHTING",
      "address": {
        "text": "124 Siganto Drive QLD\nHELENSVALE 4212 Australia",
        "iso2": "AU",
        "lat": -27.8953428,
        "lon": 153.3156953
      },
      "website": "http://www.aqualuma.com"
    },
    {
      "name": "ASC PTY LTD",
      "address": {
        "text": "694 MERSEY ROAD SOUTH AUSTRALIA\nOSBORNE 5017 Australia",
        "iso2": "AU",
        "lat": -34.7828093,
        "lon": 138.5103933
      },
      "website": "http://www.asc.com.au"
    },
    {
      "name": "ASP Defence Support Services",
      "address": {
        "text": "473 st kilda Rd VIC\nMelbourne 3004 Australia",
        "iso2": "AU",
        "lat": -37.8416367,
        "lon": 144.9782648
      }
    },
    {
      "name": "ATLAS ELEKTRONIK UK",
      "address": {
        "text": "Dorset Innovation Park\nDorchester DT28ZB United Kingdom",
        "iso2": "GB",
        "lat": 50.6817398,
        "lon": -2.2564237
      },
      "website": "http://www.uk.atlas-elektronik.com"
    },
    {
      "name": "AUMA Actuators",
      "address": {
        "text": "78 Dickson Avenue NSW\nArtarmon 2064 Australia",
        "iso2": "AU",
        "lat": -33.8169385,
        "lon": 151.1828784
      },
      "website": "http://www.auma.com"
    },
    {
      "name": "AUS+NZ Defence Directory",
      "address": {
        "text": "1/7 Colemans Rd VIC\nCarrum Downs 3201 Australia",
        "iso2": "AU",
        "lat": -38.0948797,
        "lon": 145.1652677
      },
      "website": "http://www.defence.directory"
    },
    {
      "name": "AUSTRALIAN DEFENCE BUSINESS REVIEW",
      "address": {
        "text": "7 FINLEY ROAD QLD\nEUMUNDI 4562 Australia",
        "iso2": "AU",
        "lat": -26.4638865,
        "lon": 152.954129
      },
      "website": "http://www.adbr.com.au"
    },
    {
      "name": "AUSTRALIAN DEFENCE MAGAZINE (ADM)",
      "address": {
        "text": "2/212 Bay Terrace Qld\nWYNNUM 4178 Australia",
        "iso2": "AU",
        "lat": -27.4443603,
        "lon": 153.1742936
      },
      "website": "http://www.australiandefence.com.au"
    },
    {
      "name": "AVALON 2021 - Australian International Airshow & Aerospace and Defence Expo",
      "address": {
        "text": "PO Box 2095 Victoria\nGeelong 3220 Australia",
        "iso2": "AU",
        "lat": -38.1492994,
        "lon": 144.3598426
      },
      "website": "http://www.airshow.com.au"
    },
    {
      "name": "AVEVA Pty Ltd",
      "address": {
        "text": "Level 29 Forrest Centre, 221 St Georges Terrace\nPerth Australia",
        "iso2": "AU",
        "lat": -31.9536696,
        "lon": 115.8521858
      },
      "website": "http://www.aveva.com"
    },
    {
      "name": "AXON' CABLE",
      "address": {
        "text": "2, route de Châlons en Champagne Champagne-Ardenne\nMontmirail 51210 France",
        "iso2": "FR",
        "lat": 48.872349,
        "lon": 3.5580421
      },
      "website": "http://www.axon-cable.com"
    },
    {
      "name": "Abdex Industries Pty Ltd",
      "address": {
        "text": "139 Wedgewood Road Victoria\nHallam 3803 Australia",
        "iso2": "AU",
        "lat": -38.0156941,
        "lon": 145.259891
      },
      "website": "http://www.abdex.com"
    },
    {
      "name": "Acacia Systems",
      "address": {
        "text": "5 Butler Drive South Australia\nHendon 5014 Australia",
        "iso2": "AU",
        "lat": -34.8787947,
        "lon": 138.5150892
      },
      "website": "http://acaciasystems.com.au"
    },
    {
      "name": "Adelaide Relocations",
      "address": {
        "text": "21a Angelsey Ave St Georges South Australia\nAdelaide Australia",
        "iso2": "AU",
        "lat": -34.9505264,
        "lon": 138.6459564
      },
      "website": "http://www.adelaiderelocations.com.au"
    },
    {
      "name": "Adelard LLP",
      "address": {
        "text": "24 Waterside, 44-48 Wharf Road\nLondon N1 7UX United Kingdom",
        "iso2": "GB",
        "lat": 51.5320882,
        "lon": -0.0961636
      },
      "website": "http://www.adelard.com"
    },
    {
      "name": "Adlingtons Australia",
      "address": {
        "text": "10-14 Shipwright Road Largs North South Australia\nAdelaide 5016 Australia",
        "iso2": "AU",
        "lat": -34.8190508,
        "lon": 138.508359
      },
      "website": "http://www.adlingtons.com.au"
    },
    {
      "name": "Advanced Magnetic Ranges Australia Pty Ltd",
      "address": {
        "text": "19 Business Park Drive Victoria\nNotting Hill 3168 Australia",
        "iso2": "AU",
        "lat": -37.9019804,
        "lon": 145.1308152
      },
      "website": "https://advanced-magnetic-ranges-australia.com.au"
    },
    {
      "name": "Advanced Manufacturing Alliance",
      "address": {
        "text": "Charles Darwin University, Ellengowan Drive NT\nCasuarina 0810 Australia",
        "iso2": "AU",
        "lat": -12.371133,
        "lon": 130.869937
      },
      "website": "https://advancedmanufacturing.cdu.edu.au"
    },
    {
      "name": "Advanced Navigation",
      "address": {
        "text": "Level 8, 37 Pitt St NSW\nSydney 2000 Australia",
        "iso2": "AU",
        "lat": -33.8627464,
        "lon": 151.2088417
      },
      "website": "http://www.advancednavigation.com"
    },
    {
      "name": "Advantage Wollongong",
      "address": {
        "text": "Ground Floor, Level 1, 84 Crown St NSW\nWollongong 2500 Australia",
        "iso2": "AU",
        "lat": -34.4249425,
        "lon": 150.8986483
      },
      "website": "http://www.advantagewollongong.com.au"
    },
    {
      "name": "AeroPM - Professional Consulting",
      "address": {
        "text": "PO Box 9377 ACT\nDeakin 2600 Australia",
        "iso2": "AU",
        "lat": -35.4734679,
        "lon": 149.0123679
      },
      "website": "http://www.aeropm.net"
    },
    {
      "name": "Aeronautical & General Instruments Limited",
      "address": {
        "text": "Fleets Point, Willis Way Dorset\nPoole United Kingdom",
        "iso2": "GB",
        "lat": 50.7354376,
        "lon": -1.9868965
      },
      "website": "http://www.owenint.com.au"
    },
    {
      "name": "Aerosafe Risk Management",
      "address": {
        "text": "Level 1, 18-20 Brindabella Circuit ACT\nBrindabella Business Park Canberra Airport 2609 Australia",
        "iso2": "AU",
        "lat": -35.3107366,
        "lon": 149.1898347
      },
      "website": "http://www.aerosafe.com.au"
    },
    {
      "name": "Aeruis Marine",
      "address": {
        "text": "Lübecker Str. 128\nHamburg 22087 Germany",
        "iso2": "DE",
        "lat": 53.56342429999999,
        "lon": 10.0342789
      },
      "website": "http://www.aerius-marine.com"
    },
    {
      "name": "Air Liquide",
      "address": {
        "text": "2 rue de Clémencière - BP 15\nSassenage 38360 France",
        "iso2": "FR",
        "lat": 45.2209302,
        "lon": 5.6612049
      },
      "website": "https://advancedtech.airliquide.com"
    },
    {
      "name": "AirBerth Marketing Pty Ltd",
      "address": {
        "text": "3 Taree Street QLD\nBurleigh Heads 4220 Australia",
        "iso2": "AU",
        "lat": -28.1020036,
        "lon": 153.4221962
      },
      "website": "http://airberth.com"
    },
    {
      "name": "Airspeed Pty Ltd",
      "address": {
        "text": "2-6, Douglas Drive SA\nMawson Lakes 5095 Australia",
        "iso2": "AU",
        "lat": -34.81475440000001,
        "lon": 138.6180381
      },
      "website": "http://airspeed.com.au"
    },
    {
      "name": "Aleeda Wetsuits",
      "address": {
        "text": "1/29 Taree St QLD\nBURLEIGH HEADS 4220 Australia",
        "iso2": "AU",
        "lat": -28.1083021,
        "lon": 153.4212903
      },
      "website": "http://www.aleeda.com.au"
    },
    {
      "name": "All Sat Communications",
      "address": {
        "text": "18/111 Lewis Rd Victoria\nWantirna Sth 3152 Australia",
        "iso2": "AU",
        "lat": -37.8650599,
        "lon": 145.2520317
      },
      "website": "http://www.allsat.com.asu"
    },
    {
      "name": "Altair",
      "address": {
        "text": "Suite 512, 1 Queens Road Victoria\nMelbourne 3004 Australia",
        "iso2": "AU",
        "lat": -37.8357725,
        "lon": 144.9738764
      },
      "website": "http://www.altair.com"
    },
    {
      "name": "Amber Technology",
      "address": {
        "text": "Unit 1, 2 Daydream Street New South Wales\nWarriewood 2102 Australia",
        "iso2": "AU",
        "lat": -33.676325,
        "lon": 151.286375
      },
      "website": "http://www.ambertech.com.au"
    },
    {
      "name": "Ampcontrol",
      "address": {
        "text": "21 Old Punt Road NSW\nTomago 2322 Australia",
        "iso2": "AU",
        "lat": -32.8222521,
        "lon": 151.7066479
      },
      "website": "https://www.ampcontrolgroup.com"
    },
    {
      "name": "Analox Military Systems Ltd",
      "address": {
        "text": "Analox, 15 Ellerbeck Court, Stokesley Business Park, Stokesley North Yorkshire\nMiddlesbrough TS9 5PT United Kingdom",
        "iso2": "GB",
        "lat": 54.462336,
        "lon": -1.175869
      },
      "website": "http://www.analoxmilitarysystems.co.uk"
    },
    {
      "name": "Argyle Commercial",
      "address": {
        "text": "2 Gulson Street NSW\nGoulburn 2580 Australia",
        "iso2": "AU",
        "lat": -34.7293322,
        "lon": 149.7445354
      },
      "website": "http://www.argylece.com.au"
    },
    {
      "name": "Asia Pacific Defence Reporter (APDR)",
      "address": {
        "text": "PO Box 88 NSW\nMiranda 1490 Australia",
        "iso2": "AU",
        "lat": -34.0299364,
        "lon": 151.1055499
      },
      "website": "http://www.asiapacificdefenereporter.com"
    },
    {
      "name": "Astute Electronics Pty Ltd",
      "address": {
        "text": "Suite 208, 65 Victor Crescent VIC\nNARRE WARREN 3805 Australia",
        "iso2": "AU",
        "lat": -38.022717,
        "lon": 145.3123619
      },
      "website": "http://astute.global"
    },
    {
      "name": "Atlantic & Peninsula Australia",
      "address": {
        "text": "Building 328, Level 2, Garden Island Defence Precinct, Cowper Wharf Road New South Wales\nWoolloomooloo 2011 Australia",
        "iso2": "AU",
        "lat": -33.8692613,
        "lon": 151.2203536
      },
      "website": "http://ap-australia.com.au"
    },
    {
      "name": "Atlas Elektronik GmbH",
      "address": {
        "text": "Sebaldsbruecker Heerstr. 235\nBremen 28309 Germany",
        "iso2": "DE",
        "lat": 53.05860939999999,
        "lon": 8.8998431
      },
      "website": "http://www.atlas-elektronik.com"
    },
    {
      "name": "Atos (Australia) Pty Ltd",
      "address": {
        "text": "885 Mountain Highway Victoria\nBayswater 3153 Australia",
        "iso2": "AU",
        "lat": -37.8373642,
        "lon": 145.2806056
      },
      "website": "http://www.atos.net/australia"
    },
    {
      "name": "Auria Wireless Pty Ltd",
      "address": {
        "text": "93A Shepherd Street NSW\nChippendale 2008 Australia",
        "iso2": "AU",
        "lat": -33.887251,
        "lon": 151.1953161
      },
      "website": "https://www.auriawireless.com"
    },
    {
      "name": "Austal",
      "address": {
        "text": "100 Clarence Beach Road WA\nHenderson 6020 Australia",
        "iso2": "AU",
        "lat": -32.1447948,
        "lon": 115.7675012
      },
      "website": "http://www.austal.com"
    },
    {
      "name": "Austest Laboratories",
      "address": {
        "text": "2/9 Packard Avenue NSW\nCastle Hill 2154 Australia",
        "iso2": "AU",
        "lat": -33.7339904,
        "lon": 150.985248
      },
      "website": "http://www"
    },
    {
      "name": "Australian Defence Export Office",
      "address": {
        "text": "Building 25, Brindabella Park\nCanberra Australia",
        "iso2": "AU",
        "lat": -35.3150056,
        "lon": 149.1885287
      },
      "website": "http://www.defence.gov.au/Export/Office/"
    },
    {
      "name": "Australian Defence Technology",
      "address": {
        "text": "92 Scanlon Drive VIC\nEpping 3076 Australia",
        "iso2": "AU",
        "lat": -37.6394837,
        "lon": 144.9978028
      },
      "website": "http://www.defencetechnology.com.au"
    },
    {
      "name": "Australian Fire and Marine Services Pty Ltd",
      "address": {
        "text": "GPO Box 1120 Northern Territory\nDarwin 0801 Australia",
        "iso2": "AU",
        "lat": -12.4637333,
        "lon": 130.8444446
      }
    },
    {
      "name": "Australian Marine Complex Common User Facility",
      "address": {
        "text": "124 Quill Way Western Australia\nHenderson 6157 Australia",
        "iso2": "AU",
        "lat": -32.1598832,
        "lon": 115.7682316
      },
      "website": "http://www.australianmarinecomplex.com.au"
    },
    {
      "name": "Australian Maritime College",
      "address": {
        "text": "Maritime Way, Newnham TAS\nLaunceston 7248 Australia",
        "iso2": "AU",
        "lat": -41.4009841,
        "lon": 147.1218004
      },
      "website": "http://www.amc.edu.au"
    },
    {
      "name": "Australian Maritime College at the University of Tasmania",
      "address": {
        "text": "Maritime Way Tas\nNewnham 7248 Australia",
        "iso2": "AU",
        "lat": -41.4009841,
        "lon": 147.1218004
      },
      "website": "https://www.amc.edu.au/about-amc"
    },
    {
      "name": "Australian Maritime Technologies",
      "address": {
        "text": "Level 17, 607 Bourke Street VIC\nMelbourne 3000 Australia",
        "iso2": "AU",
        "lat": -37.816774,
        "lon": 144.955539
      },
      "website": "http://www.ausmarinetech.com.au"
    },
    {
      "name": "Australian Naval Infrastructure",
      "address": {
        "text": "Level 2, 220 Commercial Road SA\nPort Adelaide 5017 Australia",
        "iso2": "AU",
        "lat": -34.8483014,
        "lon": 138.505074
      },
      "website": "http://www.ani.com.au"
    },
    {
      "name": "Australian Pump Industries",
      "address": {
        "text": "7 Gladstone Road NSW\nCastle Hill 2154 Australia",
        "iso2": "AU",
        "lat": -33.7327548,
        "lon": 150.9764924
      },
      "website": "http://www.aussiepumps.com.au"
    },
    {
      "name": "Australian Shipbuilding & Repair Group",
      "address": {
        "text": "PO Box 756 Qld\nAshmore City 4214 Australia",
        "iso2": "AU",
        "lat": -27.9780639,
        "lon": 153.3808068
      },
      "website": "http://www.asrg.asn.au"
    },
    {
      "name": "Avon Protection",
      "address": {
        "text": "Hampton Park West Wiltshire\nMelksham United Kingdom",
        "iso2": "GB",
        "lat": 51.3545249,
        "lon": -2.1409674
      },
      "website": "http://www.owenint.com.au"
    },
    {
      "name": "Axiom Precision Manufacturing",
      "address": {
        "text": "13-19 Johansson Road, Wingfield South Australia\nAdelaide 5013 Australia",
        "iso2": "AU",
        "lat": -34.8439426,
        "lon": 138.5694266
      },
      "website": "http://www.axiompm.com.au"
    },
    {
      "name": "B&R Enclosures",
      "address": {
        "text": "51 Stradbroke St Queensland\nHeathwood 4110 Australia",
        "iso2": "AU",
        "lat": -27.6398441,
        "lon": 152.9785209
      },
      "website": "http://defence.brenclosures.com.au"
    },
    {
      "name": "BAE Systems",
      "address": {
        "text": "1 Taranaki Road SA\nEdinburgh Parks 5111 Australia",
        "iso2": "AU",
        "lat": -34.7183036,
        "lon": 138.6471527
      },
      "website": "http://www.baesystems.com"
    },
    {
      "name": "BAUER KOMPRESSOREN Australia",
      "address": {
        "text": "19 Cavasinnin Place NW\nWetherill Park 2164 Australia",
        "iso2": "AU",
        "lat": -33.8461895,
        "lon": 150.8804724
      },
      "website": "http://www.bauer-kompressoren.com.au"
    },
    {
      "name": "BEP Marine",
      "address": {
        "text": "42 Apollo Drive, Rosedale\nAuckland 1081 New Zealand",
        "iso2": "NZ",
        "lat": -36.7440036,
        "lon": 174.7298421
      },
      "website": "http://www.czone.net"
    },
    {
      "name": "BESSE",
      "address": {
        "text": "46bis rue des Hauts Paves\nNANTES 44000 France",
        "iso2": "FR",
        "lat": 47.2252722,
        "lon": -1.5654558
      },
      "website": "http://www.besse.fr"
    },
    {
      "name": "BMT",
      "address": {
        "text": "Level 5, 99 King St VIC\nMelbourne 3000 Australia",
        "iso2": "AU",
        "lat": -37.8177216,
        "lon": 144.9559781
      },
      "website": "http://www.bmt.org"
    },
    {
      "name": "BRE Engineering",
      "address": {
        "text": "U2 / 22 Hines Road Western Australia\nO'Connor 6163 Australia",
        "iso2": "AU",
        "lat": -32.0601685,
        "lon": 115.7845612
      },
      "website": "https://www.bre.engineering"
    },
    {
      "name": "BRONSWERK MARINE INC.",
      "address": {
        "text": "4050 Place de Java Quebec\nBrossard J4Y 0C4 Canada",
        "iso2": "CA",
        "lat": 45.4316593,
        "lon": -73.4590836
      },
      "website": "http://www.bronswerkgroup.com"
    },
    {
      "name": "BSE Maritime Solutions",
      "address": {
        "text": "61-79 Cook Street Queensland\nPortsmith 4870 Australia",
        "iso2": "AU",
        "lat": -16.9417581,
        "lon": 145.773543
      },
      "website": "http://www.bse.net.au"
    },
    {
      "name": "BUREAU VERITAS",
      "address": {
        "text": "8 cours du Triangle\nPUTEAUX 92800 France",
        "iso2": "FR",
        "lat": 48.89429029999999,
        "lon": 2.2365385
      },
      "website": "https://group.bureauveritas.com"
    },
    {
      "name": "Babcock",
      "address": {
        "text": "Level 9 70 Franklin Street SA\nAdelaide 5000 Australia",
        "iso2": "AU",
        "lat": -34.9271051,
        "lon": 138.5967613
      },
      "website": "http://www.babcock.com.au"
    },
    {
      "name": "Baker & Provan",
      "address": {
        "text": "9-11 Power Street NSW\nSt Marys 2760 Australia",
        "iso2": "AU",
        "lat": -33.7492031,
        "lon": 150.7749138
      },
      "website": "http://www.bakerprovan.com.au"
    },
    {
      "name": "Bayside Personnel",
      "address": {
        "text": "lvl 3 / 484 St. Kilda Rd Vic\nMelbourne 3004 Australia",
        "iso2": "AU",
        "lat": -37.8431638,
        "lon": 144.977241
      },
      "website": "http://www.baysidepersonnel.com.au"
    },
    {
      "name": "BecTech",
      "address": {
        "text": "908 King Street, Suite LL VA\nAlexandria 22314 United States",
        "iso2": "US",
        "lat": 38.8051877,
        "lon": -77.04959269999999
      },
      "website": "http://www.bectech.com"
    },
    {
      "name": "Beca",
      "address": {
        "text": "Level 11, 44 Market Street NSW\nSydney 2000 Australia",
        "iso2": "AU",
        "lat": -33.8705581,
        "lon": 151.2059605
      },
      "website": "http://www.beca.com"
    },
    {
      "name": "Bentleys R&D",
      "address": {
        "text": "L5, 63 Pirie St SA\nAdelaide 5001 Australia",
        "iso2": "AU",
        "lat": -34.9259898,
        "lon": 138.6023258
      },
      "website": "https://www.bentleys.com.au/solutions/rd-incentives-innovation/"
    },
    {
      "name": "Bhagwan Marine",
      "address": {
        "text": "Level 3, 251 St Georges Terrace, Western Australia\nPerth 6000 Australia",
        "iso2": "AU",
        "lat": -31.9529368,
        "lon": 115.8498659
      },
      "website": "https://www.bhagwanmarine.com"
    },
    {
      "name": "Bilba Group",
      "address": {
        "text": "890 Stuart Highway NT\nDarwin 0822 Australia",
        "iso2": "AU",
        "lat": -12.4568987,
        "lon": 130.9668317
      },
      "website": "http://www.bilbagroup.com"
    },
    {
      "name": "Bisalloy Steels",
      "address": {
        "text": "18 Resolution Drive, Unanderra NSW\nWollongong 2526 Australia",
        "iso2": "AU",
        "lat": -34.4556483,
        "lon": 150.8544847
      },
      "website": "http://www.bisalloy.com.au"
    },
    {
      "name": "Blacktree Technology Pty Ltd",
      "address": {
        "text": "Unit 4, 8 Fisher Street WA\nBelmont 6104 Australia",
        "iso2": "AU",
        "lat": -31.9523854,
        "lon": 115.9282476
      },
      "website": "http://www.blacktree.com.au"
    },
    {
      "name": "BlueZone Group",
      "address": {
        "text": "21 Huntingdale Drive NSW\nThornton 2322 Australia",
        "iso2": "AU",
        "lat": -32.7857738,
        "lon": 151.6352884
      },
      "website": "https://www.bluezonegroup.com.au"
    },
    {
      "name": "Blueprint Lab",
      "address": {
        "text": "3 Applebee St NSW\nSt Peters 2044 Australia",
        "iso2": "AU",
        "lat": -33.9093105,
        "lon": 151.179967
      },
      "website": "http://www.blueprintlab.com"
    },
    {
      "name": "Boeing",
      "address": {
        "text": "Level 10, Exchange House, 10 Bridge Street NSW\nSydney 2000 Australia",
        "iso2": "AU",
        "lat": -33.8633957,
        "lon": 151.2081836
      },
      "website": "http://www.boeing.com.au"
    },
    {
      "name": "Bohemia Interactive Simulations",
      "address": {
        "text": "Building A, Unit 2, 1 Technology Place New South Wales\nWilliamtown 2318 Australia",
        "iso2": "AU",
        "lat": -32.8097017,
        "lon": 151.8432525
      },
      "website": "http://www.bisimulations.com"
    },
    {
      "name": "Bollore Logistics Australia",
      "address": {
        "text": "Unit 14 & 15, 2-12 Beauchamp Road, BANKSMEADOW NSW\nSydney 2019 Australia",
        "iso2": "AU",
        "lat": -33.95961,
        "lon": 151.219755
      },
      "website": "http://bollore-logistics.com"
    },
    {
      "name": "Boomeranger Boats Oy",
      "address": {
        "text": "Troolitie 12 Uusimaa\nValko FI-07910 Finland",
        "iso2": "FI",
        "lat": 60.3999093,
        "lon": 26.2602958
      },
      "website": "http://www.boomeranger.fi"
    },
    {
      "name": "Britton Maritime System",
      "address": {
        "text": "1/260 Captain Cook Drive KURNELL New South Wales\nSYDNEY 2229 Australia",
        "iso2": "AU",
        "lat": -34.0243142,
        "lon": 151.1748503
      }
    },
    {
      "name": "Broadspectrum",
      "address": {
        "text": "Level 8, 80 Pacific Highway NSW\nNorth Sydney 2060 Australia",
        "iso2": "AU",
        "lat": -33.8406525,
        "lon": 151.2081622
      },
      "website": "http://www.broadspectrum.com"
    },
    {
      "name": "BtB Marine",
      "address": {
        "text": "16-18 Driftwood Ct QLD\nUrangan 4655 Australia",
        "iso2": "AU",
        "lat": -25.3079372,
        "lon": 152.8905361
      },
      "website": "http://www.btbmarine.com"
    },
    {
      "name": "Butchart Marine Services",
      "address": {
        "text": "PO Box 3036 NSW\nAllambie Heights 2100 Australia",
        "iso2": "AU",
        "lat": -33.7654848,
        "lon": 151.250911
      },
      "website": "http://www.butchartmarineservices.com.au"
    },
    {
      "name": "C.E.& A. Co. Pty. Ltd.",
      "address": {
        "text": "5 Schenker Drive South Australia\nRoyal Park 5014 Australia",
        "iso2": "AU",
        "lat": -34.8635204,
        "lon": 138.505166
      },
      "website": "http://www.ceaco.com.au"
    },
    {
      "name": "CADMATIC",
      "address": {
        "text": "Osloweg 110\nGroningen Netherlands",
        "iso2": "NL",
        "lat": 53.2151195,
        "lon": 6.6015921
      }
    },
    {
      "name": "CAE",
      "address": {
        "text": "P O Box 6650 NSW\nSilverwater DC 1811 Australia",
        "iso2": "AU",
        "lat": -33.8339902,
        "lon": 151.0482995
      }
    },
    {
      "name": "CBG Systems Pty Ltd",
      "address": {
        "text": "9 Bender Drive Tasmania\nDerwent Park 7009 Australia",
        "iso2": "AU",
        "lat": -42.8284477,
        "lon": 147.3046616
      },
      "website": "http://www.cbgsystems.com"
    },
    {
      "name": "CEA Technologies Pty Limited",
      "address": {
        "text": "59-65 Gladstone Street ACT\nFYSHWICK 2609 Australia",
        "iso2": "AU",
        "lat": -35.323893,
        "lon": 149.182232
      },
      "website": "http://www.cea.com.au"
    },
    {
      "name": "CIVSEC 2020",
      "address": {
        "text": "PO Box 4095 Victoria\nGeelong 3220 Australia",
        "iso2": "AU",
        "lat": -38.1492994,
        "lon": 144.3598426
      },
      "website": "http://www.civsec.com.au"
    },
    {
      "name": "CNIM",
      "address": {
        "text": "Rue de Bassano\nParis France",
        "iso2": "FR",
        "lat": 48.8698204,
        "lon": 2.2983825
      },
      "website": "http://www.owenint.com.au"
    },
    {
      "name": "CPT Engineering",
      "address": {
        "text": "18 Thompson Avenue George Town TAS\nTAS 7253 Australia",
        "iso2": "AU",
        "lat": -41.1136122,
        "lon": 146.8366315
      },
      "website": "http://www.cptengineering.com.au"
    },
    {
      "name": "Cablex Pty Ltd",
      "address": {
        "text": "UNIT 8, 236-262 EAST BOUNDARY ROAD Victoria\nEAST BENTLEIGH 3165 Australia",
        "iso2": "AU",
        "lat": -37.9117978,
        "lon": 145.0632922
      },
      "website": "http://www.cablex.com.au"
    },
    {
      "name": "Cadgile",
      "address": {
        "text": "320 Port Rd S.A.\nHindmarsh 5007 Australia",
        "iso2": "AU",
        "lat": -34.9029514,
        "lon": 138.5678488
      },
      "website": "http://www.cadgile.com.au"
    },
    {
      "name": "Canada",
      "address": {
        "text": "C/- Commonwealth Avenue ACT\nCanberra 2600 Australia",
        "iso2": "AU",
        "lat": -35.2944397,
        "lon": 149.1265266
      },
      "website": "https://www.tradecommissioner.gc.ca/australia-australie/index.aspx?lang=eng"
    },
    {
      "name": "Capability Acquisition and Sustainment Group",
      "address": {
        "text": "Russell Offices ACT\nCanberra 2600 Australia",
        "iso2": "AU",
        "lat": -35.3013,
        "lon": 149.1504645
      }
    },
    {
      "name": "Centre for Defence Industry Capability",
      "address": {
        "text": "10 Binara Street ACT\nCanberra City 2601 Australia",
        "iso2": "AU",
        "lat": -35.281791,
        "lon": 149.1338667
      },
      "website": "http://www.business.gov.au/cdic"
    },
    {
      "name": "Century Engineering",
      "address": {
        "text": "95 Womma Road South Australia\nEdinburgh North 5113 Australia",
        "iso2": "AU",
        "lat": -34.6992607,
        "lon": 138.6577263
      },
      "website": "http://www.cenman.com.au"
    },
    {
      "name": "Chess Dynamics",
      "address": {
        "text": "North Heath Lane West Sussex\nHorsham United Kingdom",
        "iso2": "GB",
        "lat": 51.0802665,
        "lon": -0.3163437
      },
      "website": "http://www.owenint.com.au"
    },
    {
      "name": "Chief Fluid Systems Pty Ltd",
      "address": {
        "text": "42/85 - 115 Alfred Road NSW\nChipping Norton 2170 Australia",
        "iso2": "AU",
        "lat": -33.9224004,
        "lon": 150.9585092
      },
      "website": "http://www.chieffluidsystems.com.au"
    },
    {
      "name": "Chiron Global Technologies Pty Ltd",
      "address": {
        "text": "S1802 L18 9 Hunter Street NSW\nSydney 2000 Australia",
        "iso2": "AU",
        "lat": -33.8657843,
        "lon": 151.2078122
      },
      "website": "http://chironglobal.com"
    },
    {
      "name": "Chironix",
      "address": {
        "text": "Mingle, 674 Wellington Street Western Australia\nPerth 6000 Australia",
        "iso2": "AU",
        "lat": -31.9487591,
        "lon": 115.8526287
      },
      "website": "http://chironix.com"
    },
    {
      "name": "Cirrus Materials Science",
      "address": {
        "text": "5b Target Court Auckland\nWairau Valley 0627 New Zealand",
        "iso2": "NZ",
        "lat": -36.7654972,
        "lon": 174.7354374
      },
      "website": "https://cirrusmaterials.com"
    },
    {
      "name": "Civmec",
      "address": {
        "text": "16 Nautical Drive WA\nHenderson 6166 Australia",
        "iso2": "AU",
        "lat": -32.1659018,
        "lon": 115.7720808
      },
      "website": "http://www.civmec.com.au"
    },
    {
      "name": "Codarra Advanced Systems Pty Ltd",
      "address": {
        "text": "Level 1, 251 Crawford Street NSW\nQueanbeyan 2620 Australia",
        "iso2": "AU",
        "lat": -35.3544417,
        "lon": 149.2343398
      },
      "website": "http://www.codarra.com.au"
    },
    {
      "name": "Cold Logic Pty Ltd",
      "address": {
        "text": "24 Francis Street South Australia\nPort Adelaide 5015 Australia",
        "iso2": "AU",
        "lat": -34.8404143,
        "lon": 138.5180196
      },
      "website": "http://www.coldlogic.com.au"
    },
    {
      "name": "Combitel",
      "address": {
        "text": "347 Bay Rd Victoria\nCheltenham 3192 Australia",
        "iso2": "AU",
        "lat": -37.9558714,
        "lon": 145.0411123
      },
      "website": "https://www.combitel.com.au"
    },
    {
      "name": "Commercial ROV Australia",
      "address": {
        "text": "Unit 2, 244 Camboon Road WA\nMalaga 6090 Australia",
        "iso2": "AU",
        "lat": -31.8582838,
        "lon": 115.8884197
      },
      "website": "http://www.commercialrov.com.au"
    },
    {
      "name": "Copper Alloys+",
      "address": {
        "text": "Glendale Street\nStoke-on-Trent United Kingdom",
        "iso2": "GB",
        "lat": 53.0423402,
        "lon": -2.1923736
      },
      "website": "http://www.copperalloys.net"
    },
    {
      "name": "Coyard",
      "address": {
        "text": "1 rue de la nouette\nBeaucouze 49070 France",
        "iso2": "FR",
        "lat": 47.46037099999999,
        "lon": -0.6240795
      },
      "website": "http://www.coyard.fr"
    },
    {
      "name": "Craig International Ballistics",
      "address": {
        "text": "4 Harrington Street QLD\nArundel 4214 Australia",
        "iso2": "AU",
        "lat": -27.9311484,
        "lon": 153.3691564
      },
      "website": "http://www.ballistics.com.au"
    },
    {
      "name": "Crystal Group Inc",
      "address": {
        "text": "855 Metzger Drive Iowa (IA)\nHiawatha 52233 United States",
        "iso2": "US",
        "lat": 42.0563186,
        "lon": -91.6813569
      },
      "website": "http://crystalrugged.com"
    },
    {
      "name": "Current",
      "address": {
        "text": "2933 Murray St BC\nPort Moody V3H 1X3 Canada",
        "iso2": "CA",
        "lat": 49.2783294,
        "lon": -122.8456695
      },
      "website": "http://www.currentcorp.com"
    },
    {
      "name": "Customs Agency Services",
      "address": {
        "text": "273 Sir Donald Bradman Drive, Cowandilla South Australia\nAdelaide 5033 Australia",
        "iso2": "AU",
        "lat": -34.9329318,
        "lon": 138.5535486
      },
      "website": "http://www.caspl.com.au"
    },
    {
      "name": "DECO Industrial",
      "address": {
        "text": "67-77 Aids Road NSW\nMinto 2566 Australia",
        "iso2": "AU",
        "lat": -34.031726,
        "lon": 150.8474521
      },
      "website": "http://deco.net.au/protective-coatings"
    },
    {
      "name": "DETEGASA",
      "address": {
        "text": "Carretera Castro Meiras S/N A Coruna\nValdovino 15550 Spain",
        "iso2": "ES",
        "lat": 43.5850705,
        "lon": -8.1932271
      },
      "website": "http://www.detegasa.com"
    },
    {
      "name": "DEWC Systems",
      "address": {
        "text": "Innovation House 50 Mawson Lakes Blvd SA\nMawson Lakes 5095 Australia",
        "iso2": "AU",
        "lat": -34.8139723,
        "lon": 138.6204081
      },
      "website": "http://www.dewc.com"
    },
    {
      "name": "DEWC T&E",
      "address": {
        "text": "Innovation House 50 MAwson Lakes Blvd SA\nMawson Lakes 5095 Australia",
        "iso2": "AU",
        "lat": -34.8139723,
        "lon": 138.6204081
      },
      "website": "http://www.dewc.com"
    },
    {
      "name": "DIGINEXT",
      "address": {
        "text": "Les Hauts de la Duranne, 370 rue René Descartes FRANCE\nAix-en-Provence 13857 France",
        "iso2": "FR",
        "lat": 43.4935395,
        "lon": 5.343552499999999
      },
      "website": "https://www.diginext.fr/en/"
    },
    {
      "name": "DIT Defence & Security Organisation",
      "address": {
        "text": "3 Whitehall Place\nLondon SW1A 2AW United Kingdom",
        "iso2": "GB",
        "lat": 51.50633029999999,
        "lon": -0.1241018
      },
      "website": "http://www.gov.uk/dit-dso"
    },
    {
      "name": "DMTC Limited",
      "address": {
        "text": "Level 2, 24 Wakefield Street VIC\nHawthorn 3095 Australia",
        "iso2": "AU",
        "lat": -37.8212231,
        "lon": 145.0380617
      },
      "website": "http://www.dmtc.com.au"
    },
    {
      "name": "DNV GL Australia",
      "address": {
        "text": "Level 7, 124 Walker St NSW\nNorth Sydney 2060 Australia",
        "iso2": "AU",
        "lat": -33.8373281,
        "lon": 151.2088695
      },
      "website": "https://www.dnvgl.com/maritime/index.html"
    },
    {
      "name": "DSIT Solutions",
      "address": {
        "text": "2 Rechavam Ze'evi\nGivat Shmuel 5401852 Israel",
        "iso2": "IL",
        "lat": 32.0778111,
        "lon": 34.8457629
      },
      "website": "https://dsit.co.il"
    },
    {
      "name": "Damen Shipyards Group",
      "address": {
        "text": "Avelingen West 20\nGorinchem 4202 MS Netherlands",
        "iso2": "NL",
        "lat": 51.83393359999999,
        "lon": 4.936869
      },
      "website": "http://www.damen.com"
    },
    {
      "name": "Daronmont Technologies",
      "address": {
        "text": "25 Park Way SA\nMawson Lakes 5095 Australia",
        "iso2": "AU",
        "lat": -34.8170555,
        "lon": 138.6151237
      },
      "website": "http://www.daronmont.com.au"
    },
    {
      "name": "Dassault Systemes",
      "address": {
        "text": "10 William street Victoria\nMelbourne 3000 Australia",
        "iso2": "AU",
        "lat": -37.8188417,
        "lon": 144.9599264
      },
      "website": "http://www.3ds.com"
    },
    {
      "name": "Decision Sciences",
      "address": {
        "text": "12345 First American Way Poway California\nPoway 92064 United States",
        "iso2": "US",
        "lat": 32.9417501,
        "lon": -117.0206514
      },
      "website": "https://decisionsciences.com"
    },
    {
      "name": "Defence Connect",
      "address": {
        "text": "Level 13, 132 Arthur street New South Wales\nNorth sydney 2060 Australia",
        "iso2": "AU",
        "lat": -33.8385218,
        "lon": 151.2098457
      },
      "website": "http://www.defenceconnect.com.au"
    },
    {
      "name": "Defence Industry Security Program",
      "address": {
        "text": "Department of Defence ACT\nCanberra Australia",
        "iso2": "AU",
        "lat": -35.2801903,
        "lon": 149.1310038
      },
      "website": "http://www.defence.gov.au/dsvs/industry/"
    },
    {
      "name": "Defence Innovation Hub",
      "address": {
        "text": "Department of Defence ACT\nCanberra Australia",
        "iso2": "AU",
        "lat": -35.2801903,
        "lon": 149.1310038
      },
      "website": "http://www.innovationhub.defence.gov.au"
    },
    {
      "name": "Defence Innovation Network",
      "address": {
        "text": "PO Box 123 NSW\nBroadway 2007 Australia",
        "iso2": "AU",
        "lat": -33.8842456,
        "lon": 151.1983383
      }
    },
    {
      "name": "Defence Innovation Partnership",
      "address": {
        "text": "Level 4, 151 Pirie Street SA\nAdelaide 5000 Australia",
        "iso2": "AU",
        "lat": -34.9258356,
        "lon": 138.6054673
      },
      "website": "https://www.defenceinnovationpartnership.com"
    },
    {
      "name": "Defence SA",
      "address": {
        "text": "Level 4, 151 Pirie Street SA\nAdelaide 5000 Australia",
        "iso2": "AU",
        "lat": -34.9258356,
        "lon": 138.6054673
      },
      "website": "http://www.defencesa.com"
    },
    {
      "name": "Defence Science Institute",
      "address": {
        "text": "204 Lygon St Vic\nCarlton 3053 Australia",
        "iso2": "AU",
        "lat": -37.8003886,
        "lon": 144.9665002
      },
      "website": "http://www.defencescienceinstitute.com"
    },
    {
      "name": "Defence Science and Technology (DST)",
      "address": {
        "text": "24 Scherger Drive ACT\nCanberra Australia",
        "iso2": "AU",
        "lat": -35.3052161,
        "lon": 149.2044002
      },
      "website": "http://www.dst.defence.gov.au"
    },
    {
      "name": "Defence Tasmania",
      "address": {
        "text": "GPO Box 536 Tasmania\nHobart 7001 Australia",
        "iso2": "AU",
        "lat": -42.8826055,
        "lon": 147.3257196
      },
      "website": "https://www.stategrowth.tas.gov.au/business/sectors/defence"
    },
    {
      "name": "Defence Teaming Centre",
      "address": {
        "text": "Lot Fourteen, Frome Road SA\nAdelaide 5000 Australia",
        "iso2": "AU",
        "lat": -34.920865,
        "lon": 138.6082819
      },
      "website": "http://www.dtc.org.au"
    },
    {
      "name": "Defence West",
      "address": {
        "text": "Level 6, 1 Adelaide Terrace WA\nPerth 6004 Australia",
        "iso2": "AU",
        "lat": -31.9621472,
        "lon": 115.8763206
      },
      "website": "https://www.jtsi.wa.gov.au/economic-development/defence-west-homepage"
    },
    {
      "name": "Defence Work Experience",
      "address": {
        "text": "PO Box 7925 ACT\nCanberra BC 2610 Australia",
        "iso2": "AU",
        "lat": -35.2801903,
        "lon": 149.1310038
      },
      "website": "http://www.defence.gov.au/workexperience"
    },
    {
      "name": "Direct Edge Manufacturing",
      "address": {
        "text": "47-53 Strahan Street TAS\nBurnie 7320 Australia",
        "iso2": "AU",
        "lat": -41.0607609,
        "lon": 145.90992
      },
      "website": "http://www.directedge.com.au"
    },
    {
      "name": "Diver DACAD Systems Limited",
      "address": {
        "text": "PO Box 259007 East Tamaki\nAuckland 2163 New Zealand",
        "iso2": "NZ",
        "lat": -36.9432736,
        "lon": 174.8936601
      },
      "website": "http://www.dacad.com"
    },
    {
      "name": "Dobbie",
      "address": {
        "text": "430 Victoria Rd WA\nMalaga 6160 Australia",
        "iso2": "AU",
        "lat": -31.8624582,
        "lon": 115.9062378
      },
      "website": "https://dobbie.com.au"
    },
    {
      "name": "Doen WaterJets",
      "address": {
        "text": "33 Venture Way VIC\nBraeside 3195 Australia",
        "iso2": "AU",
        "lat": -37.9990561,
        "lon": 145.1180563
      },
      "website": "https://doen.com"
    },
    {
      "name": "Draeger Australia Pty. Ltd.",
      "address": {
        "text": "8 Acacia Place VIC\nMelbourne 3168 Australia",
        "iso2": "AU",
        "lat": -37.9032988,
        "lon": 145.1339621
      },
      "website": "http://www.draeger.com"
    },
    {
      "name": "DroneShield",
      "address": {
        "text": "Level 5, 126 Phillip St NSW\nSydney 2000 Australia",
        "iso2": "AU",
        "lat": -33.866861,
        "lon": 151.211639
      },
      "website": "http://www.droneshield.com"
    },
    {
      "name": "Dumbwaiters Australia",
      "address": {
        "text": "Unit22, 200 Boundary Road Victoria\nBraeside 3195 Australia",
        "iso2": "AU",
        "lat": -37.9947753,
        "lon": 145.1086168
      },
      "website": "http://www.dumbwaiters.com.au"
    },
    {
      "name": "ECA GROUP",
      "address": {
        "text": "262 rue des Frères Lumière ZI TOULON EST\nLA GARDE 83130 France",
        "iso2": "FR",
        "lat": 43.1414561,
        "lon": 6.0338008
      },
      "website": "http://www.ecagroup.com"
    },
    {
      "name": "EM Solutions",
      "address": {
        "text": "55 Curzon Street QLD\nTENNYSON 4105 Australia",
        "iso2": "AU",
        "lat": -27.5292177,
        "lon": 153.0039965
      },
      "website": "http://www.emsolutions.com.au"
    },
    {
      "name": "ENGIE Axima",
      "address": {
        "text": "C/- Sydney City Marine, Lot 34 James Craig Road, Rozelle NSW\nSydney 0624 Australia",
        "iso2": "AU",
        "lat": -33.8681598,
        "lon": 151.1831034
      }
    },
    {
      "name": "ERGT Australia",
      "address": {
        "text": "45 Burns Road VIC\nAltona 3018 Australia",
        "iso2": "AU",
        "lat": -37.849266,
        "lon": 144.790407
      },
      "website": "http://www.ergt.edu.au"
    },
    {
      "name": "EUROCONTROL SPA",
      "address": {
        "text": "Via Varenna 52/A\nGenova 16155 Italy",
        "iso2": "IT",
        "lat": 44.4351434,
        "lon": 8.8187475
      },
      "website": "http://www.eurocontrol-spa.com"
    },
    {
      "name": "EURONAVAL by GICAN",
      "address": {
        "text": "10 rue Treilhard\nParis 75008 France",
        "iso2": "FR",
        "lat": 48.8771679,
        "lon": 2.3143676
      },
      "website": "http://www.euronaval.fr"
    },
    {
      "name": "Electromek",
      "address": {
        "text": "Unit 2, 32 Simper Crs South Australia\nMount Barker 5251 Australia",
        "iso2": "AU",
        "lat": -35.0720604,
        "lon": 138.8781676
      },
      "website": "http://www.electromek.com.au"
    },
    {
      "name": "Electromet",
      "address": {
        "text": "879 Commonwealth Ave MD\nHagerstown 21740 United States",
        "iso2": "US",
        "lat": 39.625685,
        "lon": -77.7109133
      },
      "website": "http://www.electromet.com"
    },
    {
      "name": "Electrotech Australia",
      "address": {
        "text": "37/9 Powells Road NSW\nBrookvale 2100 Australia",
        "iso2": "AU",
        "lat": -33.7664335,
        "lon": 151.2724749
      },
      "website": "http://www.electrotech.net.au"
    },
    {
      "name": "Energy Power Systems Australia Pty. Ltd. (CATERPILLAR)",
      "address": {
        "text": "118 Daddow Road, Kewdale WA 6105 WA\nPerth 6105 Australia",
        "iso2": "AU",
        "lat": -31.98576869999999,
        "lon": 115.9808891
      },
      "website": "http://www.energypower.com.au"
    },
    {
      "name": "Engineers australia",
      "address": {
        "text": "8 Thomas Street NSW\nChatswood 2067 Australia",
        "iso2": "AU",
        "lat": -33.7982217,
        "lon": 151.1803431
      },
      "website": "https://www.engineersaustralia.org.au"
    },
    {
      "name": "Entech Electronics Pty Ltd",
      "address": {
        "text": "Entech Electronics, 37 Belford Avenue SA\nDevon Park 5008 Australia",
        "iso2": "AU",
        "lat": -34.8884515,
        "lon": 138.5811533
      },
      "website": "http://www.entechelectronics.com.au"
    },
    {
      "name": "Envirofluid",
      "address": {
        "text": "39 Coghlans Road VIC\nWarrnambool 3280 Australia",
        "iso2": "AU",
        "lat": -38.3525297,
        "lon": 142.4619111
      },
      "website": "http://www.envirofluid.com"
    },
    {
      "name": "Escribano Mechanical & Engineering",
      "address": {
        "text": "Avda. Punto Es, 10 Madrid\nAlcala de Henares 28805 Spain",
        "iso2": "ES",
        "lat": 40.515127,
        "lon": -3.3430272
      },
      "website": "http://www.eme-es.com"
    },
    {
      "name": "Etherstack Pty Ltd",
      "address": {
        "text": "93A Shepherd Street NSW\nChippendale 2008 Australia",
        "iso2": "AU",
        "lat": -33.887251,
        "lon": 151.1953161
      },
      "website": "https://www.etherstack.com/anz/"
    },
    {
      "name": "Eurotorp",
      "address": {
        "text": "399 Route des Cretes 'Les Bouilides' France\nSophia Antipolis 06902 France",
        "iso2": "FR",
        "lat": 43.6221661,
        "lon": 7.0311942
      }
    },
    {
      "name": "Expleo",
      "address": {
        "text": "3 avenue des Prés\nMontigny-le-Bretonneux 78180 France",
        "iso2": "FR",
        "lat": 48.7873447,
        "lon": 2.0457966
      },
      "website": "https://expleogroup.com"
    },
    {
      "name": "Ezy-Fit Engineering",
      "address": {
        "text": "10 Cheviot Road SA\nSalisbury South 5106 Australia",
        "iso2": "AU",
        "lat": -34.7805613,
        "lon": 138.6475467
      },
      "website": "http://www.ezyfit.com.au"
    },
    {
      "name": "Faircount Media Group",
      "address": {
        "text": "8/290 Botany Road NSW\nAlexandria 2015 Australia",
        "iso2": "AU",
        "lat": -33.9088531,
        "lon": 151.202793
      },
      "website": "http://www.faircount.com"
    },
    {
      "name": "Ferra Engineering Pty Ltd",
      "address": {
        "text": "344 New Cleveland Road Queensland\nTingalpa 4173 Australia",
        "iso2": "AU",
        "lat": -27.482517,
        "lon": 153.1405311
      },
      "website": "http://www.ferra.com.au"
    },
    {
      "name": "Fiomarine Industries",
      "address": {
        "text": "30-38 Innovation Drive, TAS\nGlenorchy 7010 Australia",
        "iso2": "AU",
        "lat": -42.8234244,
        "lon": 147.3027472
      },
      "website": "http://www.fiomarine.com"
    },
    {
      "name": "First Marine International (FMI)",
      "address": {
        "text": "2 Abbey Gardens Great College Street Westminster\nLondon SW1P 3NL United Kingdom",
        "iso2": "GB",
        "lat": 51.4977968,
        "lon": -0.1270241
      },
      "website": "http://www.royalhaskoningdhv.com/en/first-marine-international"
    },
    {
      "name": "Flinders University",
      "address": {
        "text": "1284 South Road South Australia\nClovelly Park 5042 Australia",
        "iso2": "AU",
        "lat": -35.0073062,
        "lon": 138.5752841
      },
      "website": "http://flinders.edu.au"
    },
    {
      "name": "FlowTech Australia Pty Ltd",
      "address": {
        "text": "32/176 South Creek Road Australia\nCromer 2099 Australia",
        "iso2": "AU",
        "lat": -33.7370955,
        "lon": 151.2827625
      },
      "website": "http://flowtec.net.au"
    },
    {
      "name": "Franmarine",
      "address": {
        "text": "13 Possner Way Western Australia\nHenderson 6166 Australia",
        "iso2": "AU",
        "lat": -32.1533026,
        "lon": 115.777905
      },
      "website": "http://www.franmarine.com.au"
    },
    {
      "name": "Frontline Manufacturing",
      "address": {
        "text": "1-15 Beal St Meadowbrook Queensland\nBrisbane 4131 Australia",
        "iso2": "AU",
        "lat": -27.6598362,
        "lon": 153.1329844
      },
      "website": "http://www.frontlinemanufacturing.com.au"
    },
    {
      "name": "Frontline Safety Australia Pty Ltd",
      "address": {
        "text": "Unit 4, Building D,, 45 Fitzroy Street NSW\nCARRINGTON 2294 Australia",
        "iso2": "AU",
        "lat": -32.9186725,
        "lon": 151.7629967
      },
      "website": "http://www.frontlinesafety.com.au"
    },
    {
      "name": "Fyfe",
      "address": {
        "text": "2/124 South Tce SA\nAdelaide 5000 Australia",
        "iso2": "AU",
        "lat": -34.9355562,
        "lon": 138.6026901
      },
      "website": "http://www.fyfe.com.au"
    },
    {
      "name": "GE POWER CONVERSION",
      "address": {
        "text": "PROJECTS DRIVE WARWICKSHIRE\nRUGBY CV21 1BU United Kingdom",
        "iso2": "GB",
        "lat": 52.3868324,
        "lon": -1.2522045
      },
      "website": "http://www.gepowerconversion.com"
    },
    {
      "name": "GLAMOX/ AQUA SIGNAL AND VERSALUX MARINE",
      "address": {
        "text": "28 Edgerton Road VIC\nMitcham 3132 Australia",
        "iso2": "AU",
        "lat": -37.8123865,
        "lon": 145.2034237
      },
      "website": "http://www.versaluxmarine.com.au"
    },
    {
      "name": "GME",
      "address": {
        "text": "17 Gibbon Road NSW\nWinston Hills 2153 Australia",
        "iso2": "AU",
        "lat": -33.76806250000001,
        "lon": 150.9607354
      },
      "website": "http://www.gme.net.au"
    },
    {
      "name": "GPA Engineering",
      "address": {
        "text": "121 Greenhill Road South Australia\nUnley 5061 Australia",
        "iso2": "AU",
        "lat": -34.9414802,
        "lon": 138.6031085
      },
      "website": "http://gpaeng.com.au"
    },
    {
      "name": "GPSat Systems Australia Pty Ltd",
      "address": {
        "text": "22 Aberdeen Road, 1 Not in U.S. or Canada\nMacleod 3085 Australia",
        "iso2": "AU",
        "lat": -37.7248363,
        "lon": 145.0672046
      },
      "website": "http://www.gpsatsys.com.au"
    },
    {
      "name": "Geelong Defence Alliance",
      "address": {
        "text": "100 Brougham Street Victoria\nGeelong 3220 Australia",
        "iso2": "AU",
        "lat": -38.1465837,
        "lon": 144.3651873
      },
      "website": "http://www.geelongdefencealliance.com.au"
    },
    {
      "name": "Geislinger GmbH",
      "address": {
        "text": "Hallwanger Landesstrasse 3 Salzburg\nHallwang 5300 Austria",
        "iso2": "AT",
        "lat": 47.832253,
        "lon": 13.0831818
      },
      "website": "http://www.geislinger.com"
    },
    {
      "name": "General Atomics",
      "address": {
        "text": "P.O. Box 85608 CA\nSan Diego 92186 United States",
        "iso2": "US",
        "lat": 32.715738,
        "lon": -117.1610838
      },
      "website": "http://www.ga.com"
    },
    {
      "name": "General Dynamics Mission Systems",
      "address": {
        "text": "553 South Street MA\nQuincy 02169 United States",
        "iso2": "US",
        "lat": 42.2424617,
        "lon": -70.97427689999999
      },
      "website": "https://gdmissionsystems.com/en/underwater-vehicles/bluefin-robotics"
    },
    {
      "name": "Glenair",
      "address": {
        "text": "1211 Air Way CA\nGlendale 91201 United States",
        "iso2": "US",
        "lat": 34.1628182,
        "lon": -118.2855198
      },
      "website": "https://www.glenair.com"
    },
    {
      "name": "Goldring Industries Limited",
      "address": {
        "text": "Trafalgar Works, Cable Street West Midlands\nWolverhampton WV2 2HX United Kingdom",
        "iso2": "GB",
        "lat": 52.5761119,
        "lon": -2.111153
      },
      "website": "http://www.goldringindustries.co.uk"
    },
    {
      "name": "Goodwin Steel Castings Limited",
      "address": {
        "text": "Ivy House Road Staffordshire\nStoke on Trent ST1 3NR United Kingdom",
        "iso2": "GB",
        "lat": 53.0212436,
        "lon": -2.1601983
      },
      "website": "http://www.goodwinsteelcastings.com"
    },
    {
      "name": "Grace",
      "address": {
        "text": "4 Tucks Road NSW\nSeven Hills 2147 Australia",
        "iso2": "AU",
        "lat": -33.7776999,
        "lon": 150.9534618
      },
      "website": "http://www.grace.com.au"
    },
    {
      "name": "Great Barrier Reef International Marine College",
      "address": {
        "text": "55-61 Tingira Street, Queensland\nPortsmith, Cairns, 4870 Australia",
        "iso2": "AU",
        "lat": -16.946662,
        "lon": 145.77156
      },
      "website": "http://gbrimc.com.au"
    },
    {
      "name": "Griffin Marine Services",
      "address": {
        "text": "PO Box 156 Northern Territory\nDARWIN 0800 Australia",
        "iso2": "AU",
        "lat": -12.3932794,
        "lon": 130.7766611
      },
      "website": "http://www.griffinmarineservices.com.au"
    },
    {
      "name": "Groupe FIVA",
      "address": {
        "text": "Parc d'Activités les Fourches, 65 rue des Vindits\nCherbourg-en-Cotentin 50130 France",
        "iso2": "FR",
        "lat": 49.6330252,
        "lon": -1.6556186
      },
      "website": "http://www.groupe-fiva.com"
    },
    {
      "name": "HAMILTONJET",
      "address": {
        "text": "20 Lunns Road\nChristchurch 8140 New Zealand",
        "iso2": "NZ",
        "lat": -43.5419924,
        "lon": 172.5755532
      },
      "website": "http://www.hamiltonjet.com"
    },
    {
      "name": "HARWOOD MARINE",
      "address": {
        "text": "162-164 RIVER ROAD EAST NSW\nHARWOOD 2465 Australia",
        "iso2": "AU",
        "lat": -29.423544,
        "lon": 153.2664125
      },
      "website": "http://www.harwoodmarine.com.au"
    },
    {
      "name": "HAWKE TRANSIT SYSTEM, SL",
      "address": {
        "text": "POL. EMP. TANOS VIERNOLES C/ LA ESPINA 44 CANTABRIA (SPAIN)\nTORRELAVEGA 39300 Spain",
        "iso2": "ES",
        "lat": 43.343232,
        "lon": -4.0529183
      },
      "website": "http://www.hawke-hts.com"
    },
    {
      "name": "HDS Hoses Australia Pty Ltd",
      "address": {
        "text": "34A Beaconsfield Ave WA\nMidvale 6056 Australia",
        "iso2": "AU",
        "lat": -31.89119079999999,
        "lon": 116.0264477
      },
      "website": "http://www.hds-hoses.com"
    },
    {
      "name": "HIFraser Group",
      "address": {
        "text": "6/5 Vuko Place NSW\nWarriewood 2102 Australia",
        "iso2": "AU",
        "lat": -33.6932951,
        "lon": 151.3017461
      },
      "website": "http://www.hifraser.com"
    },
    {
      "name": "Harry West Flags",
      "address": {
        "text": "14/ 1 Bradly Ave NSW\nMilsons Point 2061 Australia",
        "iso2": "AU",
        "lat": -33.8444064,
        "lon": 151.215961
      },
      "website": "http://www.harrywestflags.com.au"
    },
    {
      "name": "Harwood Marine",
      "address": {
        "text": "162-164 River Road East NSW\nHarwood 2465 Australia",
        "iso2": "AU",
        "lat": -29.423544,
        "lon": 153.2664125
      },
      "website": "http://www.harwoodmarine.com.au"
    },
    {
      "name": "Hetech",
      "address": {
        "text": "33 Perrin Drive QLD\nUnderwood 4119 Australia",
        "iso2": "AU",
        "lat": -27.6179386,
        "lon": 153.1091126
      },
      "website": "http://www.hetech.com.au"
    },
    {
      "name": "Hexagon PPM",
      "address": {
        "text": "32 Walker Street NSW\nNorth Sydney 2060 Australia",
        "iso2": "AU",
        "lat": -33.8408918,
        "lon": 151.2081648
      },
      "website": "https://hexagonppm.com"
    },
    {
      "name": "Hofmann Engineering Pty Ltd",
      "address": {
        "text": "3 Alice Street, Bassendean WA\nPerth 6054 Australia",
        "iso2": "AU",
        "lat": -31.9096469,
        "lon": 115.9310931
      },
      "website": "http://www.hofmannengineering.com"
    },
    {
      "name": "Hunter Defence",
      "address": {
        "text": "755 Hunter Street NSW\nNewcastle 2301 Australia",
        "iso2": "AU",
        "lat": -32.9256899,
        "lon": 151.7599694
      },
      "website": "http://www.hunterdefence.org.au"
    },
    {
      "name": "Huntington Ingalls Industries",
      "address": {
        "text": "4101 Washington Avenue VA\nNewport News 23607 United States",
        "iso2": "US",
        "lat": 36.9880862,
        "lon": -76.4371019
      },
      "website": "http://www.huntingtoningalls.com"
    },
    {
      "name": "Hydraulic Controls",
      "address": {
        "text": "2 grosvenor place NSW\nBrookvale 2100 Australia",
        "iso2": "AU",
        "lat": -33.7679752,
        "lon": 151.2707826
      },
      "website": "http://www.hydrauliccontrols.com.au"
    },
    {
      "name": "Hydrogroup plc",
      "address": {
        "text": ": Hydro House, Claymore Avenue, Aberdeen Energy Park,\nBridge of Don AB23 8GW United Kingdom",
        "iso2": "GB",
        "lat": 57.189047,
        "lon": -2.0871813
      }
    },
    {
      "name": "I S Systems Pty Limited",
      "address": {
        "text": "14 Laverick Avenue NSW\nTomago 2322 Australia",
        "iso2": "AU",
        "lat": -32.8247153,
        "lon": 151.7034423
      },
      "website": "http://www.issystems.com.au"
    },
    {
      "name": "ICP GLOBAL PTY LTD",
      "address": {
        "text": "603/152 Bunnerong Road NSW\nPagewood 2035 Australia",
        "iso2": "AU",
        "lat": -33.9379682,
        "lon": 151.2293755
      },
      "website": "http://www.icpglobal.com.au"
    },
    {
      "name": "IKAD Engineering",
      "address": {
        "text": "31 Stuart Drive WA\nHenderson 6166 Australia",
        "iso2": "AU",
        "lat": -32.1634016,
        "lon": 115.7772183
      },
      "website": "http://www.ikad.com.au"
    },
    {
      "name": "IMI Truflo Marine",
      "address": {
        "text": "Westwood Road West Midlands\nBirmingham B6 7JF United Kingdom",
        "iso2": "GB",
        "lat": 52.5124333,
        "lon": -1.8774143
      },
      "website": "http://www.imi-critical.com/Brands/Pages/IMI-Truflo-Marine.aspx"
    },
    {
      "name": "IMarEST",
      "address": {
        "text": "1 Birdcage Walk UK\nLondon SW1H9JJ United Kingdom",
        "iso2": "GB",
        "lat": 51.5011586,
        "lon": -0.1299207
      },
      "website": "http://www.imarest.org"
    },
    {
      "name": "INTERCONNECT SYSTEMS PTY LTD",
      "address": {
        "text": "5/14-18 Roseberry Street NSW\nBalgowlah 2093 Australia",
        "iso2": "AU",
        "lat": -33.7867861,
        "lon": 151.2679292
      },
      "website": "https://www.interconnectsystems.com"
    },
    {
      "name": "ISACNT",
      "address": {
        "text": "Unit 201/ 14 Salonika Street, Parap NT\nDarwin 0820 Australia",
        "iso2": "AU",
        "lat": -12.4390823,
        "lon": 130.8384547
      },
      "website": "http://www.isacnt.org.au"
    },
    {
      "name": "ITALIAN TRADE AGENCY",
      "address": {
        "text": "Lev.19, 44 market Street NSW\nSydney 2000 Australia",
        "iso2": "AU",
        "lat": -33.8704573,
        "lon": 151.2060376
      },
      "website": "https://www.ice.it/en/"
    },
    {
      "name": "Industry Capability Network South Australia",
      "address": {
        "text": "Level 4, 11 Waymouth St SA\nAdelaide 5000 Australia",
        "iso2": "AU",
        "lat": -34.9259708,
        "lon": 138.5987529
      }
    },
    {
      "name": "Ingeliance Australia Pty Ltd",
      "address": {
        "text": "50 Mawson Lakes Boulevard South Australia\nMawson Lakes 5095 Australia",
        "iso2": "AU",
        "lat": -34.8139723,
        "lon": 138.6204081
      },
      "website": "http://www.ingeliance.com.au"
    },
    {
      "name": "Insitec",
      "address": {
        "text": "21 Wollongong St ACT\nFyshwick 2609 Australia",
        "iso2": "AU",
        "lat": -35.3263447,
        "lon": 149.1783268
      },
      "website": "http://www.insitec.com.au"
    },
    {
      "name": "Insitu Pacific",
      "address": {
        "text": "95 Mina Parade QLD\nAlderley 4051 Australia",
        "iso2": "AU",
        "lat": -27.4276877,
        "lon": 153.0070401
      },
      "website": "http://www.insitupacific.com.au"
    },
    {
      "name": "Institute of Marine Engineering, Science and Technology",
      "address": {
        "text": "1 Birdcage Walk England\nLondon SW1H9JJ United Kingdom",
        "iso2": "GB",
        "lat": 51.5011586,
        "lon": -0.1299207
      },
      "website": "http://www.imarest.org"
    },
    {
      "name": "International Maritime Services (IMS",
      "address": {
        "text": "18/31 Stockdale Road WA\nO'Connor 6163 Australia",
        "iso2": "AU",
        "lat": -32.0588427,
        "lon": 115.7903932
      },
      "website": "https://www.inationalmaritime.com"
    },
    {
      "name": "Invictus Associates",
      "address": {
        "text": "1600 River Rock Reach VA\nChesapeake 23321 United States",
        "iso2": "US",
        "lat": 36.7980885,
        "lon": -76.42293219999999
      },
      "website": "http://www.invictusassoc.com"
    },
    {
      "name": "Isotta Fraschini Motori S.p.A.",
      "address": {
        "text": "Viale F. De Blasio Z.I.\nBari 70123 Italy",
        "iso2": "IT",
        "lat": 41.1143631,
        "lon": 16.8045869
      },
      "website": "http://www.isottafraschini.it"
    },
    {
      "name": "J3Seven",
      "address": {
        "text": "8 Danbulan Street Queensland\nSmithfield 4878 Australia",
        "iso2": "AU",
        "lat": -16.8390158,
        "lon": 145.6955349
      },
      "website": "http://www.j3seven.com"
    },
    {
      "name": "JFD",
      "address": {
        "text": "54 BUSHLAND RIDGE WA\nBIBRA LAKE 6163 Australia",
        "iso2": "AU",
        "lat": -32.1063051,
        "lon": 115.8123395
      },
      "website": "http://jfdglobal.com"
    },
    {
      "name": "JLB-Yaran",
      "address": {
        "text": "117A Tapleys Hill Road SA\nHendon 5014 Australia",
        "iso2": "AU",
        "lat": -34.8773903,
        "lon": 138.5129675
      },
      "website": "http://www.jlb-yaran.com.au"
    },
    {
      "name": "JRC Integrated Systems",
      "address": {
        "text": "17021 Combs Drive VA\nKing George 22485 United States",
        "iso2": "US",
        "lat": 38.340823,
        "lon": -77.0516791
      },
      "website": "http://www.jrcisi.com"
    },
    {
      "name": "Jacobs",
      "address": {
        "text": "Level 1, 64 Allara St ACT\nCanberra 2601 Australia",
        "iso2": "AU",
        "lat": -35.2847206,
        "lon": 149.1315249
      },
      "website": "http://www.jacobs.com"
    },
    {
      "name": "Jehbco Silicones",
      "address": {
        "text": "24 William St NSW\nBrookvale 2100 Australia",
        "iso2": "AU",
        "lat": -33.768417,
        "lon": 151.2709116
      },
      "website": "http://jehbco.com.au"
    },
    {
      "name": "Jenkins Engineering Defence Systems",
      "address": {
        "text": "1/1 Military Rd NSW\nSydney 2036 Australia",
        "iso2": "AU",
        "lat": -33.9702002,
        "lon": 151.2319231
      },
      "website": "http://www.jeds.com.au"
    },
    {
      "name": "Jet Engines Australia Pty Ltd",
      "address": {
        "text": "8 Argyle Pl NSW\nMillers Point 2000 Australia",
        "iso2": "AU",
        "lat": -33.8580546,
        "lon": 151.2029961
      },
      "website": "http://jetenginesaustralia.com"
    },
    {
      "name": "Jeumont Electric",
      "address": {
        "text": "367,rue de L'Industrie NORTH\nJEUMONT 59572 France",
        "iso2": "FR",
        "lat": 50.3003863,
        "lon": 4.1069156
      },
      "website": "http://www.jeumontelectric.com"
    },
    {
      "name": "Johnson Controls Industries",
      "address": {
        "text": "14, rue de Bel Air LOIRE-ATLANTIQUE\nCarquefou 44470 France",
        "iso2": "FR",
        "lat": 47.2678428,
        "lon": -1.4888233
      },
      "website": "http://www.johnsoncontrols.com/marine"
    },
    {
      "name": "Jonathan Engineered Solutions",
      "address": {
        "text": "250 COMMERCE, STE 100 CA\nIRVINE 92602 United States",
        "iso2": "US",
        "lat": 33.7170037,
        "lon": -117.7890233
      },
      "website": "http://www.jonathanengr.com"
    },
    {
      "name": "KONGSBERG",
      "address": {
        "text": "Kirkegaardsveien 45\nKongsberg 3616 Norway",
        "iso2": "NO",
        "lat": 59.65348160000001,
        "lon": 9.644131
      },
      "website": "http://www.kongsberg.com"
    },
    {
      "name": "Kadego",
      "address": {
        "text": "320 Port Rd S.A.\nHindmarsh 5007 Australia",
        "iso2": "AU",
        "lat": -34.9029514,
        "lon": 138.5678488
      },
      "website": "http://www.kadego.com.au"
    },
    {
      "name": "Kallman Creative Services, Inc.",
      "address": {
        "text": "4 North Street, Suite 800 New Jersey\nWaldwick 07463 United States",
        "iso2": "US",
        "lat": 40.6408139,
        "lon": -74.1342955
      },
      "website": "http://www.kallman.com"
    },
    {
      "name": "Kallman Worldwide Inc.",
      "address": {
        "text": "4 North Street, Suite 800 New Jersey\nWaldwick 07463 United States",
        "iso2": "US",
        "lat": 40.6408139,
        "lon": -74.1342955
      },
      "website": "http://www.kallman.com"
    },
    {
      "name": "Keeping Watch",
      "address": {
        "text": "CP3-1-130, Campbell Park Offices, Northcott Drive ACT\nCampbell, Canberra 2610 Australia",
        "iso2": "AU",
        "lat": -35.2823001,
        "lon": 149.172359
      },
      "website": "http://www.keepingwatch.org.au"
    },
    {
      "name": "Kellogg Brown & Root Pty Ltd (KBR)",
      "address": {
        "text": "Level 4, 11 Lancaster Place ACT\nCanberra 2609 Australia",
        "iso2": "AU",
        "lat": -35.2984594,
        "lon": 149.1864489
      },
      "website": "http://www.kbr.com"
    },
    {
      "name": "Kemp Group",
      "address": {
        "text": "18-20, Shipwright South Australia\nLargs North 5016 Australia",
        "iso2": "AU",
        "lat": -34.8196933,
        "lon": 138.5077922
      },
      "website": "http://kempgroup.com.au"
    },
    {
      "name": "Key Tubing & Electrical Pty Ltd",
      "address": {
        "text": "6 Manfull St South Australia\nMelrose Park 5039 Australia",
        "iso2": "AU",
        "lat": -34.9874299,
        "lon": 138.5754808
      },
      "website": "http://www.kte.com.au"
    },
    {
      "name": "Kinetic Fighting Pty Ltd trading as Kinetic XR",
      "address": {
        "text": "PO BOX 2517 VIC\nCHERMSIDE CENTRE 4032 Australia",
        "iso2": "AU",
        "lat": -27.3858322,
        "lon": 153.0310009
      },
      "website": "http://kineticfighting.com.au"
    },
    {
      "name": "Kinexus",
      "address": {
        "text": "Level 2, 261 George Street New South Wales\nSydney 2000 Australia",
        "iso2": "AU",
        "lat": -33.8645,
        "lon": 151.207102
      },
      "website": "http://www.kinexus.com.au"
    },
    {
      "name": "Knud E Hansen Australia",
      "address": {
        "text": "Suite 104, 396 Scarborough Beach Road WA\nOsborne Park 6017 Australia",
        "iso2": "AU",
        "lat": -31.9100731,
        "lon": 115.8159671
      },
      "website": "http://www.knudehansen.com"
    },
    {
      "name": "L3Harris Technologies",
      "address": {
        "text": "Level 1, 97 Northbourne Avenue ACT\nTurner 2612 Australia",
        "iso2": "AU",
        "lat": -35.2631592,
        "lon": 149.1311646
      },
      "website": "https://www.l3harris.com"
    },
    {
      "name": "LACROIX",
      "address": {
        "text": "Route de Gaudiès\nMazères 09270 France",
        "iso2": "FR",
        "lat": 43.2463063,
        "lon": 1.6809564
      },
      "website": "http://www.lacroix-defense.com"
    },
    {
      "name": "LAND FORCES 2020",
      "address": {
        "text": "PO BOX 4095 Victoria\nGeelong 3220 Australia",
        "iso2": "AU",
        "lat": -38.1492994,
        "lon": 144.3598426
      },
      "website": "http://www.landforces.com.au"
    },
    {
      "name": "Lamson Concepts",
      "address": {
        "text": "3 Sheridan Close NSW\nMilperra 2214 Australia",
        "iso2": "AU",
        "lat": -33.9318076,
        "lon": 150.99388
      },
      "website": "http://www.lamson.com.au"
    },
    {
      "name": "Lancelin Pacific",
      "address": {
        "text": "14/1 Bradly Ave NSW\nMilsons Point 2061 Australia",
        "iso2": "AU",
        "lat": -33.8438993,
        "lon": 151.214822
      },
      "website": "http://www.lancelinpacific.com"
    },
    {
      "name": "Land Development Corporation",
      "address": {
        "text": "Level 2, 37 Woods Street Northern Territory\nDarwin 0800 Australia",
        "iso2": "AU",
        "lat": -12.4610918,
        "lon": 130.8430302
      },
      "website": "http://landdevcorp.com.au"
    },
    {
      "name": "Lankhorst Euronete Australia",
      "address": {
        "text": "7 Demand Ave Qld\nArundel 4214 Australia",
        "iso2": "AU",
        "lat": -27.9421608,
        "lon": 153.3751937
      },
      "website": "http://www.leaustralia.com.au"
    },
    {
      "name": "Latrobe City Council",
      "address": {
        "text": "141 Commercial Road Vic\nMorwell 3840 Australia",
        "iso2": "AU",
        "lat": -38.2366442,
        "lon": 146.395123
      },
      "website": "http://www.latrobe.vic.gov.au/defence"
    },
    {
      "name": "Leidos",
      "address": {
        "text": "53 Wentworth Avenue ACT\nKingston 2604 Australia",
        "iso2": "AU",
        "lat": -35.316784,
        "lon": 149.1461364
      },
      "website": "https://www.leidos.com/company/global/australia"
    },
    {
      "name": "Leonardo Australia",
      "address": {
        "text": "19 Rocklea Drive VIC\nPort Melbourne 3207 Australia",
        "iso2": "AU",
        "lat": -37.82965009999999,
        "lon": 144.9208822
      },
      "website": "http://www.leonardocompany.com/en/global/oceania/australia"
    },
    {
      "name": "Liferaft Systems Australia P/L",
      "address": {
        "text": "5 Sunmont Street Tasmania\nDerwent Park 7009 Australia",
        "iso2": "AU",
        "lat": -42.8298923,
        "lon": 147.3071253
      },
      "website": "http://www.lsames.com"
    },
    {
      "name": "Lintek Pty Ltd",
      "address": {
        "text": "20 Bayldon Road NSW\nQueanbeyan 220 Australia",
        "iso2": "AU",
        "lat": -35.352341,
        "lon": 149.2061506
      },
      "website": "http://www.lintek.com.au"
    },
    {
      "name": "Lloyd's Register International",
      "address": {
        "text": "Level 11, 15 Blue Street NSW\nNorth Sydney 2060 Australia",
        "iso2": "AU",
        "lat": -33.8412663,
        "lon": 151.207498
      },
      "website": "https://www.lr.org/en-au/"
    },
    {
      "name": "Lockheed Martin Australia",
      "address": {
        "text": "8 Brisbane Avenue\nBarton, ACT 2614 Australia",
        "iso2": "AU",
        "lat": -35.3091493,
        "lon": 149.1378141
      }
    },
    {
      "name": "Logistic Engineering Services",
      "address": {
        "text": "Level 1, 7 Westside Avenue VIC\nPort Melbourne 3207 Australia",
        "iso2": "AU",
        "lat": -37.8221381,
        "lon": 144.9177522
      },
      "website": "http://www.les.net.au"
    },
    {
      "name": "Luerssen Australia Pty Ltd",
      "address": {
        "text": "Level 3, 16 Nautical Drive WA\nHenderson 6166 Australia",
        "iso2": "AU",
        "lat": -32.1659018,
        "lon": 115.7720808
      },
      "website": "https://www.luerssen.com.au"
    },
    {
      "name": "M. Brodribb Pty Ltd",
      "address": {
        "text": "15 Carroll Crescent Victoria\nGlen Iris 3146 Australia",
        "iso2": "AU",
        "lat": -37.8503807,
        "lon": 145.0443348
      },
      "website": "http://www.brodribb.com.au"
    },
    {
      "name": "MEGA-P",
      "address": {
        "text": "2 Rue Lavoisier, ZA La Chartreuse Normandy\nAubevoye 27940 France",
        "iso2": "FR",
        "lat": 49.1738215,
        "lon": 1.3501599
      },
      "website": "http://mega-p.fr"
    },
    {
      "name": "MFB Products P/L",
      "address": {
        "text": "105 Lewis Road Victoria\nWantirna South 3152 Australia",
        "iso2": "AU",
        "lat": -37.8694267,
        "lon": 145.2508683
      },
      "website": "http://mfb.com.au"
    },
    {
      "name": "MG Engineering S.A. Pty Ltd",
      "address": {
        "text": "Lot 5 Moorhouse Road SA\nPort Adelaide 5015 Australia",
        "iso2": "AU",
        "lat": -34.8133205,
        "lon": 138.5235292
      },
      "website": "http://ww.mgengineering.com.au"
    },
    {
      "name": "MILKOR",
      "address": {
        "text": "Unit 18 & 20 Diamondpark, 70 Jakaranda Street, Hennopspark, Centurion, South Africa. Gauteng\nPretoria 0157 South Africa",
        "iso2": "ZA",
        "lat": -25.8649738,
        "lon": 28.1653633
      },
      "website": "http://www.milkor.com"
    },
    {
      "name": "MTG Marinetechnik GmbH",
      "address": {
        "text": "Wandsbeker Königsstraße 62 Hamburg\nHamburg 22041 Germany",
        "iso2": "DE",
        "lat": 53.5757116,
        "lon": 10.0651209
      },
      "website": "http://www.mtg.hamburg"
    },
    {
      "name": "MacTaggart Scott Australia",
      "address": {
        "text": "10 Myuna Street South Australia\nRegency Park 5010 Australia",
        "iso2": "AU",
        "lat": -34.8540018,
        "lon": 138.5725928
      },
      "website": "http://www.mactag.com"
    },
    {
      "name": "Mackay Consolidated Industires",
      "address": {
        "text": "260 Chesterville Rd Victoria\nMoorabbin 3189 Australia",
        "iso2": "AU",
        "lat": -37.9404159,
        "lon": 145.0609388
      },
      "website": "http://www.mackayrubber.com.au"
    },
    {
      "name": "Mackay Consolidated Industries",
      "address": {
        "text": "260 Chesterville Rd Victoria\nMoorabbin 3189 Australia",
        "iso2": "AU",
        "lat": -37.9404159,
        "lon": 145.0609388
      },
      "website": "http://www.mackayrubber.com.au"
    },
    {
      "name": "Marand",
      "address": {
        "text": "153 Keys Road VIC\nMooravbbin 3189 Australia",
        "iso2": "AU",
        "lat": -37.9487412,
        "lon": 145.0767107
      },
      "website": "http://www.marand.com.au"
    },
    {
      "name": "Marcom Watson",
      "address": {
        "text": "47-49 McKenzie Street TAS\nMowbray 7248 Australia",
        "iso2": "AU",
        "lat": -41.4106402,
        "lon": 147.1307125
      },
      "website": "http://www.marcomwatson.com.au"
    },
    {
      "name": "MariApps Marine Solutions Pte Ltd",
      "address": {
        "text": "108 Middle Road, #09-00, Bernhard Schulte House\nSingapore 188967 Singapore",
        "iso2": "SG",
        "lat": 1.2989439,
        "lon": 103.8539177
      },
      "website": "http://www.mariapps.com"
    },
    {
      "name": "Marine Acoustics, Inc.",
      "address": {
        "text": "4350 Fairfax Drive, Suite 600 VA\nArlington 22203 United States",
        "iso2": "US",
        "lat": 38.8818052,
        "lon": -77.1133038
      },
      "website": "http://www.marineacoustics.com"
    },
    {
      "name": "Marine Plant Systems Pty Ltd",
      "address": {
        "text": "6/8 Redemptora Road WA\nHenderson 6166 Australia",
        "iso2": "AU",
        "lat": -32.1549066,
        "lon": 115.7749611
      },
      "website": "http://www.marineplantsystems.com"
    },
    {
      "name": "Marine Technicians Australia",
      "address": {
        "text": "28 Stuart Drive WA\nHENDERSON 6166 Australia",
        "iso2": "AU",
        "lat": -32.1643013,
        "lon": 115.7775352
      },
      "website": "http://www.marinetechniciansaustralia.com.au"
    },
    {
      "name": "Mariner Travel",
      "address": {
        "text": "473 st kilda Rd VIC\nMelbourne 3182 Australia",
        "iso2": "AU",
        "lat": -37.8416367,
        "lon": 144.9782648
      },
      "website": "http://www.marinertvl.com"
    },
    {
      "name": "Maritime Industry Australia Ltd",
      "address": {
        "text": "473 St Kilda Road Victoria\nMelbourne 3004 Australia",
        "iso2": "AU",
        "lat": -37.8416367,
        "lon": 144.9782648
      },
      "website": "http://mial.com.au"
    },
    {
      "name": "Matrix Composites and Engineering",
      "address": {
        "text": "150 Quill Way WA\nHenderson 6166 Australia",
        "iso2": "AU",
        "lat": -32.1596738,
        "lon": 115.7731439
      },
      "website": "http://www.matrixengineered.com"
    },
    {
      "name": "Maxar Technologies",
      "address": {
        "text": "1300 W 120th Avenue Colorado\nWestminster 80234 United States",
        "iso2": "US",
        "lat": 39.9124942,
        "lon": -105.0018244
      },
      "website": "http://www.maxar.com"
    },
    {
      "name": "Mellori Solutions Pty Ltd",
      "address": {
        "text": "11 Bellevue Street NSW\nSouth Nowra 2541 Australia",
        "iso2": "AU",
        "lat": -34.9107624,
        "lon": 150.5985291
      },
      "website": "http://www.mellori.com.au"
    },
    {
      "name": "Mincham Aviation",
      "address": {
        "text": "Hangar 51 Anderson Drive, Mincham Aviation SA\nParafield 5106 Australia",
        "iso2": "AU",
        "lat": -34.7881021,
        "lon": 138.637811
      },
      "website": "http://www.minchamaviation.com"
    },
    {
      "name": "Mission Systems Pty Ltd",
      "address": {
        "text": "Unit 14, 1 Chaplin Drive NSW\nLane Cove West 2066 Australia",
        "iso2": "AU",
        "lat": -33.8104071,
        "lon": 151.1473289
      },
      "website": "http://www.missionsystems.com.au"
    },
    {
      "name": "Mitsubishi Heavy Industries, Ltd.",
      "address": {
        "text": "2-3, Marunouchi 3-chome Tokyo\nChiyoda-ku 100-8332 Japan",
        "iso2": "JP",
        "lat": 35.6777656,
        "lon": 139.7614315
      }
    },
    {
      "name": "Molecular Products",
      "address": {
        "text": "Parkway, Harlow Business Park Essex\nHarlow CM19 5FR United Kingdom",
        "iso2": "GB",
        "lat": 51.7691737,
        "lon": 0.0563311
      },
      "website": "http://www.molecularproducts.com"
    },
    {
      "name": "Moog Australia",
      "address": {
        "text": "18 Corporate Drive VIC\nHeatherton 3202 Australia",
        "iso2": "AU",
        "lat": -37.9511366,
        "lon": 145.0788862
      },
      "website": "http://www.moog.com.au"
    },
    {
      "name": "Morgan Advanced Materials",
      "address": {
        "text": "30 Birralee Road SA\nRegency Park 5010 Australia",
        "iso2": "AU",
        "lat": -34.8532767,
        "lon": 138.5708125
      },
      "website": "http://www.morganthermalceramics.com"
    },
    {
      "name": "Multi-Mover Australia",
      "address": {
        "text": "PO Box 3038 NSW\nAllambie Heights 2100 Australia",
        "iso2": "AU",
        "lat": -33.7654848,
        "lon": 151.250911
      },
      "website": "http://www.multi-mover.com.au"
    },
    {
      "name": "NAVAL MARINE PTY LTD",
      "address": {
        "text": "111-113 HUME ST, VIC\nWodonga 3690 Australia",
        "iso2": "AU",
        "lat": -36.1237801,
        "lon": 146.8854551
      },
      "website": "http://navalmarine.com.au"
    },
    {
      "name": "NOVA Power Solutions, Inc.",
      "address": {
        "text": "21515 Ridgetop Circle, Suite 210 VA\nSterling 20166 United States",
        "iso2": "US",
        "lat": 39.0300027,
        "lon": -77.40591409999999
      },
      "website": "http://www.novapower.com"
    },
    {
      "name": "NSW Government",
      "address": {
        "text": "Level 48, MLC Centre, 19 Martin Place NSW\nSydney 2000 Australia",
        "iso2": "AU",
        "lat": -33.868427,
        "lon": 151.2092173
      },
      "website": "http://www.industry.nsw.gov.au/defence-nsw"
    },
    {
      "name": "NT Port and Marine",
      "address": {
        "text": "31 Muramats Road Northern Territory\nEast Arm 0822 Australia",
        "iso2": "AU",
        "lat": -12.4809612,
        "lon": 130.9259866
      },
      "website": "https://www.ntportandmarine.com"
    },
    {
      "name": "Naiad Design Ltd",
      "address": {
        "text": "101 Wellington Street\nPicton 7250 New Zealand",
        "iso2": "NZ",
        "lat": -41.2926218,
        "lon": 174.0074639
      },
      "website": "http://www.naiad.co.nz"
    },
    {
      "name": "Naiad Dynamics",
      "address": {
        "text": "PO Box 699 Western Australia\nFremantle 6959 Australia",
        "iso2": "AU",
        "lat": -32.0517901,
        "lon": 115.755096
      },
      "website": "http://www.naiad.com"
    },
    {
      "name": "Naval News",
      "address": {
        "text": "11 Rue de Lourmel\nParis 75015 France",
        "iso2": "FR",
        "lat": 48.8498515,
        "lon": 2.2920327
      },
      "website": "http://www.navalnews.com"
    },
    {
      "name": "Naval Ship Management (Australia)",
      "address": {
        "text": "71 Leichhardt Street ACT\nKingston 2604 Australia",
        "iso2": "AU",
        "lat": -35.3208389,
        "lon": 149.1467859
      },
      "website": "http://www.nsm-aust.com.au"
    },
    {
      "name": "Naval Shipbuilding College",
      "address": {
        "text": "630 Mersey Road North SA\nOsborne 5017 Australia",
        "iso2": "AU",
        "lat": -34.78857929999999,
        "lon": 138.5067664
      },
      "website": "http://www.navalshipbuildingcollege.com.au"
    },
    {
      "name": "Naval Warfare Officers Association",
      "address": {
        "text": "19 Grey St ACT\nDEAKIN 2600 Australia",
        "iso2": "AU",
        "lat": -35.312839,
        "lon": 149.111396
      },
      "website": "http://warfareofficers.org.au"
    },
    {
      "name": "Navantia Australia",
      "address": {
        "text": "Ground Floor, 40 Macquarie Street ACT\nBarton 2600 Australia",
        "iso2": "AU",
        "lat": -35.3079719,
        "lon": 149.1358404
      },
      "website": "http://www.navantia.com.au"
    },
    {
      "name": "Navicom Dynamics",
      "address": {
        "text": "2 Parkhead Place Auckland\nAlbany 0632 New Zealand",
        "iso2": "NZ",
        "lat": -36.7504538,
        "lon": 174.6983523
      },
      "website": "https://navicomdynamics.com"
    },
    {
      "name": "Navy Clearance Divers Trust",
      "address": {
        "text": "PO BOX 1851 WA\nCanning Vale 6970 Australia",
        "iso2": "AU",
        "lat": -32.0887424,
        "lon": 115.9177846
      },
      "website": "http://www.ncdt.org.au"
    },
    {
      "name": "Navy Health",
      "address": {
        "text": "601 Canterbury Road VIC\nSurrey Hills 3127 Australia",
        "iso2": "AU",
        "lat": -37.8255312,
        "lon": 145.0958189
      },
      "website": "http://navyhealth.com.au"
    },
    {
      "name": "New Zealand Defence Force & Ministry Of Defence",
      "address": {
        "text": "PO Box 39997, WMC Lower Hutt\nWellington New Zealand",
        "iso2": "NZ",
        "lat": -41.212695,
        "lon": 174.8996648
      },
      "website": "http://www.nzdf.mil.nz"
    },
    {
      "name": "New Zealand Defence Industry Association",
      "address": {
        "text": "32 Market Place\nAuckland New Zealand",
        "iso2": "NZ",
        "lat": -36.8437073,
        "lon": 174.7615452
      },
      "website": "http://www.nzdia.co.nz"
    },
    {
      "name": "New Zealand Trade and Enterprise",
      "address": {
        "text": "Level 22, 20 Bond Street NSW\nSydney 2000 Australia",
        "iso2": "AU",
        "lat": -33.8643748,
        "lon": 151.2084633
      },
      "website": "https://www.nzte.govt.nz"
    },
    {
      "name": "Next Generation Technologies Fund",
      "address": {
        "text": "Department of Defence ACT\nCanberra 2600 Australia",
        "iso2": "AU",
        "lat": -35.2801903,
        "lon": 149.1310038
      },
      "website": "https://www.dst.defence.gov.au/nextgentechfund"
    },
    {
      "name": "Nilsen",
      "address": {
        "text": "100 Regency Road, Ferryden Park South Australia\nAdelaide 5010 Australia",
        "iso2": "AU",
        "lat": -34.8743142,
        "lon": 138.5626202
      },
      "website": "http://www.nilsen.com.au"
    },
    {
      "name": "Nobles (A. Noble & Son Ltd.)",
      "address": {
        "text": "80-92 Grand Junction Road South Australia\nKilburn 5084 Australia",
        "iso2": "AU",
        "lat": -34.8486788,
        "lon": 138.5889861
      },
      "website": "http://www.nobles.com.au"
    },
    {
      "name": "Noetic Group",
      "address": {
        "text": "70 Kent Street, Deakin ACT\nCanberra 2600 Australia",
        "iso2": "AU",
        "lat": -35.3199268,
        "lon": 149.0969298
      },
      "website": "https://noeticgroup.com"
    },
    {
      "name": "Norseld Pty Ltd",
      "address": {
        "text": "18 Lowe Street SA\nAdelaide 5000 Australia",
        "iso2": "AU",
        "lat": -34.9309838,
        "lon": 138.5908415
      },
      "website": "http://www.cooldiamonddlc.com"
    },
    {
      "name": "Norship",
      "address": {
        "text": "56 – 62 Tingira Street,, Portsmith QLD\nCairns 4870 Australia",
        "iso2": "AU",
        "lat": -16.9474914,
        "lon": 145.7714313
      },
      "website": "https://www.norship.com.au"
    },
    {
      "name": "Northern Territory Government, DefenceNT",
      "address": {
        "text": "Development House, 76 The Esplanade NT\nDarwin 0801 Australia",
        "iso2": "AU",
        "lat": -12.464259,
        "lon": 130.839648
      },
      "website": "https://nt.gov.au/industry/defence-support"
    },
    {
      "name": "Northrop Grumman",
      "address": {
        "text": "Unit 3, Eastedge Business Park, 2 Faulding Street ACT\nSymonston 2609 Australia",
        "iso2": "AU",
        "lat": -35.3350427,
        "lon": 149.1681
      },
      "website": "http://northropgrumman.com"
    },
    {
      "name": "Northtrack Machinery Pty Ltd",
      "address": {
        "text": "61 Hamaura Road Northern Territory\nDarwin 0828 Australia",
        "iso2": "AU",
        "lat": -12.4799266,
        "lon": 130.9137487
      },
      "website": "https://www.northtracknt.com.au"
    },
    {
      "name": "Noske-Kaeser Marine Australia Pty Limited",
      "address": {
        "text": "C/- Sydney City Marine, Lot 34 James Craig Road, Rozelle NSW\nSydney 2039 Australia",
        "iso2": "AU",
        "lat": -33.8681598,
        "lon": 151.1831034
      }
    },
    {
      "name": "NovAtel",
      "address": {
        "text": "10921 14th Street NE Alberta\nCalgary T3K 2L5 Canada",
        "iso2": "CA",
        "lat": 51.1503998,
        "lon": -114.0306991
      },
      "website": "https://www.novatel.com"
    },
    {
      "name": "Nova Systems",
      "address": {
        "text": "27-31 London Road South Australia\nMile End South 5031 Australia",
        "iso2": "AU",
        "lat": -34.9371854,
        "lon": 138.5736489
      },
      "website": "https://novasystems.com"
    },
    {
      "name": "OFX Limited",
      "address": {
        "text": "Level 20, 60 Margaret Street NSW\nSydney 2000 Australia",
        "iso2": "AU",
        "lat": -33.8648925,
        "lon": 151.2066785
      },
      "website": "http://www.ofx.com"
    },
    {
      "name": "OSI Maritime Systems",
      "address": {
        "text": "4585 Canada Way, Suite 400 British Columbia\nBurnaby V5G 4L6 Canada",
        "iso2": "CA",
        "lat": 49.255169,
        "lon": -122.997462
      },
      "website": "http://www.osimaritime.com"
    },
    {
      "name": "Oceania Engineering Services",
      "address": {
        "text": "1 / 46 Mullingar Way WA\nLandsdale 6065 Australia",
        "iso2": "AU",
        "lat": -31.8049706,
        "lon": 115.8372588
      },
      "website": "http://www.oceaniaeng.com"
    },
    {
      "name": "Ocius Technology",
      "address": {
        "text": "22 King St NSW\nKensington 2031 Australia",
        "iso2": "AU",
        "lat": -33.9056362,
        "lon": 151.2352096
      },
      "website": "http://www.ocius.com.au"
    },
    {
      "name": "Office of the Defence Seaworthiness Regulator",
      "address": {
        "text": "Campbell Park ACT\nCanberra Australia",
        "iso2": "AU",
        "lat": -35.2823001,
        "lon": 149.172359
      },
      "website": "http://www.defence.gov.au/seaworthiness"
    },
    {
      "name": "Orontide Group Limited",
      "address": {
        "text": "54 Sparks Road Western Australia\nHenderson 6156 Australia",
        "iso2": "AU",
        "lat": -32.157767,
        "lon": 115.7775352
      },
      "website": "http://www.orontide.com.au"
    },
    {
      "name": "Owen International Pty Ltd",
      "address": {
        "text": "15/2 Campbell St NSW\nArtarmon 2064 Australia",
        "iso2": "AU",
        "lat": -33.8178615,
        "lon": 151.1854444
      },
      "website": "http://www.owenint.com.au"
    },
    {
      "name": "PACIFIC 2019 - International Maritime Exposition",
      "address": {
        "text": "PO Box 4095 VIC\nGeelong 3220 Australia",
        "iso2": "AU",
        "lat": -38.1492994,
        "lon": 144.3598426
      },
      "website": "http://www.pacificexpo.com.au"
    },
    {
      "name": "PACIFIC 2021 INTERNATIONAL MARITIME EXPOSITION",
      "address": {
        "text": "PO Box 4095 Victoria\nGeelong 3220 Australia",
        "iso2": "AU",
        "lat": -38.1492994,
        "lon": 144.3598426
      },
      "website": "http://www.pacificexpo.com.au"
    },
    {
      "name": "PFG Group",
      "address": {
        "text": "2-4 Negara Cresent Tasmania\nGoodwood 7010 Australia",
        "iso2": "AU",
        "lat": -42.8251424,
        "lon": 147.2983745
      },
      "website": "http://www.pfg-group.com.au"
    },
    {
      "name": "PIETRO CARNAGHI S.p.A.",
      "address": {
        "text": "Via Salvo D’Acquisto, 7 Milan\nVilla Cortese 20020 Italy",
        "iso2": "IT",
        "lat": 45.56692959999999,
        "lon": 8.886498399999999
      },
      "website": "http://www.pietrocarnaghi.it"
    },
    {
      "name": "PIRTEK DEFENCE",
      "address": {
        "text": "3/7 Garling Road NSW\nKings Park 2148 Australia",
        "iso2": "AU",
        "lat": -33.741919,
        "lon": 150.9090224
      },
      "website": "http://www.pirtek.com.au"
    },
    {
      "name": "PIVOT MARITIME INTERNATIONAL",
      "address": {
        "text": "60 NOBELIUS DRIVE/PO BOX 124 TASMANIA\nLEGANA 7277 Australia",
        "iso2": "AU",
        "lat": -41.3425664,
        "lon": 147.0762377
      },
      "website": "http://www.pivotmaritime.com"
    },
    {
      "name": "POLOMARCONI.IT",
      "address": {
        "text": "VIA C.COLOMBO 29/31 ITALY\nOSIO SOTTO (BG) 24046 Italy",
        "iso2": "IT",
        "lat": 45.6184246,
        "lon": 9.5734588
      },
      "website": "http://www.polomarconi.it"
    },
    {
      "name": "POWER EQUIPMENT PTY LTD",
      "address": {
        "text": "10-12 Commercial Drive Victoria\nLynbrook 3975 Australia",
        "iso2": "AU",
        "lat": -38.0431624,
        "lon": 145.2493189
      },
      "website": "http://www.powerequipment.com.au"
    },
    {
      "name": "PROCHEM PIPELINE PRODUCTS",
      "address": {
        "text": "30 Enterprise Circuit Prestons NSW\nSydney 2170 Australia",
        "iso2": "AU",
        "lat": -33.9374046,
        "lon": 150.8871237
      },
      "website": "http://www.prochem.com.au"
    },
    {
      "name": "Pacific Quest International LLC dba FirstWatch",
      "address": {
        "text": "1141 Ringwood Ct, Suite 130 California\nSan Jose 95131-1756 United States",
        "iso2": "US",
        "lat": 37.39271660000001,
        "lon": -121.8942092
      },
      "website": "http://www.firstwatchgear.com"
    },
    {
      "name": "Pedco Engineering Pty Ltd",
      "address": {
        "text": "118, Dowd Street WA\nWelshpool 6106 Australia",
        "iso2": "AU",
        "lat": -31.9945676,
        "lon": 115.9618587
      },
      "website": "http://www.pedco.com.au"
    },
    {
      "name": "Penske Power Systems",
      "address": {
        "text": "488 Blackshaws Road Vic\nAltona North 3025 Australia",
        "iso2": "AU",
        "lat": -37.8273881,
        "lon": 144.8311018
      },
      "website": "http://www.penskeps.com"
    },
    {
      "name": "Penten",
      "address": {
        "text": "Level 2, 220 Northbourne Ave ACT\nBraddon 2612 Australia",
        "iso2": "AU",
        "lat": -35.2613191,
        "lon": 149.1328126
      },
      "website": "http://penten.com"
    },
    {
      "name": "Pivot Maritime International",
      "address": {
        "text": "60 Nobelius Drive Tasmania\nLegana 7277 Australia",
        "iso2": "AU",
        "lat": -41.3425664,
        "lon": 147.0762377
      },
      "website": "http://www.pivotmaritime.com"
    },
    {
      "name": "Poplars",
      "address": {
        "text": "Unit 1, 55 Wooley Street Dickson ACT\nDickson 2602 Australia",
        "iso2": "AU",
        "lat": -35.249728,
        "lon": 149.1365842
      },
      "website": "http://www.poplars.com.au"
    },
    {
      "name": "Precision Metal Group Aust",
      "address": {
        "text": "Unit 1 472 Victoria st NSW\nWetherill Park 2164 Australia",
        "iso2": "AU",
        "lat": -33.8427469,
        "lon": 150.8902145
      },
      "website": "http://www.precisionmetalgroup.com"
    },
    {
      "name": "Precision Technic Defence Pty Ltd",
      "address": {
        "text": "U2, 8 Riseley St WA\nApplecross 6153 Australia",
        "iso2": "AU",
        "lat": -32.0195623,
        "lon": 115.8337607
      },
      "website": "http://www.ptdefence.com"
    },
    {
      "name": "Predict Australia",
      "address": {
        "text": "Ground Floor Thinclab 10 Pulteney Street South Australia\nAdelaide 5000 Australia",
        "iso2": "AU",
        "lat": -34.9214287,
        "lon": 138.6059845
      },
      "website": "http://www.predict.net.au"
    },
    {
      "name": "Prism Defence",
      "address": {
        "text": "198 Melbourne St SA\nNorth Adelaide SA 5006 Australia",
        "iso2": "AU",
        "lat": -34.9083562,
        "lon": 138.6045078
      },
      "website": "http://www.prismdefence.com"
    },
    {
      "name": "Puzzle Precision Pty Ltd",
      "address": {
        "text": "4 PAVILION PL NSW\nCARDIFF 2285 Australia",
        "iso2": "AU",
        "lat": -32.9407534,
        "lon": 151.6448557
      },
      "website": "http://www.puzzleprecision.com.au"
    },
    {
      "name": "Pyrotek",
      "address": {
        "text": "147 Magowar Rd NSW\nGirraween 2145 Australia",
        "iso2": "AU",
        "lat": -33.8005144,
        "lon": 150.9418975
      },
      "website": "http://www.pyroteknc.com"
    },