{
  "name": "Security & Policing 2016",
  "series": "Security & Policing",
  "edition": "2016",
  "startDate": "2016-03-08",
  "endDate": "2016-03-10",
  "address": {
    "text": "Farnborough International Exhibition and Conference Centre\nETPS Road\nFarnborough\nGU14 6FD\nUK",
    "iso2": "GB",
    "lat": 51.2755416,
    "lon": -0.76105
  },
  "website": "http://www.securityandpolicing.co.uk",
  "organiser": [
    {
      "name": "ADS Group"
    },
    {
      "name": "UK Trade & Investment Defence & Security Organisation"
    },
    {
      "name": "Home Office"
    }
  ],
  "exhibitorListUrl": "http://www.securityandpolicing.co.uk/exhibitors/exhibitors-list-2016/",
  "exhibitorListDate": "2022-02-01T14:58:47+00:00",
  "exhibitor": [
    {
      "name": "|Shell"
    },
    {
      "name": "3rd Forensic Limited",
      "category": [
        "Biometrics & Imagery",
        "CCTV & Video Analytics",
        "Counter Terrorism & Intelligence",
        "Custodial",
        "Forensic Services",
        "Information Technology"
      ],
      "address": {
        "text": "Dukesbridge House\n23 Duke St\nReading\nBerkshire\nRG1 4SA\nUnited Kingdom",
        "iso2": "GB",
        "lat": 51.4543324,
        "lon": -0.9682628999999999
      },
      "telephone": "+44 (0)1189 080 345"
    },
    {
      "name": "5.11 Tactical UK"
    },
    {
      "name": "7Safe",
      "category": [
        "Cyber Security",
        "Forensic Services",
        "Incident & Emergency Response",
        "Information Technology",
        "Professional Services"
      ],
      "address": {
        "text": "Cambridge Technology Centre\nMelbourn\nRoyston\nHerts\nSG8 6DP\nUnited Kingdom",
        "iso2": "GB",
        "lat": 52.0925892,
        "lon": 0.0324286
      },
      "telephone": "+44 (0)870 600 1667"
    },
    {
      "name": "A.H. Parker & Sons",
      "category": [
        "Border Security",
        "Counter Terrorism & Intelligence",
        "Maritime Security",
        "Surveillance",
        "Transport Security"
      ],
      "address": {
        "text": "2 Rustic House\nHayes Lane\nSlinfold\nWest Sussex\nRH13 0ST\nUnited Kingdom",
        "iso2": "GB",
        "lat": 51.0679525,
        "lon": -0.4056782
      },
      "telephone": "+44 (0)1403 780470"
    },
    {
      "name": "AB Precision Ltd",
      "category": [
        "Counter Terrorism & Intelligence",
        "Explosives & Blast Protection",
        "Transport Security",
        "Unmanned Systems & Robotics"
      ],
      "address": {
        "text": "1 Fleets Lane\nPoole\nDorset\nBH15 3BZ\nUnited Kingdom",
        "iso2": "GB",
        "lat": 50.7378442,
        "lon": -1.9874914
      },
      "telephone": "+44 (0)1202 665000"
    },
    {
      "name": "ADS Europe Ltd",
      "category": [
        "Surveillance"
      ],
      "address": {
        "text": "Clay House Business Centre\n5 Horninglow Street\nBurton on Trent\nStaffordshire\nDE14 1NG\nUnited Kingdom",
        "iso2": "GB",
        "lat": 52.80682299999999,
        "lon": -1.6270908
      },
      "telephone": "+44 (0)7765 256375"
    },
    {
      "name": "ADST Advanced Research & Technology",
      "category": [
        "Border Security",
        "CCTV & Video Analytics",
        "Communications, Command & Control",
        "Counter Terrorism & Intelligence",
        "Incident & Emergency Response",
        "Maritime Security",
        "Surveillance",
        "Transport Security"
      ],
      "address": {
        "text": "Unit 1 Church House Farm Estate\nClewers Hill\nWaltham Chase\nSouthampton\nHampshire\nSO32 2LN\nUnited Kingdom",
        "iso2": "GB",
        "lat": 50.9384876,
        "lon": -1.2056275
      },
      "telephone": "+44 (0)1489 892580"
    },
    {
      "name": "Advent IM",
      "category": [
        "Access Control & Entry Systems",
        "Communications, Command & Control",
        "Counter Terrorism & Intelligence",
        "Cyber Security",
        "Information Technology",
        "Physical Security, Man-guarding & Close Protection",
        "Professional Services",
        "Surveillance"
      ],
      "address": {
        "text": "5 Coombs Wood Court\nSteelpark Road\nHalesowen\nBirmingham\nWest Mids\nB62 8BF\nUnited Kingdom",
        "iso2": "GB",
        "lat": 52.4648329,
        "lon": -2.0459145
      },
      "telephone": "+44 (0)121 559 6699"
    },
    {
      "name": "Aegis Engineering Limited",
      "category": [
        "Personal Protection Equipment, Clothing & Accessories"
      ],
      "address": {
        "text": "Unit 5 Chesford Grange\nWarrington\nCheshire\nWA1 4RQ\nUnited Kingdom",
        "iso2": "GB",
        "lat": 53.3992714,
        "lon": -2.5188825
      },
      "telephone": "+44 (0)1925 840048"
    },
    {
      "name": "Aerialtronics",
      "category": [
        "Unmanned Systems & Robotics"
      ]
    },
    {
      "name": "AGNITIO, S.L.",
      "category": [
        "Biometrics & Imagery",
        "Counter Terrorism & Intelligence",
        "Forensic Services",
        "Information Technology",
        "Surveillance"
      ],
      "address": {
        "text": "Gran Via 39, 8th floor\nMadrid\n28013\nSpain",
        "iso2": "ES",
        "lat": 40.420042,
        "lon": -3.7055255
      },
      "website": "www.agnitio-corp.com/"
    },
    {
      "name": "AGX Holdings Ltd",
      "category": [
        "Biometrics & Imagery",
        "CCTV & Video Analytics",
        "Forensic Services",
        "Information Technology",
        "Surveillance"
      ],
      "address": {
        "text": "46 Murrell Green Business Park\nHook\nHampshire\nRG27 9GR\nUnited Kingdom",
        "iso2": "GB",
        "lat": 51.2894037,
        "lon": -0.9349861
      },
      "telephone": "+44 (0)1256 741500"
    },
    {
      "name": "Airbox Systems",
      "category": [
        "Biometrics & Imagery",
        "Border Security",
        "CBRN",
        "CCTV & Video Analytics",
        "Communications, Command & Control",
        "Counter Terrorism & Intelligence",
        "Incident & Emergency Response",
        "Information Technology",
        "Maritime Security",
        "Surveillance",
        "Transport Security",
        "Unmanned Systems & Robotics"
      ]
    },
    {
      "name": "Airbus Defence and Space",
      "category": [
        "Border Security",
        "Communications, Command & Control",
        "Counter Terrorism & Intelligence",
        "Cyber Security",
        "Incident & Emergency Response",
        "Information Technology",
        "Maritime Security",
        "Professional Services",
        "Surveillance",
        "Unmanned Systems & Robotics"
      ],
      "website": "www.airbusdefenceandspace.com"
    },
    {
      "name": "Allens Total Perimeter Security",
      "category": [
        "Access Control & Entry Systems",
        "Border Security",
        "CCTV & Video Analytics",
        "Counter Terrorism & Intelligence",
        "Explosives & Blast Protection",
        "Physical Security, Man-guarding & Close Protection",
        "Professional Services",
        "Transport Security"
      ],
      "address": {
        "text": "Birch Walk\nWest Byfleet\nSurrey\nKT14 6EJ\nUnited Kingdom",
        "iso2": "GB",
        "lat": 51.3407409,
        "lon": -0.5075894
      },
      "telephone": "+44 (0)1932 349607"
    },
    {
      "name": "American Science and Engineering, Inc.",
      "category": [
        "Border Security",
        "Counter Terrorism & Intelligence",
        "Maritime Security",
        "Transport Security"
      ],
      "address": {
        "text": "829 Middlesex Turnpike\nBillerica\nMassachusetts\n01821\nUnited States",
        "iso2": "US",
        "lat": 42.5245591,
        "lon": -71.2532569
      },
      "telephone": "+1 978 262 8700"
    },
    {
      "name": "Amped Software",
      "category": [
        "CCTV & Video Analytics",
        "Information Technology",
        "Surveillance"
      ],
      "address": {
        "text": "Loc. Padriciano, 99\nTrieste\nFriuli Venezia Giulia\n34149\nItaly",
        "iso2": "IT",
        "lat": 45.6581811,
        "lon": 13.8278938
      },
      "telephone": "+39 040 3755333"
    },
    {
      "name": "Antares TDC",
      "category": [
        "Communications, Command & Control",
        "Incident & Emergency Response",
        "Professional Services",
        "Surveillance",
        "Vehicles"
      ],
      "address": {
        "text": "Knaves Beech Business Centre\nDavies Way\nLoudwater\nHigh Wycombe\nBuckinghamshire\nHP10 9QR\nUnited Kingdom",
        "iso2": "GB",
        "lat": 51.602059,
        "lon": -0.6929116000000001
      },
      "telephone": "+44 (0)1628 535440"
    },
    {
      "name": "Apec Systems Ltd",
      "category": [
        "Access Control & Entry Systems",
        "Border Security",
        "Counter Terrorism & Intelligence",
        "Optics",
        "Surveillance",
        "Unmanned Systems & Robotics",
        "Vehicles"
      ],
      "address": {
        "text": "3 Cavans Way\nBinley Industrial Estate\nCoventry\nCV3 2SF\nUnited Kingdom",
        "iso2": "GB",
        "lat": 52.3946684,
        "lon": -1.4424784
      },
      "telephone": "+44 (0)2476 445664"
    },
    {
      "name": "Apex Security Engineering Ltd",
      "category": [
        "Storage & Containers"
      ],
      "address": {
        "text": "Flint Road\nLetchworth Garden City\nHertfordshire\nSG6 1HJ\nUnited Kingdom",
        "iso2": "GB",
        "lat": 51.9897193,
        "lon": -0.2040553
      },
      "telephone": "+44 (0)1462 673431"
    },
    {
      "name": "Aralia Systems Ltd"
    },
    {
      "name": "Arithmetica Ltd",
      "category": [
        "Communications, Command & Control",
        "Counter Terrorism & Intelligence",
        "Incident & Emergency Response",
        "Information Technology",
        "Surveillance"
      ],
      "address": {
        "text": "Unit 1A, Shepperton Studios\nStudios road\nUnit 1A, Shepperton Studios\nShepperton\nMiddlesex\nTW17 0QD\nUnited Kingdom",
        "iso2": "GB",
        "lat": 51.4082096,
        "lon": -0.4689736
      },
      "telephone": "+44 (0)20 8783 1972"
    },
    {
      "name": "Armour Communications Limited",
      "category": [
        "Border Security",
        "Communications, Command & Control",
        "Counter Terrorism & Intelligence",
        "Cyber Security",
        "Incident & Emergency Response"
      ],
      "address": {
        "text": "1st Floor\nMillbank Tower\nWestminster\nLondon\nSW1P 4QP\nUnited Kingdom",
        "iso2": "GB",
        "lat": 51.4923168,
        "lon": -0.1259315
      },
      "telephone": "+44 (0)20 3637 3801"
    },
    {
      "name": "ASK Technology Ltd",
      "category": [
        "Access Control & Entry Systems",
        "Biometrics & Imagery",
        "CCTV & Video Analytics",
        "Communications, Command & Control",
        "Optics",
        "Surveillance",
        "Unmanned Systems & Robotics"
      ],
      "address": {
        "text": "Unit 11 Grafton Way\nWest Ham Industrial Estate\nBasingstoke\nHampshire\nRG22 6HY\nUnited Kingdom",
        "iso2": "GB",
        "lat": 51.2633214,
        "lon": -1.1135258
      },
      "telephone": "+44 (0)1256 350067"
    },
    {
      "name": "Assa Abloy Security Doors",
      "category": [
        "Access Control & Entry Systems",
        "Custodial",
        "Explosives & Blast Protection",
        "Physical Security, Man-guarding & Close Protection",
        "Transport Security"
      ],
      "address": {
        "text": "21 Ferguson Drive\nKnockmore Hill Industrial Park\nLisburn\nBT28 2EX\nIreland",
        "iso2": "GB",
        "lat": 54.5092013,
        "lon": -6.0894832
      },
      "telephone": "+44 (0)2892 625733"
    },
    {
      "name": "Athena Global Solutioins Ltd",
      "address": {
        "text": "3, Upper Wimpole Street\nLondon\nW1G 6LE\nUnited Kingdom",
        "iso2": "GB",
        "lat": 51.520601,
        "lon": -0.1491545
      }
    },
    {
      "name": "Atkins"
    },
    {
      "name": "Audio Technology Switzerland – NAGRA",
      "category": [
        "Counter Terrorism & Intelligence",
        "Surveillance"
      ],
      "address": {
        "text": "Chemin de L’Orio 30a\nRomanel-sur-Lausanne\nVaud\n1122\nSwitzerland",
        "iso2": "CH",
        "lat": 46.56634589999999,
        "lon": 6.605249799999999
      },
      "telephone": "+41 21 643 7240"
    },
    {
      "name": "Audiotel International",
      "category": [
        "Surveillance"
      ],
      "address": {
        "text": "25 Earlstrees Road\nCorby\nNorthants\nNN17 4AZ\nUnited Kingdom",
        "iso2": "GB",
        "lat": 52.5110667,
        "lon": -0.6956340999999999
      },
      "telephone": "+44 (0)1536 464888"
    },
    {
      "name": "Axess International Ltd",
      "category": [
        "CBRN",
        "Communications, Command & Control",
        "Maritime Security",
        "Personal Protection Equipment, Clothing & Accessories",
        "Surveillance"
      ],
      "address": {
        "text": "Power House\nUnit 5\nStephenson Close\nDrayton Fields\nDaventry\nNN11 8RF\nUnited Kingdom",
        "iso2": "GB",
        "lat": 52.2679051,
        "lon": -1.1814802
      },
      "telephone": "+44 (0)1327 301090"
    },
    {
      "name": "Axon Public Safety UK",
      "category": [
        "CCTV & Video Analytics",
        "Communications, Command & Control",
        "Counter Terrorism & Intelligence",
        "Information Technology",
        "Personal Protection Equipment, Clothing & Accessories",
        "Surveillance",
        "Transport Security",
        "Vehicles"
      ],
      "address": {
        "text": "Unit 3\nCottesbrooke Park\nDaventry\nNorthamptonshire\nNN11 8YL\nUnited Kingdom",
        "iso2": "GB",
        "lat": 52.2733889,
        "lon": -1.1756763
      },
      "telephone": "+44 (0)1327 709666"
    },
    {
      "name": "B&W International",
      "category": [
        "Explosives & Blast Protection",
        "Optics",
        "Personal Protection Equipment, Clothing & Accessories",
        "Storage & Containers",
        "Unmanned Systems & Robotics"
      ],
      "address": {
        "text": "Head Office\nJunkendiek 5\nIbbenbren\n49479\nGermany",
        "iso2": "DE",
        "lat": 52.2761103,
        "lon": 7.665810500000001
      },
      "telephone": "+44 (0)7889 870273"
    },
    {
      "name": "Babcock International Group",
      "category": [
        "Communications, Command & Control",
        "Counter Terrorism & Intelligence",
        "Cyber Security",
        "Incident & Emergency Response",
        "Maritime Security",
        "Surveillance",
        "Vehicles"
      ],
      "address": {
        "text": "33 Wigmore Street\nLondon\nW1U 1QX\nUnited Kingdom",
        "iso2": "GB",
        "lat": 51.5163476,
        "lon": -0.1481471
      },
      "website": "www.babcockinternational.com"
    },
    {
      "name": "BAE",
      "category": [
        "Cyber Security"
      ],
      "address": {
        "text": "170 Priestley Road\nSurrey Research Park\nGuildford\nSurrey\nGU2 7YP\nUnited Kingdom",
        "iso2": "GB",
        "lat": 51.2419681,
        "lon": -0.6156775999999999
      },
      "telephone": "+44 (0)20 3296 5753"
    },
    {
      "name": "Bandit UK Ltd",
      "category": [
        "Access Control & Entry Systems",
        "Counter Terrorism & Intelligence",
        "Physical Security, Man-guarding & Close Protection",
        "Transport Security",
        "Vehicles"
      ],
      "country": {
        "text": "United Kingdom",
        "iso2": "GB"
      },
      "telephone": "0844 55 77 870"
    },
    {
      "name": "Barkers Fencing",
      "category": [
        "Access Control & Entry Systems",
        "Border Security",
        "Physical Security, Man-guarding & Close Protection",
        "Transport Security"
      ]
    },
    {
      "name": "BBI Detection",
      "category": [
        "Border Security",
        "CBRN",
        "Counter Terrorism & Intelligence"
      ],
      "address": {
        "text": "8 Tom McDonald Avenue\nMedipark\nDundee\nAngus\nDD2 1NH\nUnited Kingdom",
        "iso2": "GB",
        "lat": 56.46391999999999,
        "lon": -3.0483527
      },
      "website": "www.bbidetection.com"
    },
    {
      "name": "BBS Barriers",
      "category": [
        "Access Control & Entry Systems",
        "Border Security",
        "Counter Terrorism & Intelligence",
        "Explosives & Blast Protection",
        "Professional Services",
        "Transport Security"
      ],
      "address": {
        "text": "Atrium Court\nThe Ring\nBracknell\nBerkshire\nRG12 1BW\nUnited Kingdom",
        "iso2": "GB",
        "lat": 51.41488030000001,
        "lon": -0.7480587
      },
      "telephone": "+44 (0)1344 393300"
    },
    {
      "name": "BCB International Ltd",
      "category": [
        "Explosives & Blast Protection",
        "Maritime Security",
        "Personal Protection Equipment, Clothing & Accessories",
        "Unmanned Systems & Robotics"
      ],
      "address": {
        "text": "Clydesmuir Road Industrial Estate\nCardiff\nWales\nCF24 2QS\nUnited Kingdom",
        "iso2": "GB",
        "lat": 51.4902774,
        "lon": -3.142535
      },
      "telephone": "+44 (0)2920 433700"
    },
    {
      "name": "Becrypt",
      "category": [
        "Cyber Security"
      ],
      "address": {
        "text": "11-19 Artillery Row\nLondon\nSW1P 1RT\nUnited Kingdom",
        "iso2": "GB",
        "lat": 51.49670020000001,
        "lon": -0.1354317
      },
      "website": "www.becrypt.com"
    },
    {
      "name": "Beechwood Equipment",
      "category": [
        "Border Security",
        "Counter Terrorism & Intelligence",
        "Explosives & Blast Protection",
        "Optics",
        "Personal Protection Equipment, Clothing & Accessories",
        "Surveillance",
        "Unmanned Systems & Robotics"
      ],
      "address": {
        "text": "Unit 1 Trade City\nBrooklands Close\nSunbury on Thames\nTW16 7FD\nUnited Kingdom",
        "iso2": "GB",
        "lat": 51.4165765,
        "lon": -0.4269504
      },
      "telephone": "+44 (0)1932 781891"
    },
    {
      "name": "BI2 Technologies",
      "category": [
        "Access Control & Entry Systems",
        "Biometrics & Imagery",
        "Border Security",
        "Counter Terrorism & Intelligence",
        "Forensic Services",
        "Maritime Security",
        "Physical Security, Man-guarding & Close Protection",
        "Transport Security"
      ],
      "address": {
        "text": "488 State Road Suite 1\nPlymouth\nMA\n02360\nUnited States",
        "iso2": "US",
        "lat": 41.92545010000001,
        "lon": -70.5717214
      },
      "telephone": "+1.508.224.1600"
    },
    {
      "name": "Blacktree Technologies Ltd",
      "category": [
        "Communications, Command & Control",
        "Counter Terrorism & Intelligence",
        "Cyber Security",
        "Surveillance"
      ],
      "address": {
        "text": "Unit 2 Basepoint\nOakfield Close\nTewkesbury\nGLOS\nGL20 8SD\nUnited Kingdom",
        "iso2": "GB",
        "lat": 52.0026796,
        "lon": -2.1275057
      },
      "telephone": "+44 (0)1684 854441"
    },
    {
      "name": "Blighter Surveillance Systems Limited",
      "category": [
        "Border Security",
        "Maritime Security",
        "Transport Security"
      ],
      "address": {
        "text": "Iceni House\nLondon Road\nGreat Chesterford\nSaffron Walden\nEssex\nCB10 1NY\nUnited Kingdom",
        "iso2": "GB",
        "lat": 52.06214,
        "lon": 0.1908153
      },
      "telephone": "+44 (0)1223 491122"
    },
    {
      "name": "Blok n Mesh UK LTD",
      "category": [
        "Access Control & Entry Systems",
        "Border Security",
        "Maritime Security",
        "Physical Security, Man-guarding & Close Protection",
        "Transport Security"
      ],
      "address": {
        "text": "Hammond Road\nKnowsley Industrial Park\nMerseyside\nL33 7UL\nUnited Kingdom",
        "iso2": "GB",
        "lat": 53.4870355,
        "lon": -2.8540578
      },
      "telephone": "+44 (0)1376 3325 591"
    },
    {
      "name": "BN Security and Defence Solutions Ltd",
      "category": [
        "CCTV & Video Analytics",
        "Communications, Command & Control",
        "Cyber Security",
        "Information Technology",
        "Professional Services",
        "Surveillance",
        "Unmanned Systems & Robotics",
        "Vehicles"
      ],
      "address": {
        "text": "Unit 2 Riverwey Ind Park\nNewman Lane\nAlton\nHampshire\nGU34 2QL\nUnited Kingdom",
        "iso2": "GB",
        "lat": 51.1530407,
        "lon": -0.9646893999999999
      },
      "telephone": "+44 (0)1420 592100"
    },
    {
      "name": "Bournemouth University",
      "category": [
        "Cyber Security"
      ],
      "address": {
        "text": "Poole House, Talbot Campus\nFern Barrow\nPoole\nDorset\nBH125BB\nUnited Kingdom",
        "iso2": "GB",
        "lat": 50.7430356,
        "lon": -1.8961384
      },
      "telephone": "+44 (0)1202 962229"
    },
    {
      "name": "Bradbury Group",
      "category": [
        "Access Control & Entry Systems",
        "Border Security",
        "Counter Terrorism & Intelligence",
        "Explosives & Blast Protection",
        "Information Technology",
        "Physical Security, Man-guarding & Close Protection",
        "Storage & Containers"
      ],
      "address": {
        "text": "Unit 8\nDunlop Way\nQueensway Industrial Estate\nScunthorpe\nDN163RN\nUnited Kingdom",
        "iso2": "GB",
        "lat": 53.5701486,
        "lon": -0.62086
      },
      "telephone": "+44 (0)1724 275730"
    },
    {
      "name": "BRE Global Ltd (LPCB)",
      "category": [
        "Access Control & Entry Systems",
        "Counter Terrorism & Intelligence",
        "Explosives & Blast Protection",
        "Physical Security, Man-guarding & Close Protection",
        "Professional Services",
        "Transport Security"
      ],
      "address": {
        "text": "Bucknalls Lane\nGarston\nWatford\nHertfordshire\nWD25 9XX\nUnited Kingdom",
        "iso2": "GB",
        "lat": 51.6985934,
        "lon": -0.3761689
      },
      "telephone": "+44 (0)3333 218811"
    },
    {
      "name": "Bridewell Consulting",
      "category": [
        "Cyber Security",
        "Professional Services"
      ],
      "address": {
        "text": "SoanePoint\n6-8 Market Place\nReading\nBerkshire\nRG1 2EG\nUnited Kingdom",
        "iso2": "GB",
        "lat": 51.4556949,
        "lon": -0.9693044999999999
      },
      "telephone": "+44 (0)1189 255084"
    },
    {
      "name": "Burton Safes",
      "category": [
        "Access Control & Entry Systems",
        "Biometrics & Imagery",
        "Physical Security, Man-guarding & Close Protection"
      ],
      "address": {
        "text": "Burton Safes Ltd\nBrockholes Business Park\nRock Mill Road\nHuddersfield\nWest Yorkshire\nHD9 7BN\nUnited Kingdom",
        "iso2": "GB",
        "lat": 53.5936538,
        "lon": -1.773423
      },
      "telephone": "+44 (0)1484 663388"
    },
    {
      "name": "C3IA Solutions Limited"
    },
    {
      "name": "Calumet Photographic",
      "category": [
        "Biometrics & Imagery",
        "Optics",
        "Surveillance"
      ],
      "address": {
        "text": "Bradbourne Drive\nTilbrook\nMilton Keynes\nBucks\nMK7 8AJ\nUnited Kingdom",
        "iso2": "GB",
        "lat": 52.0122249,
        "lon": -0.6888375
      },
      "telephone": "+44 (0)20 7380 4501"
    },
    {
      "name": "Cambridge Consultants",
      "address": {
        "text": "Cambridge Science Park\nMilton Road\nCambridge\nCB4 0DW\nUnited Kingdom",
        "iso2": "GB",
        "lat": 52.2357366,
        "lon": 0.1383376
      },
      "telephone": "+44 (0)1223 420024"
    },
    {
      "name": "Caminos",
      "category": [
        "Counter Terrorism & Intelligence",
        "Optics",
        "Surveillance"
      ]
    },
    {
      "name": "Camouflage-Solutions",
      "category": [
        "Border Security",
        "Personal Protection Equipment, Clothing & Accessories",
        "Surveillance"
      ],
      "address": {
        "text": "Unit 9\nTiverton Way\nTiverton Business Park\nTiverton\nDevon\nEX16 6TG\nUnited Kingdom",
        "iso2": "GB",
        "lat": 50.9103672,
        "lon": -3.4648682
      },
      "telephone": "+44 (0)1884 254191"
    },
    {
      "name": "Canon UK Ltd",
      "category": [
        "CCTV & Video Analytics",
        "Optics",
        "Surveillance"
      ],
      "address": {
        "text": "Cockshot Hill\nWoodhatch\nSurrey\nRH2 8BF\nUnited Kingdom",
        "iso2": "GB",
        "lat": 51.2241929,
        "lon": -0.199302
      },
      "website": "www.canon.co.uk"
    },
    {
      "name": "Capita",
      "category": [
        "Communications, Command & Control",
        "Incident & Emergency Response",
        "Information Technology",
        "Professional Services"
      ],
      "address": {
        "text": "Methuen Park\nBath Road\nChippenham\nWiltshire\nSN14 0TW\nUnited Kingdom",
        "iso2": "GB",
        "lat": 51.4464384,
        "lon": -2.1449026
      },
      "website": "www.capita.co.uk"
    },
    {
      "name": "Carpenter Ltd",
      "category": [
        "Custodial"
      ],
      "address": {
        "text": "Dinting Lodge Industrial Estate\nGlossop\nDerbyshire\nSK13 6LE\nUnited Kingdom",
        "iso2": "GB",
        "lat": 53.45031179999999,
        "lon": -1.9780842
      },
      "telephone": "+44 (0)1457 861141"
    },
    {
      "name": "Carro Ltd",
      "category": [
        "Border Security",
        "Counter Terrorism & Intelligence",
        "Professional Services",
        "Surveillance",
        "Transport Security"
      ],
      "address": {
        "text": "Holden House, 57 Rathbone Place\nLondon\nW1T 1JU\nUnited Kingdom",
        "iso2": "GB",
        "lat": 51.5166281,
        "lon": -0.1330678
      },
      "telephone": "+44 (0)20 7183 1950"
    },
    {
      "name": "Cat’s Whisker Technologies",
      "category": [
        "Counter Terrorism & Intelligence",
        "Information Technology",
        "Surveillance",
        "Unmanned Systems & Robotics"
      ],
      "address": {
        "text": "Ottways House\n26A Ottways Lane\nAshtead\nSurrey\nKT21 2NZ\nUnited Kingdom",
        "iso2": "GB",
        "lat": 51.3071622,
        "lon": -0.3063144
      },
      "telephone": "+44 (0)1372 802607"
    },
    {
      "name": "CBRN-UK",
      "category": [
        "Border Security",
        "CBRN",
        "Communications, Command & Control",
        "Counter Terrorism & Intelligence",
        "Incident & Emergency Response",
        "Personal Protection Equipment, Clothing & Accessories",
        "Professional Services",
        "Unmanned Systems & Robotics"
      ],
      "address": {
        "text": "ADS\nSalamanca Square\n9 Albert Embankment\nLondon\nSE1 7SP\nUnited Kingdom",
        "iso2": "GB",
        "lat": 51.4922231,
        "lon": -0.1213355
      }
    },
    {
      "name": "CEIA S.P.A",
      "category": [
        "Access Control & Entry Systems",
        "Border Security",
        "Transport Security"
      ],
      "address": {
        "text": "Zona Ind.le Viciomaggio 54/g-56\nArezzo\n52041\nItaly",
        "iso2": "IT",
        "lat": 43.4343423,
        "lon": 11.767583
      },
      "telephone": "+39 0575 4181"
    },
    {
      "name": "Cellmark Forensic Services",
      "category": [
        "Counter Terrorism & Intelligence",
        "Forensic Services",
        "Incident & Emergency Response"
      ],
      "address": {
        "text": "16 Blacklands Way\nAbingdon\nOxfordshire\nOX14 1DY\nUnited Kingdom",
        "iso2": "GB",
        "lat": 51.6725186,
        "lon": -1.303493
      },
      "telephone": "+44 (0)1235 52306"
    },
    {
      "name": "CellMetric Ltd",
      "category": [
        "Communications, Command & Control",
        "Counter Terrorism & Intelligence",
        "Surveillance"
      ],
      "address": {
        "text": "St John’s Innovation Centre\nCowley Road\nCambridge\nCambridgeshire\nCB4 0WS\nUnited Kingdom",
        "iso2": "GB",
        "lat": 52.2352976,
        "lon": 0.1539601
      },
      "telephone": "01223265571"
    },
    {
      "name": "CellXion Ltd",
      "category": [
        "Counter Terrorism & Intelligence",
        "Information Technology",
        "Surveillance"
      ],
      "address": {
        "text": "Hallmark House\n2 Timber Hill Road\nCaterham\nSurrey\nCR3 6LD\nUnited Kingdom",
        "iso2": "GB",
        "lat": 51.2821615,
        "lon": -0.0760593
      },
      "telephone": "+44 (0)20 3137 1637"
    },
    {
      "name": "Centre for Cognition and Cognitive Neuroscience, Bournemouth University",
      "category": [
        "Biometrics & Imagery",
        "Border Security",
        "CCTV & Video Analytics",
        "Counter Terrorism & Intelligence",
        "Surveillance"
      ],
      "address": {
        "text": "Talbot Campus\nFern Barrow\nPoole\nDorset\nBH12 5BB\nUnited Kingdom",
        "iso2": "GB",
        "lat": 50.7430356,
        "lon": -1.8961384
      },
      "telephone": "+44 (0)1202 961918"
    },
    {
      "name": "Cerberus Black",
      "category": [
        "Incident & Emergency Response",
        "Personal Protection Equipment, Clothing & Accessories",
        "Physical Security, Man-guarding & Close Protection"
      ],
      "address": {
        "text": "Unit 73\nBasepoint Business Centre\nMetcalf Way\nCrawley\nWest Sussex\nRH11 7XX\nUnited Kingdom",
        "iso2": "GB",
        "lat": 51.1332798,
        "lon": -0.1911604
      },
      "telephone": "+44 (0)7811 390707"
    },
    {
      "name": "Claresys",
      "category": [
        "Optics",
        "Surveillance"
      ],
      "address": {
        "text": "154E Brook Drive\nMilton Park\nAbingdon\nOxfordshire\nOX14 4SD\nUnited Kingdom",
        "iso2": "GB",
        "lat": 51.6244934,
        "lon": -1.2857219
      },
      "telephone": "+44 (0)1235 364580"
    },
    {
      "name": "Cobalt Light Sytems Ltd",
      "category": [
        "Border Security",
        "CBRN",
        "Forensic Services",
        "Incident & Emergency Response",
        "Optics",
        "Transport Security"
      ],
      "address": {
        "text": "174 Brook Drive\nMilton Park\nAbingdon\nOxfordshire\nOX14 4SD\nUnited Kingdom",
        "iso2": "GB",
        "lat": 51.6238032,
        "lon": -1.2816917
      },
      "telephone": "+44 (0)1235 856559"
    },
    {
      "name": "Coeus Software Ltd"
    },
    {
      "name": "Cogent Technologies",
      "category": [
        "Communications, Command & Control",
        "Surveillance",
        "Unmanned Systems & Robotics"
      ],
      "address": {
        "text": "Unit 3 Brickfields Business Park\nOld Stowmarket Road\nWoolpit\nIP30 9QS\nUnited Kingdom",
        "iso2": "GB",
        "lat": 52.2254648,
        "lon": 0.9021884000000001
      },
      "telephone": "+44 (0)1359 243570"
    },
    {
      "name": "Commesh",
      "category": [
        "Counter Terrorism & Intelligence",
        "Surveillance"
      ],
      "address": {
        "text": "Ulonu str. 3\nVilnius\n08240\nLithuania",
        "iso2": "LT",
        "lat": 54.708647,
        "lon": 25.2915209
      },
      "telephone": "+370 5 272 0409"
    },
    {
      "name": "COMSCO",
      "category": [
        "Counter Terrorism & Intelligence",
        "Surveillance"
      ],
      "address": {
        "text": "Pickwood Hall\nLeek\nStaffs\nST13 5BZ\nUnited Kingdom",
        "iso2": "GB",
        "lat": 53.1023108,
        "lon": -2.012405
      },
      "telephone": "+44 (0)1538 372424"
    },
    {
      "name": "Conjay Collectors Ammunition Company Ltd",
      "category": [
        "Counter Terrorism & Intelligence",
        "Explosives & Blast Protection",
        "Personal Protection Equipment, Clothing & Accessories"
      ],
      "address": {
        "text": "P.O. Box 1891\nNewport\nNP10 8FW\nUnited Kingdom",
        "iso2": "GB",
        "lat": 51.54936170000001,
        "lon": -3.0396157
      },
      "website": "www.conjay.com"
    },
    {
      "name": "Cooneen Defence",
      "category": [
        "Border Security",
        "Explosives & Blast Protection",
        "Personal Protection Equipment, Clothing & Accessories",
        "Physical Security, Man-guarding & Close Protection"
      ],
      "address": {
        "text": "23 Cooneen Road\nFivemiletown\nCounty Tyrone\nBT75 0NE\nUnited Kingdom",
        "iso2": "GB",
        "lat": 54.3747516,
        "lon": -7.313093799999999
      },
      "telephone": "+44 (0)2889 522500"
    },
    {
      "name": "Cooneen Protection",
      "category": [
        "Explosives & Blast Protection",
        "Maritime Security",
        "Personal Protection Equipment, Clothing & Accessories"
      ],
      "address": {
        "text": "23 Cooneen Road\nFivemiletown\nCounty Tyrone\nBT75 0NE\nUnited Kingdom",
        "iso2": "GB",
        "lat": 54.3747516,
        "lon": -7.313093799999999
      },
      "telephone": "+44 (0)2889 522500"
    },
    {
      "name": "Covidence",
      "category": [
        "Border Security",
        "Counter Terrorism & Intelligence",
        "Custodial",
        "Surveillance"
      ],
      "address": {
        "text": "Strandvejen 2A\nRoende\n8410\nDenmark",
        "iso2": "DK",
        "lat": 56.3027543,
        "lon": 10.4643834
      },
      "telephone": "+45 888 09000"
    },
    {
      "name": "Create Intelligence Limited",
      "category": [
        "Counter Terrorism & Intelligence",
        "Cyber Security",
        "Information Technology"
      ],
      "address": {
        "text": "Create House\n2 Station Road\nWoodbridge\nSuffolk\nIP12 4DL",
        "iso2": "GB",
        "lat": 52.09069359999999,
        "lon": 1.3157464
      },
      "telephone": "+44 (0)20 3597 7350"
    },
    {
      "name": "Crewshield",
      "category": [
        "Border Security",
        "Counter Terrorism & Intelligence",
        "Explosives & Blast Protection",
        "Maritime Security",
        "Personal Protection Equipment, Clothing & Accessories",
        "Physical Security, Man-guarding & Close Protection"
      ],
      "address": {
        "text": "Weavers\nWalters Green\nPenshurst\nTonbridge\nKent\nTN11 8HD\nUnited Kingdom",
        "iso2": "GB",
        "lat": 51.1494934,
        "lon": 0.1657668
      },
      "website": "www.crewshield.com"
    },
    {
      "name": "CRFS Limited",
      "category": [
        "Border Security",
        "Counter Terrorism & Intelligence",
        "Cyber Security",
        "Maritime Security",
        "Surveillance"
      ],
      "address": {
        "text": "Cambridge Research Park\nBuilding 7200\nBeach Drive\nCambridge\nCambridgeshire\nCB25 9TL\nUnited Kingdom",
        "iso2": "GB",
        "lat": 52.292353,
        "lon": 0.1706348
      },
      "telephone": "+44 (0)1223 859514"
    },
    {
      "name": "CrisisCast Limited",
      "category": [
        "Border Security",
        "Counter Terrorism & Intelligence",
        "Incident & Emergency Response",
        "Professional Services"
      ],
      "address": {
        "text": "2022 Wenlock Road\nLondon\nN1 7GU\nUnited Kingdom",
        "iso2": "GB",
        "lat": 51.530613,
        "lon": -0.0935057
      },
      "telephone": "+44 (0)1424 400911"
    },
    {
      "name": "Cunning Running Software Ltd",
      "category": [
        "Counter Terrorism & Intelligence",
        "Information Technology",
        "Surveillance"
      ],
      "address": {
        "text": "Bell House\n32 Bell Street\nRomsey\nHampshire\nSO51 8GW\nUnited Kingdom",
        "iso2": "GB",
        "lat": 50.9877569,
        "lon": -1.4992654
      },
      "telephone": "+44 (0)1794 834750"
    },
    {
      "name": "Dart Systems Ltd",
      "category": [
        "Border Security",
        "CCTV & Video Analytics",
        "Counter Terrorism & Intelligence",
        "Optics",
        "Surveillance"
      ],
      "address": {
        "text": "Units 16/17 Mill Road\nRadstock\nSomerset\nBA3 5TX\nUnited Kingdom",
        "iso2": "GB",
        "lat": 51.293667,
        "lon": -2.4376702
      },
      "telephone": "+44 (0)1761 432041"
    },
    {
      "name": "Datum Datacentres",
      "category": [
        "Cyber Security",
        "Information Technology",
        "Professional Services"
      ],
      "address": {
        "text": "Cody Technology Park\nFarnborough\nHampshire\nGU14 0LX\nUnited Kingdom",
        "iso2": "GB",
        "lat": 51.2794862,
        "lon": -0.7921119999999999
      },
      "telephone": "+44 (0)845 568 0123"
    },
    {
      "name": "David Horn Communications",
      "category": [
        "Surveillance"
      ],
      "address": {
        "text": "Comtec House\nBramingham Business Park\nEnterprise Way\nLuton\nBedfordshire\nLU3 4BU\nUnited Kingdom",
        "iso2": "GB",
        "lat": 51.9206314,
        "lon": -0.4324422
      },
      "telephone": "+44 (0)1582 490300"
    },
    {
      "name": "dBD Communications",
      "category": [
        "Communications, Command & Control",
        "Incident & Emergency Response"
      ],
      "address": {
        "text": "Unit 14 Brittania Court\nBurnt Mills Industrial Estate\nBasildon\nEssex\nSS13 1EU\nUnited Kingdom",
        "iso2": "GB",
        "lat": 51.5843821,
        "lon": 0.5176531
      },
      "telephone": "+44 (0)1268 724617"
    },
    {
      "name": "Deenside Ltd",
      "category": [
        "Personal Protection Equipment, Clothing & Accessories"
      ],
      "address": {
        "text": "Meadows House\nHenry Street\nNorthampton\nNorthamptonshire\nNN1 4JE\nUnited Kingdom",
        "iso2": "GB",
        "lat": 52.244574,
        "lon": -0.8825178
      },
      "telephone": "+44 (0)1604 633260"
    },
    {
      "name": "Digital Barriers",
      "category": [
        "Border Security",
        "CCTV & Video Analytics",
        "Communications, Command & Control",
        "Maritime Security",
        "Physical Security, Man-guarding & Close Protection",
        "Surveillance",
        "Transport Security"
      ],
      "address": {
        "text": "Cargo Works\n1-2 Hatfields\nLondon\nSE1 9PG\nUnited Kingdom",
        "iso2": "GB",
        "lat": 51.5076087,
        "lon": -0.1079974
      },
      "telephone": "+44 (0)20 3553 5888"
    },
    {
      "name": "DMS Protective Equipment Ltd",
      "category": [
        "Personal Protection Equipment, Clothing & Accessories"
      ],
      "address": {
        "text": "Lingen Road\nLudlow Business Park\nLudlow\nShropshire\nSY8 1XD\nUnited Kingdom",
        "iso2": "GB",
        "lat": 52.3690464,
        "lon": -2.6973797
      },
      "telephone": "+44 (0)1584 874679"
    },
    {
      "name": "DNA Tracker"
    },
    {
      "name": "Drumgrange Ltd",
      "category": [
        "Border Security",
        "Communications, Command & Control",
        "Counter Terrorism & Intelligence",
        "Incident & Emergency Response",
        "Maritime Security",
        "Professional Services"
      ],
      "address": {
        "text": "Unit A, The Forum\nHanworth Lane\nChertsey\nSurrey\nKT16 9JX\nUnited Kingdom",
        "iso2": "GB",
        "lat": 51.3835401,
        "lon": -0.5094778999999999
      },
      "telephone": "+44 (0)1932 581100"
    },
    {
      "name": "DSA Detection LLC",
      "category": [
        "Border Security",
        "CBRN",
        "Explosives & Blast Protection",
        "Transport Security"
      ],
      "address": {
        "text": "14 Horseshoe Business Park\nUpper Lye Lane\nBricket Wood\nSt Albans\nHerts\nAL2 3TA\nUnited Kingdom",
        "iso2": "GB",
        "lat": 51.70910199999999,
        "lon": -0.3583307
      },
      "website": "www.dsadetection.com"
    },
    {
      "name": "DSM Dyneema",
      "category": [
        "Personal Protection Equipment, Clothing & Accessories"
      ],
      "address": {
        "text": "Urmonderbaan 22\nGeleen\n6167 RD\nNetherlands",
        "iso2": "NL",
        "lat": 50.9843114,
        "lon": 5.7878671
      },
      "telephone": "+31 (0)46 750 65 55"
    },
    {
      "name": "DTC",
      "category": [
        "Border Security",
        "Communications, Command & Control",
        "Counter Terrorism & Intelligence",
        "Surveillance"
      ],
      "address": {
        "text": "Fusion 2, 1100 Parkway\nSolent Business Park\nWhiteley\nFareham\nHampshire\nPO15 7AB\nUnited Kingdom",
        "iso2": "GB",
        "lat": 50.8768212,
        "lon": -1.2477975
      },
      "telephone": "+44 (0)1489 566750"
    },
    {
      "name": "DuPont International Operations Sàrl",
      "category": [
        "Border Security",
        "Explosives & Blast Protection",
        "Personal Protection Equipment, Clothing & Accessories",
        "Vehicles"
      ],
      "address": {
        "text": "2, Chemin du Pavillon\nP.O. Box 50\nLe Grand-Saconnex\nGeneva\nCH-1218\nSwitzerland",
        "iso2": "CH",
        "lat": 46.2384691,
        "lon": 6.1221518
      },
      "telephone": "+41 22 717 51 88"
    },
    {
      "name": "E2V",
      "category": [
        "Border Security",
        "Maritime Security"
      ],
      "address": {
        "text": "106 Waterhouse Lane\nChelmsford,\nEssex\nCM1 2QU",
        "iso2": "GB",
        "lat": 51.7317195,
        "lon": 0.4562485
      },
      "website": "www.e2v.com/rf-power"
    },
    {
      "name": "Earle International",
      "category": [
        "Border Security",
        "Counter Terrorism & Intelligence",
        "Custodial",
        "Maritime Security",
        "Optics",
        "Personal Protection Equipment, Clothing & Accessories",
        "Storage & Containers",
        "Surveillance"
      ],
      "address": {
        "text": "Unit 6A\nRedhills Business Park\nRedhills Lane\nPenrith\nCumbria\nCA11 0DT\nUnited Kingdom",
        "iso2": "GB",
        "lat": 54.6496757,
        "lon": -2.7707782
      },
      "telephone": "+44 (0)1768 892800"
    },
    {
      "name": "Edesix",
      "category": [
        "Border Security",
        "CCTV & Video Analytics",
        "Incident & Emergency Response",
        "Information Technology",
        "Personal Protection Equipment, Clothing & Accessories",
        "Physical Security, Man-guarding & Close Protection",
        "Surveillance",
        "Transport Security"
      ],
      "address": {
        "text": "16 Forth Street\nEdinburgh\nEH1 3LH\nUnited Kingdom",
        "iso2": "GB",
        "lat": 55.9579794,
        "lon": -3.1873604
      },
      "telephone": "+44 (0)131 510 0232"
    },
    {
      "name": "Elcoman",
      "category": [
        "Cyber Security",
        "Information Technology"
      ],
      "address": {
        "text": "via Gorizia 9\nBovisio Masciago\nMonza –  Brianza\n20813\nItaly",
        "iso2": "IT",
        "lat": 45.6156235,
        "lon": 9.146117799999999
      },
      "telephone": "+44 (0)20 7821 8355"
    },
    {
      "name": "Enigma",
      "category": [
        "Explosives & Blast Protection",
        "Maritime Security",
        "Storage & Containers",
        "Surveillance",
        "Transport Security"
      ],
      "address": {
        "text": "Laurel House\nSouthwick Road\nGlapthorn\nPeterborough\nPE8 5BD\nUnited Kingdom",
        "iso2": "GB",
        "lat": 52.5000551,
        "lon": -0.4888997999999999
      },
      "telephone": "+44 (0)1832 274 963"
    },
    {
      "name": "Enterprise Control Systems Ltd",
      "category": [
        "Border Security",
        "Communications, Command & Control",
        "Counter Terrorism & Intelligence",
        "Maritime Security",
        "Surveillance",
        "Transport Security",
        "Unmanned Systems & Robotics",
        "Vehicles"
      ],
      "address": {
        "text": "ECS Technology Park\nWappenham\nNorthamptonshire\nNN12 8WJ\nUnited Kingdom",
        "iso2": "GB",
        "lat": 52.1064737,
        "lon": -1.0856287
      },
      "telephone": "+44 (0)1327 861950"
    },
    {
      "name": "Envitia",
      "category": [
        "Communications, Command & Control",
        "Counter Terrorism & Intelligence",
        "Information Technology"
      ],
      "address": {
        "text": "North Heath Lane\nNorth Heath Lane\nHorsham\nWest Sussex\nRH12 5UX\nUnited Kingdom",
        "iso2": "GB",
        "lat": 51.0802665,
        "lon": -0.3163437
      },
      "telephone": "+44 (0)1403 273173"
    },
    {
      "name": "Erebus",
      "category": [
        "Counter Terrorism & Intelligence",
        "Professional Services",
        "Surveillance"
      ],
      "address": {
        "text": "Unit 4\nHereford Trade Park\nHolmer Road\nHereford\nHR4 9SG\nUnited Kingdom",
        "iso2": "GB",
        "lat": 52.06656410000001,
        "lon": -2.7202988
      },
      "telephone": "+44 (0)1432 355337"
    },
    {
      "name": "Ericsson Ltd",
      "category": [
        "Border Security",
        "CCTV & Video Analytics",
        "Communications, Command & Control",
        "Cyber Security",
        "Incident & Emergency Response",
        "Information Technology",
        "Maritime Security",
        "Optics"
      ],
      "address": {
        "text": "4 Middleton Gate\nGuildford\nUnited Kingdom",
        "iso2": "GB",
        "lat": 51.2472717,
        "lon": -0.5850497
      },
      "telephone": "+44 (0)1483 303666"
    },
    {
      "name": "ESG",
      "category": [
        "Access Control & Entry Systems",
        "Physical Security, Man-guarding & Close Protection"
      ]
    },
    {
      "name": "Eskan Electronics",
      "category": [
        "Border Security",
        "Counter Terrorism & Intelligence",
        "Cyber Security",
        "Explosives & Blast Protection",
        "Forensic Services",
        "Information Technology",
        "Surveillance",
        "Unmanned Systems & Robotics"
      ],
      "address": {
        "text": "Units 14 & 15 Kelvin Industrial Estate\nLong Drive\nGreenford\nMiddlesex\nUB6 8WA\nUnited Kingdom",
        "iso2": "GB",
        "lat": 51.54463,
        "lon": -0.3591032
      },
      "telephone": "+44 (0)20 8813 0776"
    },
    {
      "name": "ESSA Technology",
      "category": [
        "Access Control & Entry Systems",
        "Border Security",
        "Counter Terrorism & Intelligence",
        "Surveillance"
      ],
      "address": {
        "text": "Unit 8 Castle Buildings\nGilston Road\nSaltash\nPL12 6TW\nUnited Kingdom",
        "iso2": "GB",
        "lat": 50.417657,
        "lon": -4.2314164
      }
    },
    {
      "name": "Estatom Systems Ltd",
      "category": [
        "Communications, Command & Control",
        "Counter Terrorism & Intelligence",
        "Cyber Security",
        "Forensic Services",
        "Information Technology",
        "Professional Services",
        "Storage & Containers",
        "Unmanned Systems & Robotics"
      ],
      "address": {
        "text": "3 Shortlands\nHammersmith\nLondon\nW6 8DA\nUnited Kingdom",
        "iso2": "GB",
        "lat": 51.4928277,
        "lon": -0.2198829
      },
      "telephone": "+44 (0)20 36 098765"
    },
    {
      "name": "Esterline",
      "category": [
        "Communications, Command & Control"
      ],
      "address": {
        "text": "Waverley Industrial Park\nHailsham Drive\nHarrow\nHA1 4TR\nUnited Kingdom",
        "iso2": "GB",
        "lat": 51.5948852,
        "lon": -0.341801
      },
      "telephone": "+44 (0)20 8515 6200"
    },
    {
      "name": "Eventmap Limited",
      "category": [
        "Information Technology",
        "Professional Services"
      ],
      "address": {
        "text": "The Warehouse\nFirst Floor\n7 James Street South\nBelfast\nBT2 8DN\nUnited Kingdom",
        "iso2": "GB",
        "lat": 54.5956381,
        "lon": -5.931098700000001
      },
      "telephone": "+44 (0)28 9023 6558"
    },
    {
      "name": "Evidence Talks Ltd",
      "category": [
        "Border Security",
        "Counter Terrorism & Intelligence",
        "Cyber Security",
        "Forensic Services",
        "Incident & Emergency Response",
        "Professional Services",
        "Surveillance"
      ],
      "address": {
        "text": "7-8 Darin Court\nCrownhill\nMilton Keynes\nBuckinghamshire\nMK8 0AD\nUnited Kingdom",
        "iso2": "GB",
        "lat": 52.0306588,
        "lon": -0.7982741
      },
      "telephone": "+44 (0)8451 254400"
    },
    {
      "name": "EXFO Europe Ltd",
      "category": [
        "Communications, Command & Control",
        "Counter Terrorism & Intelligence",
        "Cyber Security",
        "Surveillance"
      ],
      "address": {
        "text": "Winchester House\nSchool Lane\nChandlers Ford\nSouthampton\nSO52 4DG\nUnited Kingdom",
        "iso2": "GB",
        "lat": 50.9785468,
        "lon": -1.3922538
      },
      "telephone": "+44(0)2380 246800"
    },
    {
      "name": "Explosive Risk Management Ltd",
      "category": [
        "Border Security",
        "CBRN",
        "Counter Terrorism & Intelligence",
        "Forensic Services",
        "Incident & Emergency Response",
        "Physical Security, Man-guarding & Close Protection",
        "Professional Services",
        "Transport Security"
      ],
      "address": {
        "text": "ERM, 14 Talisman Business Centre\nPark Gate\nSouthampton\nHampshire\nSO31 7GA\nUnited Kingdom",
        "iso2": "GB",
        "lat": 50.874447,
        "lon": -1.26668
      },
      "telephone": "+44 (0)1489 559817"
    },
    {
      "name": "FASTASLEEP",
      "category": [
        "Custodial"
      ],
      "address": {
        "text": "5 Windmill Court\nGreystone Road\nAntrim\nCo Antrim\nBT41 2TX\nUnited Kingdom",
        "iso2": "GB",
        "lat": 54.7150472,
        "lon": -6.1806693
      },
      "telephone": "+44 (0)28 9442 8686"
    },
    {
      "name": "Fastlane – An IDL Brand",
      "category": [
        "Access Control & Entry Systems",
        "Border Security"
      ],
      "address": {
        "text": "Feltham Point\nAir Park Way\nFeltham\nMiddx\nTW13 7EQ\nUnited Kingdom",
        "iso2": "GB",
        "lat": 51.4439865,
        "lon": -0.4070799000000001
      },
      "telephone": "+44 (0)20 8890 5550"
    },
    {
      "name": "Finmeccanica",
      "category": [
        "Border Security",
        "CBRN",
        "Communications, Command & Control",
        "Cyber Security",
        "Maritime Security",
        "Optics",
        "Surveillance",
        "Unmanned Systems & Robotics"
      ],
      "address": {
        "text": "Christopher Martin Road\nBasildon\nEssex\nSS143 3EL\nUnited Kingdom",
        "iso2": "GB",
        "lat": 51.5917574,
        "lon": 0.4903426
      },
      "website": "www.finmeccanica.com"
    },
    {
      "name": "First Tactical",
      "category": [
        "Border Security",
        "Counter Terrorism & Intelligence",
        "Custodial",
        "Incident & Emergency Response",
        "Personal Protection Equipment, Clothing & Accessories",
        "Physical Security, Man-guarding & Close Protection",
        "Transport Security"
      ],
      "address": {
        "text": "16 Mill Street\nOakham\nLeicestershire\nLE15 6EA\nUnited Kingdom",
        "iso2": "GB",
        "lat": 52.66846779999999,
        "lon": -0.727194
      },
      "telephone": "+44 (0)1572 772490"
    },
    {
      "name": "Fischer Connectors Ltd",
      "category": [
        "CCTV & Video Analytics",
        "Communications, Command & Control",
        "Counter Terrorism & Intelligence",
        "Maritime Security",
        "Optics",
        "Surveillance",
        "Unmanned Systems & Robotics",
        "Vehicles"
      ],
      "address": {
        "text": "11 The Briars\nWaterberry Drive\nWaterlooville\nHants\nPO7 &YH\nUnited Kingdom",
        "iso2": "GB",
        "lat": 50.8849953,
        "lon": -1.043744
      },
      "telephone": "+44 (0)2392 459600"
    },
    {
      "name": "Forensic Analytics Ltd"
    },
    {
      "name": "Forensic Mobile Services Ltd",
      "category": [
        "Cyber Security",
        "Forensic Services"
      ],
      "address": {
        "text": "Old Mews\n32 High Street\nThatcham\nBerkshire\nRG19 3JD\nUnited Kingdom",
        "iso2": "GB",
        "lat": 51.4033859,
        "lon": -1.2595954
      },
      "telephone": "+44 (0)1635 866678"
    },
    {
      "name": "ForenteQ Ltd",
      "category": [
        "Forensic Services"
      ],
      "address": {
        "text": "Pure Offices\nWilton Drive\nTournament Fields\nWarwick\nCV34 6RG\nUnited Kingdom",
        "iso2": "GB",
        "lat": 52.2651329,
        "lon": -1.6059304
      },
      "telephone": "+44 (0)1926 676402"
    },
    {
      "name": "FORSOLUTION LTD"
    },
    {
      "name": "Foster + Freeman Ltd",
      "country": {
        "text": "United Kingdom",
        "iso2": "GB"
      },
      "telephone": "+44 (0)1386 768 050"
    },
    {
      "name": "Frazer-Nash",
      "category": [
        "CBRN",
        "Counter Terrorism & Intelligence",
        "Cyber Security",
        "Information Technology",
        "Maritime Security",
        "Physical Security, Man-guarding & Close Protection",
        "Professional Services",
        "Transport Security"
      ],
      "address": {
        "text": "Stonebridge House\nDorking Business Park\nDorking\nSurrey\nRH4 1HJ\nUnited Kingdom",
        "iso2": "GB",
        "lat": 51.2348942,
        "lon": -0.3373582
      },
      "telephone": "+44 (0)117 922 6242"
    },
    {
      "name": "Frontier Pitts Ltd",
      "category": [
        "Access Control & Entry Systems",
        "Border Security",
        "Physical Security, Man-guarding & Close Protection"
      ],
      "address": {
        "text": "Crompton House\nCrompton Way\nManor Royal Industrial Estate\nCrawley\nRH10 9QZ\nUnited Kingdom",
        "iso2": "GB",
        "lat": 51.12891949999999,
        "lon": -0.1802964
      },
      "website": "www.frontierpitts.com"
    },
    {
      "name": "Future Digital"
    },
    {
      "name": "Future Fibre Technologies",
      "category": [
        "Border Security",
        "Cyber Security",
        "Maritime Security",
        "Transport Security"
      ],
      "address": {
        "text": "3000 Hillswood Drive\nChertsey\nSurrey\nKT16 0RS\nUnited Kingdom",
        "iso2": "GB",
        "lat": 51.3727582,
        "lon": -0.5363507
      },
      "telephone": "+44 (0)1932 895 317"
    },
    {
      "name": "Futurum Consultancy & Training Ltd",
      "category": [
        "Counter Terrorism & Intelligence",
        "Custodial",
        "Cyber Security",
        "Forensic Services",
        "Incident & Emergency Response",
        "Professional Services",
        "Surveillance",
        "Transport Security"
      ],
      "address": {
        "text": "71-75\nShelton Street\nCovent Garden\nLondon\nWC2H 9JQ\nUnited Kingdom",
        "iso2": "GB",
        "lat": 51.5149056,
        "lon": -0.1235464
      },
      "website": "www.futurumglobal.com"
    },
    {
      "name": "G6 Global Communications",
      "category": [
        "Communications, Command & Control",
        "Information Technology",
        "Professional Services",
        "Surveillance"
      ],
      "address": {
        "text": "The Old Workshop\nHortham Farm\nAlmondsbury\nBristol\nBS32 4JW\nUnited Kingdom",
        "iso2": "GB",
        "lat": 51.5577645,
        "lon": -2.546512
      },
      "telephone": "+44 (0)1454 610 050"
    },
    {
      "name": "Gallagher",
      "category": [
        "Access Control & Entry Systems",
        "Biometrics & Imagery"
      ],
      "address": {
        "text": "Security House, Unit 5 Eastboro Fields\nHemdale Business Park, Attleborough\nNuneaton\nCV11 6GL\nUnited Kingdom",
        "iso2": "GB",
        "lat": 52.52157339999999,
        "lon": -1.4405295
      },
      "telephone": "+44 (0)2476 641234"
    },
    {
      "name": "Gamma TSE Ltd",
      "category": [
        "CBRN",
        "Communications, Command & Control",
        "Counter Terrorism & Intelligence",
        "Forensic Services",
        "Personal Protection Equipment, Clothing & Accessories",
        "Physical Security, Man-guarding & Close Protection",
        "Surveillance",
        "Vehicles"
      ],
      "address": {
        "text": "Units D-G\nPorton Business Centre\nPorton\nSalisbury\nWilts\nSP4 0ND\nUnited Kingdom",
        "iso2": "GB",
        "lat": 51.133479,
        "lon": -1.7397099
      },
      "telephone": "+44 (0)1980 611333"
    },
    {
      "name": "Geoquip Worldwide",
      "category": [
        "Access Control & Entry Systems",
        "Border Security",
        "CCTV & Video Analytics",
        "Communications, Command & Control",
        "Cyber Security",
        "Physical Security, Man-guarding & Close Protection",
        "Surveillance",
        "Transport Security"
      ],
      "address": {
        "text": "Units 3 & 4 Duffield Road\nLittle Eaton\nDerbyshire\nDE21 5DR\nUnited Kingdom",
        "iso2": "GB",
        "lat": 52.9659039,
        "lon": -1.4621436
      },
      "telephone": "+44 (0)1629 824891"
    },
    {
      "name": "Global Support Services",
      "address": {
        "text": "60 Gresham Street\nLondon\nEC2V 7BB\nUnited Kingdom",
        "iso2": "GB",
        "lat": 51.5148551,
        "lon": -0.0910299
      },
      "telephone": "0845 519 8602"
    },
    {
      "name": "GMK Tactical Products",
      "category": [
        "Counter Terrorism & Intelligence",
        "Explosives & Blast Protection",
        "Optics",
        "Personal Protection Equipment, Clothing & Accessories",
        "Surveillance"
      ],
      "address": {
        "text": "Bear House\nConcorde Way\nFareham\nHampshire\nPO15 5RL\nUnited Kingdom",
        "iso2": "GB",
        "lat": 50.86984959999999,
        "lon": -1.2427158
      },
      "telephone": "+44 (0)1489 579999"
    },
    {
      "name": "GOS Systems",
      "category": [
        "Biometrics & Imagery",
        "Border Security",
        "Counter Terrorism & Intelligence",
        "Physical Security, Man-guarding & Close Protection",
        "Surveillance"
      ],
      "address": {
        "text": "32 St. James’s Street\nLondon\nSW1A 1HD\nUnited Kingdom",
        "iso2": "GB",
        "lat": 51.5072768,
        "lon": -0.1395539
      },
      "telephone": "+44 (0)20 3190 6600"
    },
    {
      "name": "Griffiths Communications Ltd"
    },
    {
      "name": "Griffon Hoverwork",
      "category": [
        "Border Security",
        "Maritime Security",
        "Surveillance",
        "Vehicles"
      ],
      "address": {
        "text": "Merlin Quay\nHazel Road\nWoolston\nSouthampton\nHampshire\nSO19 7GB\nUnited Kingdom",
        "iso2": "GB",
        "lat": 50.9004826,
        "lon": -1.3819911
      },
      "telephone": "+44 (0)2380 686666"
    },
    {
      "name": "Group 2000 Nederland B.V.",
      "category": [
        "Biometrics & Imagery",
        "Border Security",
        "Communications, Command & Control",
        "Counter Terrorism & Intelligence",
        "Cyber Security",
        "Information Technology",
        "Professional Services",
        "Surveillance"
      ],
      "address": {
        "text": "Van der Hoopweg 1\nAlmelo\n7602PJ\nNetherlands",
        "iso2": "NL",
        "lat": 52.373739,
        "lon": 6.647547299999999
      },
      "telephone": "+31 546482400"
    },
    {
      "name": "Haix – Schuhe Produktions – und Vertriebs GmbH",
      "category": [
        "Personal Protection Equipment, Clothing & Accessories"
      ],
      "address": {
        "text": "10 Auhofstrasse\nMainburg\nD-84048\nGermany",
        "iso2": "DE",
        "lat": 48.6306538,
        "lon": 11.7783095
      },
      "website": "www.haix.co.uk"
    },
    {
      "name": "Hamilton Erskine Ltd",
      "category": [
        "Custodial",
        "Explosives & Blast Protection",
        "Vehicles"
      ],
      "address": {
        "text": "17 Moss Road\nBallygowan\nDown\nBT23 4TQ\nUnited Kingdom",
        "iso2": "GB",
        "lat": 54.4985983,
        "lon": -5.7827556
      },
      "telephone": "+44 (0)2897 521754"
    },
    {
      "name": "Harquebus",
      "category": [
        "Border Security",
        "Counter Terrorism & Intelligence",
        "Cyber Security",
        "Maritime Security",
        "Professional Services",
        "Surveillance"
      ],
      "address": {
        "text": "80 -83 Long Lane\nLondon\nEC1A 3ET\nUnited Kingdom",
        "iso2": "GB",
        "lat": 51.5196508,
        "lon": -0.0985759
      },
      "telephone": "+44 (0)20 7692 4207"
    },
    {
      "name": "HazmatLINK Ltd",
      "category": [
        "Border Security",
        "CBRN",
        "Custodial",
        "Explosives & Blast Protection",
        "Incident & Emergency Response",
        "Personal Protection Equipment, Clothing & Accessories",
        "Professional Services"
      ],
      "address": {
        "text": "The Innovation Centre\nLauriston Park\nPitchill\nEvesham\nWorcestershire\nWR11 8SN\nUnited Kingdom",
        "iso2": "GB",
        "lat": 52.1627856,
        "lon": -1.9251675
      },
      "telephone": "+44 (0)1242 808902"
    },
    {
      "name": "Heckler & Koch UK",
      "category": [
        "Border Security",
        "Maritime Security",
        "Physical Security, Man-guarding & Close Protection"
      ],
      "address": {
        "text": "PO Box 7151\nNottingham\nNG7 2TD\nUnited Kingdom",
        "iso2": "GB",
        "lat": 52.959883,
        "lon": -1.222125
      },
      "telephone": "+44 (0)115 924 8720"
    },
    {
      "name": "Helmet Integrated Systems Ltd",
      "category": [
        "CBRN",
        "Incident & Emergency Response",
        "Personal Protection Equipment, Clothing & Accessories"
      ],
      "address": {
        "text": "Unit 3\nFocus 4\nFourth Avenue\nLetchworth Garden City\nHerts\nSG6 2TU\nUnited Kingdom",
        "iso2": "GB",
        "lat": 51.9831002,
        "lon": -0.2053169
      },
      "telephone": "+44 (0)1462 478000"
    },
    {
      "name": "Hewlett Packard Enterprise",
      "category": [
        "Border Security",
        "CCTV & Video Analytics",
        "Communications, Command & Control",
        "Cyber Security",
        "Information Technology",
        "Professional Services"
      ],
      "address": {
        "text": "Amen Corner\nCain Road\nBracknell\nBerkshire\nRG12 1HN\nUnited Kingdom",
        "iso2": "GB",
        "lat": 51.4146464,
        "lon": -0.7789247
      },
      "website": "www.hpe.com"
    },
    {
      "name": "Hidden Technology Systems International Ltd",
      "category": [
        "Communications, Command & Control",
        "Counter Terrorism & Intelligence",
        "Personal Protection Equipment, Clothing & Accessories",
        "Physical Security, Man-guarding & Close Protection",
        "Surveillance"
      ],
      "address": {
        "text": "5 Cornhouse Buildings\nClaydons Lane\nRayleigh\nEssex\nSS6 7UP\nUnited Kingdom",
        "iso2": "GB",
        "lat": 51.5755604,
        "lon": 0.6023687
      },
      "telephone": "+44 (0)1708 631333"
    },
    {
      "name": "HSM (UK) Limited",
      "category": [
        "Professional Services"
      ],
      "address": {
        "text": "Zone 1\n14 Attwood Road\nBurntwood Business Park\nBurntwood\nStaffordshire\nWS7 3GJ",
        "iso2": "GB",
        "lat": 52.6807276,
        "lon": -1.9505576
      },
      "telephone": "+44 (0)1543 272490"
    },
    {
      "name": "HT Srl",
      "category": [
        "Counter Terrorism & Intelligence",
        "Cyber Security",
        "Surveillance"
      ],
      "address": {
        "text": "via Moscova, 13\nMilan\n20121\nItaly",
        "iso2": "IT",
        "lat": 45.4762721,
        "lon": 9.1914094
      },
      "telephone": "+39 02 290 60 603"
    },
    {
      "name": "IBM",
      "category": [
        "Counter Terrorism & Intelligence",
        "Cyber Security",
        "Information Technology",
        "Professional Services"
      ],
      "address": {
        "text": "76-78 Upper Ground\nLondon\nSE1 9PZ",
        "iso2": "GB",
        "lat": 51.5072191,
        "lon": -0.1135191
      },
      "website": "www.ibm.com/analytics/us/en/industry/government/index.html"
    },
    {
      "name": "Igence Software Ltd",
      "category": [
        "Access Control & Entry Systems",
        "Biometrics & Imagery",
        "Border Security",
        "CBRN",
        "CCTV & Video Analytics",
        "Communications, Command & Control",
        "Cyber Security",
        "Incident & Emergency Response",
        "Surveillance",
        "Unmanned Systems & Robotics",
        "Vehicles"
      ]
    },
    {
      "name": "Ilasco/Keela",
      "category": [
        "CBRN",
        "Counter Terrorism & Intelligence",
        "Incident & Emergency Response",
        "Personal Protection Equipment, Clothing & Accessories"
      ],
      "address": {
        "text": "52-53 Nasmyth Road\nGlenrothes\nFife\nUnited Kingdom",
        "iso2": "GB",
        "lat": 56.1778397,
        "lon": -3.1985084
      },
      "telephone": "+44 (0)1592 777000"
    },
    {
      "name": "IMIX Vision Support Systems"
    },
    {
      "name": "Inazone Ltd",
      "category": [
        "CCTV & Video Analytics",
        "Optics",
        "Surveillance"
      ],
      "address": {
        "text": "Unit 1, Mill Farm\nKelston\nBath\nBA1 9AQ\nUnited Kingdom",
        "iso2": "GB",
        "lat": 51.4037093,
        "lon": -2.4326359
      },
      "telephone": "+44 (0)1225 331818"
    },
    {
      "name": "IndigoVision",
      "category": [
        "CCTV & Video Analytics",
        "Surveillance"
      ],
      "address": {
        "text": "Charles Darwin House\nThe Edinburgh Technopole\nEdinburgh\nEH26 0PY\nUnited Kingdom",
        "iso2": "GB",
        "lat": 55.8592837,
        "lon": -3.2064892
      },
      "telephone": "+44 (0)131 475 7200"
    },
    {
      "name": "Innova",
      "category": [
        "Surveillance"
      ],
      "address": {
        "text": "via del Follatoio 12\nTrieste\n34148\nItaly",
        "iso2": "IT",
        "lat": 45.6209529,
        "lon": 13.8056363
      },
      "telephone": "+44 (0)7957 216988"
    },
    {
      "name": "Int Research Ltd",
      "category": [
        "Border Security",
        "CCTV & Video Analytics",
        "Counter Terrorism & Intelligence",
        "Cyber Security",
        "Optics",
        "Professional Services",
        "Surveillance",
        "Vehicles"
      ],
      "address": {
        "text": "Unit 130\n24-28 St Leonards Road\nWindsor\nBerkshire\nSL4 3BB\nUnited Kingdom",
        "iso2": "GB",
        "lat": 51.4792224,
        "lon": -0.612601
      },
      "telephone": "+44 (0)1753 535599"
    },
    {
      "name": "Integrity Assured Ltd",
      "category": [
        "Border Security",
        "CBRN",
        "Counter Terrorism & Intelligence",
        "Custodial",
        "Cyber Security",
        "Incident & Emergency Response",
        "Information Technology",
        "Maritime Security",
        "Physical Security, Man-guarding & Close Protection",
        "Professional Services",
        "Transport Security"
      ],
      "address": {
        "text": "17 Eventus\nSunderland Rd\nPeterborough\nCambridgeshire\nPE6 8FD",
        "iso2": "GB",
        "lat": 52.68895209999999,
        "lon": -0.3094235
      },
      "telephone": "+44 (0)1778 382705"
    },
    {
      "name": "Intellicam LLC",
      "category": [
        "Border Security",
        "Counter Terrorism & Intelligence",
        "Surveillance"
      ],
      "address": {
        "text": "11138 Air Park Road, Suite H\nAshland\nVirginia\nVA 23005\nUnited States",
        "iso2": "US",
        "lat": 37.7063007,
        "lon": -77.4373306
      },
      "telephone": "+ 1 804 798 1004"
    },
    {
      "name": "International Procurement Services Ltd",
      "address": {
        "text": "118 Piccadilly\nLondon\nW1J 7NW\nUnited Kingdom",
        "iso2": "GB",
        "lat": 51.5044524,
        "lon": -0.1479357
      },
      "telephone": "+44 (0)20 7258 3771"
    },
    {
      "name": "International Safety Products",
      "category": [
        "Border Security",
        "Incident & Emergency Response",
        "Maritime Security",
        "Personal Protection Equipment, Clothing & Accessories"
      ],
      "address": {
        "text": "Orrell Mount\n159 Hawthorne Road\nBootle\nMerseyside\nL20 6JU\nUnited Kingdom",
        "iso2": "GB",
        "lat": 53.4668189,
        "lon": -2.9928076
      },
      "telephone": "+44 (0)151 922 2202"
    },
    {
      "name": "Intersec Journal",
      "category": [
        "Access Control & Entry Systems",
        "Border Security",
        "CBRN",
        "Counter Terrorism & Intelligence",
        "Explosives & Blast Protection",
        "Personal Protection Equipment, Clothing & Accessories",
        "Surveillance",
        "Vehicles"
      ],
      "address": {
        "text": "22 Eastworth Rd\nChertsey\nSurrey\nKT168DN\nUnited Kingdom",
        "iso2": "GB",
        "lat": 51.3874925,
        "lon": -0.5065105999999999
      },
      "telephone": "+44 (0)1932 566921"
    },
    {
      "name": "Intertek",
      "category": [
        "Forensic Services",
        "Professional Services"
      ],
      "address": {
        "text": "Centre Court\nMeridian Business Park\nLeicester\nLeicestershire\nLE19 1WD\nUnited Kingdom",
        "iso2": "GB",
        "lat": 52.61190029999999,
        "lon": -1.1919554
      },
      "telephone": "+44 (0)116 263 0330"
    },
    {
      "name": "Invest Northern Ireland",
      "address": {
        "text": "6th Floor\nBedford Square\nBelfast\nBT2 7ES\nUnited Kingdom",
        "iso2": "GB",
        "lat": 54.5936944,
        "lon": -5.9311405
      },
      "telephone": "+44 (0)28 9023 9090"
    },
    {
      "name": "IPS S.p.A.",
      "category": [
        "CCTV & Video Analytics",
        "Communications, Command & Control",
        "Counter Terrorism & Intelligence",
        "Cyber Security",
        "Information Technology",
        "Surveillance"
      ],
      "address": {
        "text": "Via Monticello, 7\nAprilia\nLT\n04011\nItaly",
        "iso2": "IT",
        "lat": 41.5945514,
        "lon": 12.6310401
      },
      "telephone": "+39 06 92710391 / +39 333 6053139"
    },
    {
      "name": "ISS Global",
      "category": [
        "Biometrics & Imagery",
        "CCTV & Video Analytics",
        "Communications, Command & Control",
        "Counter Terrorism & Intelligence",
        "Information Technology",
        "Surveillance"
      ],
      "address": {
        "text": "Communications House\n26 York Street\nLondon\nW1U 6PZ\nUnited Kingdom",
        "iso2": "GB",
        "lat": 51.520794,
        "lon": -0.1586267
      },
      "telephone": "+44 (0)20 7060 9730"
    },
    {
      "name": "ISSEE",
      "category": [
        "Counter Terrorism & Intelligence",
        "Professional Services"
      ],
      "address": {
        "text": "Centre for Homeland Security\nTalbot Hall\nHeythrop Park\nEnstone\nOxfordshire\nOX7 5UE\nUnited Kingdom",
        "iso2": "GB",
        "lat": 51.9315574,
        "lon": -1.4726855
      },
      "telephone": "+44 (0)1608 678382"
    },
    {
      "name": "Jacksons Fencing",
      "category": [
        "Access Control & Entry Systems",
        "Border Security",
        "Physical Security, Man-guarding & Close Protection"
      ],
      "address": {
        "text": "Stowting Common\nAshford\nKent\nTN256BN\nUnited Kingdom",
        "iso2": "GB",
        "lat": 51.1531821,
        "lon": 1.0426484
      },
      "telephone": "+44 (0)1233 750393"
    },
    {
      "name": "Jaguar Land Rover",
      "category": [
        "Explosives & Blast Protection",
        "Transport Security",
        "Vehicles"
      ],
      "address": {
        "text": "Abbey Road\nWhitley\nCoventry\nWarwickshire\nCV3 4LF\nUnited Kingdom",
        "iso2": "GB",
        "lat": 52.387202,
        "lon": -1.4840122
      },
      "website": "www.jaguarlandrover.com"
    },
    {
      "name": "Jankel",
      "category": [
        "Border Security",
        "Counter Terrorism & Intelligence",
        "Explosives & Blast Protection",
        "Vehicles"
      ],
      "address": {
        "text": "P. O. Box 1\nWeybridge\nSurrey\nKT13 8XR\nUnited Kingdom",
        "iso2": "GB",
        "lat": 51.3725599,
        "lon": -0.4597466999999999
      },
      "telephone": "+44 (0)1932 834420"
    },
    {
      "name": "JSI Telecom",
      "category": [
        "Access Control & Entry Systems",
        "Border Security",
        "Communications, Command & Control",
        "Counter Terrorism & Intelligence",
        "Cyber Security",
        "Forensic Services",
        "Information Technology",
        "Surveillance"
      ],
      "address": {
        "text": "15004 Northridge Drive\nSuite 100\nChantilly\nVA 20151\nUnited States",
        "iso2": "US",
        "lat": 38.882219,
        "lon": -77.465057
      },
      "telephone": "+1 703 466 5220"
    },
    {
      "name": "JTOL Ltd",
      "category": [
        "Communications, Command & Control",
        "Counter Terrorism & Intelligence",
        "Information Technology",
        "Professional Services",
        "Surveillance",
        "Transport Security",
        "Vehicles"
      ],
      "address": {
        "text": "Dale Road\nRedditch\nWorcestershire\nB98 8HJ\nUnited Kingdom",
        "iso2": "GB",
        "lat": 52.3105648,
        "lon": -1.931287
      },
      "website": "www.jtol.co.uk"
    },
    {
      "name": "Kelvin Hughes Ltd",
      "category": [
        "Border Security",
        "Counter Terrorism & Intelligence",
        "Incident & Emergency Response",
        "Maritime Security",
        "Surveillance",
        "Transport Security"
      ],
      "address": {
        "text": "6 Mollison Ave\nVoltage\nEnfield\nLondon\nEN3 7XQ\nUnited Kingdom",
        "iso2": "GB",
        "lat": 51.6798009,
        "lon": -0.0298769
      },
      "telephone": "+44 (0)1992 805200"
    },
    {
      "name": "Keyprint Security Ltd",
      "category": [
        "Access Control & Entry Systems",
        "Professional Services",
        "Transport Security",
        "Vehicles"
      ],
      "address": {
        "text": "45 Assembly Street\nEdinburgh\nEH6 7BQ\nUnited Kingdom",
        "iso2": "GB",
        "lat": 55.9748801,
        "lon": -3.1662802
      },
      "telephone": "+44 (0)131 555 0909"
    },
    {
      "name": "Keysight Technologies",
      "category": [
        "Communications, Command & Control",
        "Information Technology",
        "Optics",
        "Professional Services",
        "Surveillance"
      ],
      "address": {
        "text": "610 Wharfedale Road\nWinnersh Triangle\nWorkingham\nBerkshire\nRG41 5TP\nUnited Kingdom",
        "iso2": "GB",
        "lat": 51.4375588,
        "lon": -0.8841738
      },
      "website": "www.keysight.com"
    },
    {
      "name": "Keysource",
      "category": [
        "Communications, Command & Control",
        "Information Technology",
        "Professional Services"
      ],
      "address": {
        "text": "North Heath Estate\nNorth Heath Lane\nHorsham\nWest Sussex\nRH12 5QE\nUnited Kingdom",
        "iso2": "GB",
        "lat": 51.0807971,
        "lon": -0.3161936
      },
      "telephone": "+44 (0)8452 043333"
    },
    {
      "name": "Kinesense Ltd",
      "category": [
        "Biometrics & Imagery",
        "CCTV & Video Analytics",
        "Counter Terrorism & Intelligence",
        "Forensic Services",
        "Information Technology",
        "Surveillance",
        "Transport Security"
      ],
      "address": {
        "text": "79 Merrion Square\nDublin\nSelect State\nD2\nIreland",
        "iso2": "IE",
        "lat": 53.3392259,
        "lon": -6.2510074
      },
      "telephone": "+44 (0)20 7096 1550"
    },
    {
      "name": "KIT Design Ltd",
      "address": {
        "text": "Nunnery Drive\nSheffield\nYorkshire\nS2 1TA",
        "iso2": "GB",
        "lat": 53.3829715,
        "lon": -1.4354195
      },
      "telephone": "0114 279 8136"
    },
    {
      "name": "Kromek Group plc",
      "category": [
        "Border Security",
        "CBRN",
        "Counter Terrorism & Intelligence",
        "Transport Security"
      ],
      "address": {
        "text": "Thomas Wright Way\nNETPARK\nSedgefield\nDurham\nTS21 3FD\nUnited Kingdom",
        "iso2": "GB",
        "lat": 54.6705927,
        "lon": -1.4512702
      },
      "telephone": "+44 (0)1740 626060"
    },
    {
      "name": "L-3 TRL Technology",
      "category": [
        "Border Security",
        "Communications, Command & Control",
        "Counter Terrorism & Intelligence",
        "Cyber Security",
        "Maritime Security",
        "Surveillance"
      ],
      "address": {
        "text": "11 Shannon Way\nTewkesbury\nGloucestershire\nGL20 8ND\nUnited Kingdom",
        "iso2": "GB",
        "lat": 52.0016377,
        "lon": -2.1271459
      },
      "telephone": "+44 (0)1684 278700"
    },
    {
      "name": "L&G International Ltd",
      "category": [
        "Access Control & Entry Systems",
        "CCTV & Video Analytics",
        "Communications, Command & Control",
        "Counter Terrorism & Intelligence",
        "Custodial",
        "Cyber Security",
        "Information Technology",
        "Surveillance"
      ],
      "address": {
        "text": "50-61 Bedford Street\nRoyal Leamington Spa\nWarwickshire\nCV325DN\nUnited Kingdom",
        "iso2": "GB",
        "lat": 52.2895325,
        "lon": -1.5364213
      },
      "telephone": "+44 (0)2030 595777"
    },
    {
      "name": "Landguard Systems Limited",
      "category": [
        "Communications, Command & Control",
        "Counter Terrorism & Intelligence",
        "Surveillance"
      ],
      "address": {
        "text": "South Barn\nCams Hall Estate\nFareham\nHampshire\nPO16 8UT\nUnited Kingdom",
        "iso2": "GB",
        "lat": 50.8486156,
        "lon": -1.1660109
      },
      "telephone": "+44 (0)1329 722133"
    },
    {
      "name": "Law Enforcement Int’l Ltd",
      "category": [
        "Border Security",
        "Maritime Security",
        "Physical Security, Man-guarding & Close Protection"
      ],
      "address": {
        "text": "PO Box 328\nSt Albans\nHertfordshire\nAL4 0WA\nUnited Kingdom",
        "iso2": "GB",
        "lat": 51.7476554,
        "lon": -0.3019492
      },
      "telephone": "+44 (0)1727 826607"
    },
    {
      "name": "Leafield Cases",
      "category": [
        "Personal Protection Equipment, Clothing & Accessories",
        "Storage & Containers",
        "Transport Security"
      ],
      "address": {
        "text": "c/o Leafield Environmental\nLeafield Way\nLeafield Industrial Estate\nCorsham\nWiltshire\nSN13 9UD\nUnited Kingdom",
        "iso2": "GB",
        "lat": 51.4185738,
        "lon": -2.1993189
      },
      "telephone": "+44 (0)1225 816504"
    },
    {
      "name": "Level Peaks Associates Ltd",
      "category": [
        "CBRN",
        "Communications, Command & Control",
        "Counter Terrorism & Intelligence",
        "Explosives & Blast Protection",
        "Optics",
        "Personal Protection Equipment, Clothing & Accessories",
        "Surveillance",
        "Unmanned Systems & Robotics"
      ],
      "address": {
        "text": "Unit 4\nHereford Trade Park\nHolmer Road\nHereford\nHR4 9SG\nUnited Kingdom",
        "iso2": "GB",
        "lat": 52.06656410000001,
        "lon": -2.7202988
      },
      "telephone": "+44 (0)1432 341686"
    },
    {
      "name": "LGC ParaDNA",
      "category": [
        "Biometrics & Imagery",
        "Border Security",
        "CBRN",
        "Counter Terrorism & Intelligence",
        "Forensic Services",
        "Surveillance"
      ],
      "address": {
        "text": "Queens Road\nTeddington\nMiddlesex\nTW11 0LY",
        "iso2": "GB",
        "lat": 51.4230491,
        "lon": -0.3387339
      },
      "website": "www.lgcgroup.com"
    },
    {
      "name": "Liteye UK Ltd",
      "category": [
        "Border Security",
        "Optics",
        "Surveillance"
      ],
      "address": {
        "text": "Office 12\n340 The Crescent\nColchester\nEssex\nCO4 9AD\nUnited Kingdom",
        "iso2": "GB",
        "lat": 51.92268250000001,
        "lon": 0.9289868
      },
      "telephone": "+44 (0)1206 848452"
    },
    {
      "name": "Lutra Associates Limited",
      "category": [
        "Border Security",
        "CBRN",
        "Counter Terrorism & Intelligence",
        "Forensic Services",
        "Incident & Emergency Response",
        "Professional Services",
        "Storage & Containers",
        "Unmanned Systems & Robotics"
      ],
      "address": {
        "text": "The Byre, Red Lion Court\nChurch Hill\nStalbridge\nDorset\nDT10 2LR\nUnited Kingdom",
        "iso2": "GB",
        "lat": 50.9621777,
        "lon": -2.3799277
      },
      "telephone": "+44 (0)1963 548005"
    },
    {
      "name": "Magnet Forensics",
      "address": {
        "text": "156 Columbia Street West\nUnit 2\nWaterloo\nOntario\nN2L 3L3\nCanada",
        "iso2": "CA",
        "lat": 43.4772615,
        "lon": -80.5408066
      },
      "telephone": "+1 519 342 0195"
    },
    {
      "name": "Magnum"
    },
    {
      "name": "MANS Location Services Ltd",
      "category": [
        "Counter Terrorism & Intelligence",
        "Forensic Services",
        "Information Technology",
        "Optics"
      ],
      "address": {
        "text": "Unit D Beversbrooke Centre\nRedman Road\nCalne\nWiltshire\nSN11 9PR\nUnited Kingdom",
        "iso2": "GB",
        "lat": 51.453175,
        "lon": -1.9974829
      },
      "telephone": "+44 (0)1249 816181"
    },
    {
      "name": "MASS",
      "category": [
        "Counter Terrorism & Intelligence",
        "Cyber Security",
        "Forensic Services",
        "Information Technology"
      ],
      "address": {
        "text": "Enterprise House\nGreat North Road\nLittle Paxton\nSt Neots\nCambridgeshire,\nPE19 6BN\nUnited Kingdom",
        "iso2": "GB",
        "lat": 52.2533209,
        "lon": -0.2641665
      },
      "telephone": "+44 (0)1480 222600"
    },
    {
      "name": "MCM Solutions",
      "category": [
        "Counter Terrorism & Intelligence",
        "Cyber Security",
        "Forensic Services",
        "Information Technology",
        "Maritime Security",
        "Surveillance"
      ],
      "address": {
        "text": "The Courtyard\n30 Worthing Road\nHorsham\nWest Sussex\nRH12 1SL\nUnited Kingdom",
        "iso2": "GB",
        "lat": 51.0624621,
        "lon": -0.3336038
      },
      "telephone": "+44 (0)7870 512961"
    },
    {
      "name": "MDS trak by MetOcean",
      "category": [
        "Maritime Security",
        "Surveillance"
      ],
      "address": {
        "text": "21 Thornhill Drive\nDartmouth\nNova Scotia\nB3B1R9\nCanada",
        "iso2": "CA",
        "lat": 44.7005741,
        "lon": -63.5947438
      },
      "telephone": "+1 902 468 2505"
    },
    {
      "name": "Med-Eng",
      "category": [
        "Explosives & Blast Protection",
        "Maritime Security",
        "Personal Protection Equipment, Clothing & Accessories",
        "Unmanned Systems & Robotics",
        "Vehicles"
      ],
      "address": {
        "text": "20-22 Bedford Row\nLondon\nWC1R 4JS\nUnited Kingdom",
        "iso2": "GB",
        "lat": 51.5205064,
        "lon": -0.1161108
      },
      "website": "www.med-eng.com"
    },
    {
      "name": "Meesons A.I. Ltd",
      "category": [
        "Physical Security, Man-guarding & Close Protection"
      ],
      "address": {
        "text": "Cardea House\nSidings Business Park\nSkipton\nNorth Yorkshire\nBD23 1TB\nUnited Kingdom",
        "iso2": "GB",
        "lat": 53.9576783,
        "lon": -2.0311688
      },
      "telephone": "+44 (0)1756 797727"
    },
    {
      "name": "Memtex Ltd",
      "category": [
        "Border Security",
        "Communications, Command & Control",
        "Counter Terrorism & Intelligence",
        "Information Technology",
        "Surveillance"
      ]
    },
    {
      "name": "Mendip Media Group Ltd",
      "address": {
        "text": "Rockeagle House\nPynes Hill\nExeter\nEX2 5AZ\nUnited Kingdom",
        "iso2": "GB",
        "lat": 50.7114177,
        "lon": -3.4845256
      },
      "telephone": "+44 (0)1392 213958"
    },
    {
      "name": "Mercian Labels Ltd",
      "category": [
        "Forensic Services",
        "Transport Security"
      ],
      "address": {
        "text": "Unit 2 Plant Lane Business Park\nBurntwood\nStaffordshire\nWS7 3GN\nUnited Kingdom",
        "iso2": "GB",
        "lat": 52.681606,
        "lon": -1.9454077
      },
      "telephone": "+44 (0)1543 431099"
    },
    {
      "name": "Metacompliance Ltd"
    },
    {
      "name": "Metis Aerospace Ltd",
      "category": [
        "Counter Terrorism & Intelligence",
        "Surveillance",
        "Unmanned Systems & Robotics"
      ],
      "country": {
        "text": "United Kingdom",
        "iso2": "GB"
      },
      "telephone": "+44 (0)1522 963125"
    },
    {
      "name": "Metrasens",
      "category": [
        "Border Security",
        "Counter Terrorism & Intelligence",
        "Custodial"
      ],
      "address": {
        "text": "8 Beauchamp Business Centre\nSparrowhawk Close\nMalvern\nWorcestershire\nWR14 1GL\nUnited Kingdom",
        "iso2": "GB",
        "lat": 52.1279718,
        "lon": -2.3062601
      },
      "telephone": "+44 (0)1684 219 000"
    },
    {
      "name": "MGT Europe",
      "category": [
        "Border Security",
        "CCTV & Video Analytics",
        "Communications, Command & Control",
        "Counter Terrorism & Intelligence",
        "Explosives & Blast Protection",
        "Information Technology",
        "Optics",
        "Surveillance"
      ],
      "address": {
        "text": "262 Chamberlayne Road\nLondon\nNW10 3LN\nUnited Kingdom",
        "iso2": "GB",
        "lat": 51.5408111,
        "lon": -0.225968
      },
      "telephone": "+44 (0)20 8207 0079"
    },
    {
      "name": "MIB Electronic GmbH",
      "category": [
        "Border Security",
        "CCTV & Video Analytics",
        "Communications, Command & Control",
        "Counter Terrorism & Intelligence",
        "Incident & Emergency Response",
        "Maritime Security",
        "Surveillance",
        "Unmanned Systems & Robotics"
      ],
      "address": {
        "text": "Adlerstrae 23\nLaichingen\n89150\nGermany",
        "iso2": "DE",
        "lat": 48.4984012,
        "lon": 9.744002799999999
      },
      "telephone": "+49 7333 923191"
    },
    {
      "name": "Milevado Ltd",
      "category": [
        "Communications, Command & Control",
        "Counter Terrorism & Intelligence",
        "Information Technology",
        "Surveillance"
      ],
      "address": {
        "text": "Suite 1 First Floor\n41 Chalton Street\nLondon\nNW1 1JD\nUnited Kingdom",
        "iso2": "GB",
        "lat": 51.5291613,
        "lon": -0.1299429
      },
      "website": "www.gedion.lt"
    },
    {
      "name": "Minimal Risk Consultancy Limited",
      "category": [
        "Counter Terrorism & Intelligence",
        "Physical Security, Man-guarding & Close Protection",
        "Professional Services"
      ],
      "address": {
        "text": "Rural Enterprise Centre\nRotherwas\nHereford\nHR2 6FE\nUnited Kingdom",
        "iso2": "GB",
        "lat": 52.0384651,
        "lon": -2.6864683
      },
      "telephone": "+44 (0)1432 379950"
    },
    {
      "name": "MLA Ltd",
      "category": [
        "Custodial",
        "Personal Protection Equipment, Clothing & Accessories",
        "Transport Security"
      ],
      "address": {
        "text": "Halifax House\nSeaton Ross\nYork\nYO42 4LU\nUnited Kingdom",
        "iso2": "GB",
        "lat": 53.8646402,
        "lon": -0.8181427
      },
      "telephone": "+44 (0)1759 318557"
    },
    {
      "name": "Morgan Advanced Materials",
      "category": [
        "Border Security",
        "Communications, Command & Control",
        "Explosives & Blast Protection",
        "Personal Protection Equipment, Clothing & Accessories",
        "Physical Security, Man-guarding & Close Protection",
        "Transport Security",
        "Vehicles"
      ],
      "address": {
        "text": "473 Foleshill Rd\nCoventry\nCV6 5AQ\nUnited Kingdom",
        "iso2": "GB",
        "lat": 52.4280159,
        "lon": -1.4999716
      },
      "telephone": "024 7670 2802"
    },
    {
      "name": "Morgan Marine / PSF Wales Ltd",
      "category": [
        "Access Control & Entry Systems",
        "Physical Security, Man-guarding & Close Protection",
        "Storage & Containers",
        "Transport Security"
      ],
      "address": {
        "text": "Llandybie\nllandybie\nAmmanford\nCarms\nSA18 3GY\nUnited Kingdom",
        "iso2": "GB",
        "lat": 51.8348011,
        "lon": -4.0051631
      },
      "telephone": "+44 (0)1269 850437"
    },
    {
      "name": "Morpho",
      "category": [
        "Border Security",
        "CBRN",
        "Explosives & Blast Protection"
      ],
      "address": {
        "text": "7151 Gateway Blvd.\nNewark\nCalifornia\n94560\nUnited States",
        "iso2": "US",
        "lat": 37.5435308,
        "lon": -122.0612573
      },
      "telephone": "+1 510 945 9027"
    },
    {
      "name": "MS Instruments",
      "category": [
        "Forensic Services",
        "Transport Security"
      ],
      "address": {
        "text": "Unit 4\nRavensquay Business Centre\nCray Avenue\nOrpington\nKent\nBR5 4BQ\nUnited Kingdom",
        "iso2": "GB",
        "lat": 51.3884188,
        "lon": 0.109541
      },
      "telephone": "+44 (0)1689 883020"
    },
    {
      "name": "Municipal Security Ltd",
      "category": [
        "Border Security",
        "Custodial",
        "Explosives & Blast Protection",
        "Maritime Security",
        "Storage & Containers",
        "Transport Security"
      ],
      "address": {
        "text": "Seaspace House\nBrighton Road\nHandcross\nHaywards Heath\nWest Sussex\nRH17 6BZ\nUnited Kingdom",
        "iso2": "GB",
        "lat": 51.1096709,
        "lon": -0.191347
      },
      "telephone": "+44 (0)1444 405170"
    },
    {
      "name": "Nautics Group Limited",
      "category": [
        "Counter Terrorism & Intelligence",
        "Surveillance"
      ],
      "address": {
        "text": "Normanby Gateway\nLysaghts Way\nScunthorpe\nNorth Lincolnshire\nDN15 9UG\nUnited Kingdom",
        "iso2": "GB",
        "lat": 53.6173165,
        "lon": -0.6613082
      },
      "telephone": "+44 (0)1724 275180"
    },
    {
      "name": "NDI Recognition Systems Limited",
      "category": [
        "Access Control & Entry Systems",
        "CCTV & Video Analytics",
        "Counter Terrorism & Intelligence",
        "Surveillance",
        "Vehicles"
      ],
      "address": {
        "text": "NDI House\nAlvaston Business Park\nNantwich\nCheshire\nCW5 6PF\nUnited Kingdom",
        "iso2": "GB",
        "lat": 53.0798689,
        "lon": -2.5129317
      },
      "telephone": "+44 (0)1270 613796"
    },
    {
      "name": "NEC",
      "category": [
        "Access Control & Entry Systems",
        "Biometrics & Imagery",
        "Border Security",
        "CCTV & Video Analytics",
        "Counter Terrorism & Intelligence",
        "Cyber Security",
        "Surveillance",
        "Transport Security"
      ],
      "address": {
        "text": "Athene\nOdyssey Business Park\nWest End Road\nSouth Ruislip\nMiddlesex\nHA4 6QE\nUnited Kingdom",
        "iso2": "GB",
        "lat": 51.55726929999999,
        "lon": -0.4025298
      },
      "telephone": "+44 (0)20 8836 2369"
    },
    {
      "name": "NeoSoft AG",
      "category": [
        "Border Security",
        "Counter Terrorism & Intelligence",
        "Information Technology",
        "Surveillance"
      ],
      "address": {
        "text": "Uetlibergstrasse 132\nZurich\nSwitzerland\n8045\nSwitzerland",
        "iso2": "CH",
        "lat": 47.3604101,
        "lon": 8.516143399999999
      },
      "telephone": "+41 445200804"
    },
    {
      "name": "NEST iON LTD",
      "category": [
        "Access Control & Entry Systems",
        "Border Security",
        "CBRN",
        "Communications, Command & Control",
        "Counter Terrorism & Intelligence",
        "Surveillance",
        "Transport Security",
        "Unmanned Systems & Robotics"
      ],
      "address": {
        "text": "Unit 13, Docklands Innovation Park,\n128-130 East Wall Road,\nDublin 3\n01\nIreland",
        "iso2": "IE",
        "lat": 53.35365299999999,
        "lon": -6.228141
      },
      "telephone": "+35315313691"
    },
    {
      "name": "Netwatch Global",
      "category": [
        "Counter Terrorism & Intelligence",
        "Professional Services",
        "Surveillance"
      ],
      "address": {
        "text": "Fazeley Studios\nBirmingham\nB5 5SE\nUnited Kingdom",
        "iso2": "GB",
        "lat": 52.4778741,
        "lon": -1.8815875
      },
      "telephone": "+44 (0)1905 761233"
    },
    {
      "name": "Nexor",
      "category": [
        "Cyber Security"
      ],
      "address": {
        "text": "8 The Triangle, Enterprise Way\nng2 Business Park\nNottingham\nNG2 1AE\nUnited Kingdom",
        "iso2": "GB",
        "lat": 52.9407902,
        "lon": -1.1671284
      },
      "telephone": "+44 (0)115 952 0500"
    },
    {
      "name": "Nexter Robotics",
      "category": [
        "Access Control & Entry Systems",
        "CBRN",
        "Surveillance",
        "Unmanned Systems & Robotics"
      ],
      "address": {
        "text": "14 Route de la miniere\nVersailles\n78034\nFrance",
        "iso2": "FR",
        "lat": 48.7824383,
        "lon": 2.1018864
      },
      "telephone": "+33 1 39 49 33 22"
    },
    {
      "name": "Nexthink Ltd",
      "address": {
        "text": "The Hub\nFarnborough Business Park\nFowler Avenue\nFarnborough\nHampshire\nGU14 7JP\nUnited Kingdom",
        "iso2": "GB",
        "lat": 51.2850401,
        "lon": -0.7597748
      },
      "telephone": "+44 (0)1252 912680"
    },
    {
      "name": "Nightsearcher Ltd",
      "category": [
        "Forensic Services",
        "Incident & Emergency Response",
        "Maritime Security",
        "Personal Protection Equipment, Clothing & Accessories",
        "Surveillance"
      ],
      "address": {
        "text": "Unit 4, Applied House\nFitzherbert Spur, Farlington\nPortsmouth\nHampshire\nPO6 1TT\nUnited Kingdom",
        "iso2": "GB",
        "lat": 50.8434176,
        "lon": -1.0321545
      },
      "telephone": "+44 (0)23 9238 9774"
    },
    {
      "name": "NQC Ltd"
    },
    {
      "name": "Observant Innovations",
      "category": [
        "CCTV & Video Analytics",
        "Counter Terrorism & Intelligence",
        "Forensic Services",
        "Incident & Emergency Response",
        "Optics",
        "Surveillance",
        "Unmanned Systems & Robotics",
        "Vehicles"
      ],
      "address": {
        "text": "The Museum Room\nWinchester\nAvington Park\nAvington\nHampshire\nSO21 1DB\nUnited Kingdom",
        "iso2": "GB",
        "lat": 51.088745,
        "lon": -1.235577
      },
      "telephone": "+44 (0)2381 680050"
    },
    {
      "name": "ODU UK Ltd",
      "category": [
        "Biometrics & Imagery",
        "Border Security",
        "Communications, Command & Control",
        "Counter Terrorism & Intelligence"
      ],
      "address": {
        "text": "The Technology Centre\nEpinal Way\nLoughborough\nLE11 3GE\nUnited Kingdom",
        "iso2": "GB",
        "lat": 52.7680434,
        "lon": -1.2189778
      },
      "website": "www.odu-uk.co.uk"
    },
    {
      "name": "Oncam",
      "category": [
        "Access Control & Entry Systems",
        "Border Security",
        "CCTV & Video Analytics",
        "Forensic Services",
        "Maritime Security",
        "Professional Services",
        "Surveillance",
        "Transport Security"
      ],
      "address": {
        "text": "115 Hammersmith Road\nKennedy House\nLondon\nW14 0QH\nUnited Kingdom",
        "iso2": "GB",
        "lat": 51.4945069,
        "lon": -0.2124465
      },
      "telephone": "+44 (0)20 7371 6640"
    },
    {
      "name": "OpenWorks Engineering Ltd",
      "category": [
        "Border Security",
        "Counter Terrorism & Intelligence",
        "Physical Security, Man-guarding & Close Protection",
        "Professional Services",
        "Unmanned Systems & Robotics"
      ],
      "address": {
        "text": "Broomhaugh House\nRiding Mill\nNorthumberland\nNE44 6AW\nUnited Kingdom",
        "iso2": "GB",
        "lat": 54.9490718,
        "lon": -1.9671484
      },
      "telephone": "+44 (0)1434 682974"
    },
    {
      "name": "Ovation Systems Limited",
      "category": [
        "CCTV & Video Analytics",
        "Communications, Command & Control",
        "Counter Terrorism & Intelligence",
        "Information Technology",
        "Surveillance"
      ],
      "address": {
        "text": "Springfield Barn\nLondon Road\nMilton Common\nOxfordshire\nOX9 2JY\nUnited Kingdom",
        "iso2": "GB",
        "lat": 51.7356479,
        "lon": -1.0820996
      },
      "telephone": "+44 (0)1844 279638"
    },
    {
      "name": "P2V Systems",
      "category": [
        "Communications, Command & Control",
        "Incident & Emergency Response",
        "Information Technology",
        "Professional Services"
      ],
      "address": {
        "text": "2 Garvey Studios\nLongstone Street\nLisburn\nAntrim\nBT28 1TP\nUnited Kingdom",
        "iso2": "GB",
        "lat": 54.5097549,
        "lon": -6.0532036
      },
      "telephone": "+44 (0)2892 528528"
    },
    {
      "name": "Pacific Scientific EMC",
      "category": [
        "Access Control & Entry Systems",
        "Border Security",
        "Incident & Emergency Response",
        "Personal Protection Equipment, Clothing & Accessories",
        "Physical Security, Man-guarding & Close Protection",
        "Vehicles"
      ],
      "address": {
        "text": "7073 W. Willis Road\nChandler\nArizona\n85226\nUnited States",
        "iso2": "US",
        "lat": 33.2822815,
        "lon": -111.9634275
      },
      "telephone": "+1 888 995 5658"
    },
    {
      "name": "Panoptech",
      "category": [
        "Access Control & Entry Systems",
        "Border Security",
        "CCTV & Video Analytics",
        "Communications, Command & Control",
        "Counter Terrorism & Intelligence",
        "Incident & Emergency Response",
        "Information Technology",
        "Surveillance"
      ],
      "address": {
        "text": "Cedar House\nAncells Road\nAncells Business Park\nFleet\nHampshire\nGU51 2UN\nUnited Kingdom",
        "iso2": "GB",
        "lat": 51.29682090000001,
        "lon": -0.81967
      },
      "telephone": "+44 (0)1252 812055"
    },
    {
      "name": "Páramo Ltd",
      "category": [
        "Personal Protection Equipment, Clothing & Accessories"
      ],
      "address": {
        "text": "Unit F\nDurgates Ind Est\nWadhurst\nEast Sussex\nTN5 6DF\nUnited Kingdom",
        "iso2": "GB",
        "lat": 51.0661277,
        "lon": 0.3294356
      },
      "telephone": "+44 (0)1892 786446"
    },