{
  "name": "Security & Policing 2017",
  "series": "Security & Policing",
  "edition": "2017",
  "startDate": "2017-03-07",
  "endDate": "2017-03-09",
  "address": {
    "text": "Farnborough International Exhibition and Conference Centre\nETPS Road\nFarnborough\nGU14 6FD\nUK",
    "iso2": "GB",
    "lat": 51.2755416,
    "lon": -0.76105
  },
  "website": "http://www.securityandpolicing.co.uk",
  "organiser": [
    {
      "name": "ADS Group"
    },
    {
      "name": "Department for International Trade Defence & Security Organisation"
    },
    {
      "name": "Home Office (Centre for Applied Science and Technology)"
    }
  ],
  "exhibitorListUrl": "http://www.securityandpolicing.co.uk/exhibitors/exhibitors-list-2017/",
  "exhibitorListDate": "2022-02-01T14:58:47+00:00",
  "exhibitor": [
    {
      "name": "3M United Kingdom PLC",
      "category": [
        "Biometrics & Imagery",
        "Counter Terrorism & Intelligence",
        "Surveillance"
      ],
      "address": {
        "text": "3M Centre \nCain Road\nBracknell\nBerkshire\nRG12 8HT\nEngland",
        "iso2": "GB",
        "lat": 51.416455,
        "lon": -0.7783310999999999
      },
      "telephone": "+44 (0)7879 662105"
    },
    {
      "name": "7Safe & PA Consulting",
      "category": [
        "Cyber Security",
        "Forensic Services",
        "Training"
      ],
      "address": {
        "text": "Cambridge Technology Centre\nMelbourn\nRoyston\nHertfordshire\nSG8 6DP\nUnited Kingdom",
        "iso2": "GB",
        "lat": 52.0925892,
        "lon": 0.0324286
      },
      "telephone": "+44 (0)870 600 1667"
    },
    {
      "name": "Abbey Engineering International (Securablinds)",
      "category": [
        "Explosives & Blast Protection",
        "Physical Security",
        "Man-guarding & Close Protection"
      ],
      "address": {
        "text": "Kirby Bank Road\nKnowsley Ind Park\nLiverpool\nMerseyside\nL33 7SY\nUnited Kingdom",
        "iso2": "GB",
        "lat": 53.4810349,
        "lon": -2.8565875
      },
      "telephone": "+44 (0)7834 635838"
    },
    {
      "name": "Abbey Grey Group",
      "category": [
        "Counter Terrorism & Intelligence",
        "Unmanned Systems & Robotics",
        "Personal Protection Equipment",
        "Clothing & Accessories"
      ],
      "address": {
        "text": "Hamilton House\nMabledon Place\nLondon\nWC1H 9BB\nUK",
        "iso2": "GB",
        "lat": 51.5277993,
        "lon": -0.1271191
      },
      "telephone": "+44 (0)7715 305241"
    },
    {
      "name": "Acustek LTD",
      "category": [
        "Counter Terrorism & Intelligence",
        "Forensic Services",
        "Surveillance"
      ],
      "address": {
        "text": "Chambers Building\nNorth Street\nSwords\nCo Dublin\nK67 A3H7\nIreland",
        "iso2": "IE",
        "lat": 53.4623035,
        "lon": -6.2182639
      },
      "telephone": "+353 1 558 4076"
    },
    {
      "name": "ADS Europe Ltd",
      "category": [
        "Counter Terrorism & Intelligence",
        "Surveillance"
      ],
      "address": {
        "text": "Clay House Business Centre \n5 Horninglow St\nBurton on Trent \nStaffordshire \nDE14 1NG \nUnited Kingdom",
        "iso2": "GB",
        "lat": 52.80682299999999,
        "lon": -1.6270908
      },
      "telephone": "+ 44 (0)7765 256375"
    },
    {
      "name": "ADST Advanced Research and Technology Ltd",
      "category": [
        "CCTV & Video Analytics"
      ],
      "address": {
        "text": "Unit 1 Church House Farm\nClewers Hill\nWaltham Chase\nSouthampton\nSO32 2lN\nUnited Kingdom",
        "iso2": "GB",
        "lat": 50.9384876,
        "lon": -1.2056275
      },
      "telephone": "+44 (0)1489 892580"
    },
    {
      "name": "Advanced Tactical Resources Ltd",
      "category": [
        "Border Security",
        "Counter Terrorism & Intelligence",
        "Training"
      ],
      "address": {
        "text": "The Barn\nc/o Lower Hitch\nWhitchurch Hill\nVale Road\nReading\nEast Sussex\nRG8 7NU\nUnited Kingdom",
        "iso2": "GB",
        "lat": 51.5012123,
        "lon": -1.0851214
      },
      "telephone": "+44 (0)7548 964628"
    },
    {
      "name": "Advent IM Ltd",
      "category": [
        "Cyber Security",
        "Professional Services",
        "Training"
      ],
      "address": {
        "text": "5 Coombs Wood Court\nSteelpark Road\nHalesowen\nBirmingham\nWest Mids\nB62 8BF\nUnited Kingdom",
        "iso2": "GB",
        "lat": 52.4648329,
        "lon": -2.0459145
      },
      "telephone": "+44 (0)121 559 6699"
    },
    {
      "name": "Aegis Engineering Limited",
      "category": [
        "Border Security",
        "Counter Terrorism & Intelligence",
        "Personal Protection Equipment",
        "Clothing & Accessories"
      ],
      "address": {
        "text": "Unit 5 Chesford Grange\nWoolston\nWarrington\nCheshire\nWA1 4RQ\nUnited Kingdom",
        "iso2": "GB",
        "lat": 53.3992714,
        "lon": -2.5188825
      },
      "telephone": "+44 (0)1925 840048"
    },
    {
      "name": "AGX Holdings Ltd",
      "category": [
        "Biometrics & Imagery",
        "Forensic Services",
        "Information Technology"
      ],
      "address": {
        "text": "46 Murrell Green Business Park\nHook\nHants\nRG27 9GR\nUK",
        "iso2": "GB",
        "lat": 51.2894037,
        "lon": -0.9349861
      },
      "telephone": "+44 (0)1256 741500"
    },
    {
      "name": "Airbox Systems Limited",
      "category": [
        "Counter Terrorism & Intelligence",
        "Surveillance",
        "Communications",
        "Command & Control"
      ],
      "address": {
        "text": "4 The Quadrangle\nDownsview Road\nGrove Business Park\nWantage\nOxfordshire\nOX12 9FA\nUnited Kingdom",
        "iso2": "GB",
        "lat": 51.6044421,
        "lon": -1.4456731
      },
      "telephone": "+44 (0)1235 227360"
    },
    {
      "name": "Airbus Helicopters",
      "category": [
        "Incident & Emergency Response",
        "Surveillance",
        "Vehicles"
      ],
      "address": {
        "text": "Oxford Airport\nLangford Lane\nKidlington\nOxfordshire\nOX5 1QZ\nEngland",
        "iso2": "GB",
        "lat": 51.8301752,
        "lon": -1.3122211
      },
      "telephone": "+44 (0)1865 852400"
    },
    {
      "name": "Altran",
      "category": [
        "Cyber Security",
        "Information Technology",
        "Professional Services"
      ],
      "address": {
        "text": "22 St Lawrence Street\nSouthGate\nBath\nBA1 1AN\nUnited Kingdom",
        "iso2": "GB",
        "lat": 51.37831749999999,
        "lon": -2.358039
      },
      "telephone": "+44 (0)1225 466991"
    },
    {
      "name": "Amped Software",
      "category": [
        "CCTV & Video Analytics",
        "Forensic Services",
        "Information Technology"
      ],
      "address": {
        "text": "Amped Software\nArea Science Park\nLocalita Padriciano 99\nTrieste\nFVG\n34149\nItaly",
        "iso2": "IT",
        "lat": 45.6569337,
        "lon": 13.829255
      },
      "telephone": "+39 040 3755333"
    },
    {
      "name": "ANDE",
      "category": [
        "Border Security",
        "Counter Terrorism & Intelligence",
        "Forensic Services"
      ],
      "address": {
        "text": "266 Second Ave\nWaltham\nMA\n02451\nUSA",
        "iso2": "US",
        "lat": 42.3881616,
        "lon": -71.2631075
      },
      "telephone": "+1 805 300 1445"
    },
    {
      "name": "Antevorte Ltd",
      "category": [
        "Surveillance",
        "Training"
      ],
      "address": {
        "text": "Antevorte Ltd\nPO Box 6255\nThatcham\nBerkshire\nRG19 9JE\nUnited Kingdom",
        "iso2": "GB",
        "lat": 51.40580500000001,
        "lon": -1.266468
      },
      "telephone": "+44 (0)1635 200254"
    },
    {
      "name": "AnyVision",
      "category": [
        "Biometrics & Imagery",
        "CCTV & Video Analytics",
        "Surveillance"
      ],
      "address": {
        "text": "Harokmim 26\nHolon\n59624\nIsrael",
        "iso2": "IL",
        "lat": 32.0076095,
        "lon": 34.8010583
      },
      "telephone": "+972 5 45332792"
    },
    {
      "name": "Appen",
      "category": [
        "Professional Services"
      ],
      "address": {
        "text": "Rockeagle House\nPynes Hill\nExeter\nDevon\nEX2 5AZ\nUnited Kingdom",
        "iso2": "GB",
        "lat": 50.7114177,
        "lon": -3.4845256
      },
      "telephone": "+44 (0)1392 213958"
    },
    {
      "name": "Arcus Global Ltd",
      "category": [
        "Forensic Services",
        "Information Technology"
      ],
      "address": {
        "text": "Future Business Centre\nKings Hedges Road\nCambridge\nCB42HY\nUnited Kingdom",
        "iso2": "GB",
        "lat": 52.2349342,
        "lon": 0.1295258
      },
      "telephone": "+44 (0)7469 858221"
    },
    {
      "name": "Armour Communications Ltd",
      "category": [
        "Communications",
        "Command & Control"
      ],
      "address": {
        "text": "1st Floor Millbank Tower\nMillbank\nLondon\nSW1P 4QP\nUnited Kingdom",
        "iso2": "GB",
        "lat": 51.4923168,
        "lon": -0.1259315
      },
      "telephone": "+44 (0)20 3637 3801"
    },
    {
      "name": "ATEK",
      "category": [
        "Counter Terrorism & Intelligence",
        "Surveillance"
      ],
      "address": {
        "text": "PO Box 123 \nMount Macedon\nVictoria\n3440\nAustralia",
        "iso2": "AU",
        "lat": -37.4458092,
        "lon": 144.5804126
      },
      "telephone": "+61 447 205008"
    },
    {
      "name": "Audio Technology Switzerland SA",
      "category": [
        "Counter Terrorism & Intelligence",
        "Surveillance"
      ],
      "address": {
        "text": "Chemin Orio 30 A\nChemin Orio 30 A\nRomanel sur Lausanne\nVaud\n1032\nSwitzerland",
        "iso2": "CH",
        "lat": 46.56634589999999,
        "lon": 6.605249799999999
      },
      "telephone": "+41 21 643 7240"
    },
    {
      "name": "Audiotel International Ltd",
      "category": [
        "Access Control & Entry Systems",
        "Counter Terrorism & Intelligence",
        "Surveillance"
      ],
      "address": {
        "text": "25 Earlstrees Road\nCorby\nNorthamptonshire\nNN17 4AZ\nUK",
        "iso2": "GB",
        "lat": 52.5110667,
        "lon": -0.6956340999999999
      },
      "telephone": "+44 (0)1536 464888"
    },
    {
      "name": "Axess International Limited",
      "category": [
        "CBRN",
        "Maritime Security",
        "Communications",
        "Command & Control"
      ],
      "address": {
        "text": "Power House\nUnit 5 Stephenson Close\nDrayton Fields\nDaventry\nNorthants\nNN11 8RF\nUK",
        "iso2": "GB",
        "lat": 52.2679051,
        "lon": -1.1814802
      },
      "telephone": "+44 (0)1327 301090"
    },
    {
      "name": "Axxess Identification Limited",
      "category": [
        "Access Control & Entry Systems",
        "Biometrics & Imagery",
        "Cyber Security"
      ],
      "address": {
        "text": "27-28 Shrivenham Hundred Business Park\nWatchfield\nSwindon\nWiltshire\nSN6 8TZ\nUnited Kingdom",
        "iso2": "GB",
        "lat": 51.6137482,
        "lon": -1.6461128
      },
      "telephone": "+44 (0)1793 784 002"
    },
    {
      "name": "B-Cam Ltd",
      "category": [
        "CCTV & Video Analytics",
        "Information Technology",
        "Surveillance"
      ],
      "address": {
        "text": "Reading Enterprise Centre\nWhiteknights Road\n39 new road\nReading\nBerkshire\nRG6 6BU\nUnited Kingdom",
        "iso2": "GB",
        "lat": 51.4409107,
        "lon": -0.9347655
      },
      "telephone": "+44 (0)20 7769 6709"
    },
    {
      "name": "B&W Tek",
      "category": [
        "CBRN",
        "Forensic Services",
        "Optics"
      ],
      "address": {
        "text": "19 Shea Way\nNewark, DE\n19713\nUSA",
        "iso2": "US",
        "lat": 39.654496,
        "lon": -75.728881
      },
      "telephone": "+1 302 368 7824"
    },
    {
      "name": "Babcock International Group",
      "category": [
        "Cyber Security",
        "Information Technology",
        "Communications",
        "Command & Control"
      ],
      "address": {
        "text": "33 Wigmore Street\nLondon\nW1U 1QX\nEngland",
        "iso2": "GB",
        "lat": 51.5163476,
        "lon": -0.1481471
      },
      "telephone": "+44 (0)20 7355 5395"
    },
    {
      "name": "BAE Systems Applied Intelligence",
      "category": [
        "Cyber Security"
      ],
      "address": {
        "text": "Surrey Research Park\nGuildford\nSurrey\nGU2 7RQ\nUnited Kingdom",
        "iso2": "GB",
        "lat": 51.23996899999999,
        "lon": -0.6159209
      },
      "telephone": "+44 (0)20 3296 5753"
    },
    {
      "name": "BBI Detection",
      "category": [
        "Border Security",
        "CBRN",
        "Counter Terrorism & Intelligence"
      ],
      "address": {
        "text": "8 Tom Mcdonald Avenue \nMedipark\nDundee\nDD2 1NH\nUK",
        "iso2": "GB",
        "lat": 56.46391999999999,
        "lon": -3.0483527
      },
      "telephone": "+44 (0)1382 564083"
    },
    {
      "name": "BCB International Ltd",
      "category": [
        "Explosives & Blast Protection",
        "Maritime Security",
        "Personal Protection Equipment",
        "Clothing & Accessories"
      ],
      "address": {
        "text": "Clydesmuir Road Industrial Estate\nCardiff\nCardiff\nCF24 2QS\nUnited Kingdom",
        "iso2": "GB",
        "lat": 51.4902774,
        "lon": -3.142535
      },
      "telephone": "+44 (0)29 2043 3700"
    },
    {
      "name": "Becrypt",
      "category": [
        "Cyber Security"
      ],
      "address": {
        "text": "11-19 Artillery Row\nBecrypt\nLondon\nSW1P 1RT\nUnited Kingdom",
        "iso2": "GB",
        "lat": 51.49670020000001,
        "lon": -0.1354317
      },
      "telephone": "+44 (0)7809 391043"
    },
    {
      "name": "Beechwood Equipment Ltd",
      "category": [
        "Optics",
        "Surveillance",
        "Personal Protection Equipment",
        "Clothing & Accessories"
      ],
      "address": {
        "text": "Unit 1 Trade City\nBrooklands Close\nSunbury on Thames\nSurrey\nTW16 7FD\nUnited Kingdom",
        "iso2": "GB",
        "lat": 51.4165765,
        "lon": -0.4269504
      },
      "telephone": "+44 (0)1932 781891"
    },
    {
      "name": "Binns Fencing – Centre of Excellence for Prisons",
      "category": [
        "CCTV & Video Analytics",
        "Custodial",
        "Physical Security",
        "Man-guarding & Close Protection"
      ],
      "address": {
        "text": "Harvest House\nCranborne Road\nPotters Bar\nHertfordshire\nEN6 3JF\nUnited Kingdom",
        "iso2": "GB",
        "lat": 51.7046145,
        "lon": -0.2019552
      },
      "telephone": "+44 (0)1707 855555"
    },
    {
      "name": "Birmingham City University",
      "category": [
        "Cyber Security",
        "Training"
      ],
      "address": {
        "text": "Millennium Point\nCurzon Street\nBirmingham\nWest Midlands\nB4 7XG\nUnited Kingdom",
        "iso2": "GB",
        "lat": 52.4828529,
        "lon": -1.88557
      },
      "telephone": "+44 (0)121 331 7596"
    },
    {
      "name": "BlackTree Group Ltd",
      "category": [
        "Counter Terrorism & Intelligence",
        "Surveillance",
        "Communications",
        "Command & Control"
      ],
      "address": {
        "text": "Unit 4 Duddage Manor Business Park \nBrockeridge Road\nTwyning\nTewkesbury \nGL20 6BY\nGloucestershire",
        "iso2": "GB",
        "lat": 52.03049660000001,
        "lon": -2.1563426
      },
      "telephone": "+44 (0)1684 628031"
    },
    {
      "name": "Blighter Surveillance Systems Ltd",
      "category": [
        "Border Security",
        "Maritime Security",
        "Surveillance"
      ],
      "address": {
        "text": "Iceni House\nLondon Road\nGreat Chesterford\nSaffron Walden\nCB10 1NY\nUnited Kingdom",
        "iso2": "GB",
        "lat": 52.06214,
        "lon": 0.1908153
      },
      "telephone": "+44 (0)1223 491122"
    },
    {
      "name": "borwell Limited",
      "category": [
        "Cyber Security",
        "Information Technology",
        "Professional Services"
      ],
      "address": {
        "text": "Malvern Hills Science Park\nGeraldine Road\nMalvern\nWorcestershire\nWR143SZ\nUnited Kingdom",
        "iso2": "GB",
        "lat": 52.1050432,
        "lon": -2.3108491
      },
      "telephone": "+44 (0)1684 377980"
    },
    {
      "name": "Bournemouth University",
      "category": [
        "Cyber Security",
        "Information Technology",
        "Training"
      ],
      "address": {
        "text": "Research & Knowledge Exchange Office, 4th Floor\nMelbury House\n1-3 Oxford Road \nBournemouth\nBH8 8ES\nUK",
        "iso2": "GB",
        "lat": 50.72422479999999,
        "lon": -1.8658241
      },
      "telephone": "+44 (0)1202 968240"
    },
    {
      "name": "BRE Global Ltd (LPCB)",
      "category": [
        "Border Security",
        "Counter Terrorism & Intelligence",
        "Physical Security",
        "Man-guarding & Close Protection"
      ],
      "address": {
        "text": "Bucknalls Lane\nGarston\nWatford\nHertfordshire\nWD25 9XX\nUK",
        "iso2": "GB",
        "lat": 51.6985934,
        "lon": -0.3761689
      },
      "telephone": "+44 (0)333 321 88 11"
    },
    {
      "name": "C3IA Solutions Ltd",
      "category": [
        "Cyber Security",
        "Information Technology",
        "Communications",
        "Command & Control"
      ],
      "address": {
        "text": "Unit B\nThe Outlook\nLing Road\nPoole\nDorset\nBH12 4PY\nUK",
        "iso2": "GB",
        "lat": 50.7468054,
        "lon": -1.9494048
      },
      "telephone": "+44 (0)1202 721123"
    },
    {
      "name": "Calumet Photographic Ltd",
      "category": [
        "Forensic Services",
        "Optics",
        "Surveillance"
      ],
      "address": {
        "text": "Bradbourne Drive\nTilbrook\nMilton Keynes\nBuckinghamshire\nMK7 8AJ\nUnited Kingdom",
        "iso2": "GB",
        "lat": 52.0122249,
        "lon": -0.6888375
      },
      "telephone": "+44 (0)20 7380 4501"
    },
    {
      "name": "Caminos",
      "category": [
        "Counter Terrorism & Intelligence",
        "Surveillance",
        "Training"
      ],
      "address": {
        "text": "Stevensstraat 21\nTielt-Winge\n3390\nBelgium",
        "iso2": "BE",
        "lat": 50.9320576,
        "lon": 4.9286216
      },
      "telephone": "+32 475 28 12 25"
    },
    {
      "name": "Canon",
      "category": [
        "Biometrics & Imagery",
        "Optics",
        "Surveillance"
      ],
      "address": {
        "text": "Cockshot Hill\nWoodhatch\nSurrey\nRH2 8BF\nUK",
        "iso2": "GB",
        "lat": 51.2241929,
        "lon": -0.199302
      },
      "telephone": "+44 (0)1737 220 000"
    },
    {
      "name": "Capita",
      "category": [
        "Incident & Emergency Response",
        "Information Technology",
        "Communications",
        "Command & Control"
      ],
      "address": {
        "text": "Methuen Park\nBath Road\nChippenham\nWiltshire\nSN14 0TW\nUK",
        "iso2": "GB",
        "lat": 51.4464384,
        "lon": -2.1449026
      },
      "telephone": "+44 (0)7725 159067"
    },
    {
      "name": "Cat’s Whisker Technologies",
      "category": [
        "Counter Terrorism & Intelligence",
        "Surveillance",
        "Unmanned Systems & Robotics"
      ],
      "address": {
        "text": "Ottways House\n26a Ottways Lane\nAshtead\nSurrey\nKT21 2NZ\nUK",
        "iso2": "GB",
        "lat": 51.3071622,
        "lon": -0.3063144
      },
      "telephone": "+44 (0)1372 802607"
    },
    {
      "name": "CBRN UK",
      "category": [
        "CBRN"
      ],
      "address": {
        "text": "ADS\nShowCentre \nETPS Road\nFarnborough\nHampshire\nGU14 6FD\nUK",
        "iso2": "GB",
        "lat": 51.275322,
        "lon": -0.759508
      },
      "telephone": "+44 (0)20 7091 4500"
    },
    {
      "name": "CellAntenna",
      "category": [
        "Border Security",
        "Counter Terrorism & Intelligence",
        "Surveillance"
      ],
      "address": {
        "text": "Oaklands\nNewtown Road\nNewbury\nBerkshire\nRG14 7HA\nUK",
        "iso2": "GB",
        "lat": 51.3830405,
        "lon": -1.3203234
      },
      "telephone": "+44 (0)7772 178982"
    },
    {
      "name": "cellXion Ltd",
      "category": [
        "Counter Terrorism & Intelligence",
        "Surveillance"
      ],
      "address": {
        "text": "Hallmark House\n2 Timber Hill Road\nCaterham\nSurrey\nCR3 6LD\nUK",
        "iso2": "GB",
        "lat": 51.2821615,
        "lon": -0.0760593
      },
      "telephone": "+44 (0)20 3137 1637"
    },
    {
      "name": "Centre for Secure Information Technologies (CSIT)",
      "category": [
        "Biometrics & Imagery",
        "Cyber Security",
        "Transport Security"
      ],
      "address": {
        "text": "ECIT Institute\nNI Science Park\nBelfast\nBT3 9DT\nUnited Kingdom",
        "iso2": "GB",
        "lat": 54.613811,
        "lon": -5.9001071
      },
      "telephone": "+44 (0)28 9097 1754"
    },
    {
      "name": "CEPIA",
      "category": [
        "Counter Terrorism & Intelligence",
        "Cyber Security",
        "Surveillance"
      ],
      "address": {
        "text": "Veveri 3163/111\nBrno\n616 00 \nCzech Republic",
        "iso2": "CZ",
        "lat": 49.2092575,
        "lon": 16.5894917
      },
      "telephone": "+44 (0)7815 683535"
    },
    {
      "name": "Cerberus Black Ltd",
      "category": [
        "Border Security",
        "Incident & Emergency Response",
        "Communications",
        "Command & Control"
      ],
      "address": {
        "text": "Unit 73\nBasepoint Business Centre\nMetcalf Way\nCrawley\nRH11 7XX\nUK",
        "iso2": "GB",
        "lat": 51.1332798,
        "lon": -0.1911604
      },
      "telephone": "+44 (0)7811 390707"
    },
    {
      "name": "Chemring Energetics UK",
      "category": [
        "Explosives & Blast Protection"
      ],
      "address": {
        "text": "Ardeer Site\nStevenston\nAyrshire\nKA20 3LN\nScotland",
        "iso2": "GB",
        "lat": 55.6330985,
        "lon": -4.7489221
      },
      "telephone": "+44 (0)7894 199649"
    },
    {
      "name": "Claresys Ltd",
      "category": [
        "Optics",
        "Surveillance"
      ],
      "address": {
        "text": "154E Brook Drive\nAbingdon\nOX14 4SD\nUK",
        "iso2": "GB",
        "lat": 51.6244934,
        "lon": -1.2857219
      },
      "telephone": "+44 (0)1235 364580"
    },
    {
      "name": "Clow Group Ltd",
      "category": [
        "Access Control & Entry Systems"
      ],
      "address": {
        "text": "185 Broad Street\nGlasgow\nG40 2QR\nUnited Kingdom",
        "iso2": "GB",
        "lat": 55.85149699999999,
        "lon": -4.2212583
      },
      "telephone": "+44 (0)141 554 6272"
    },
    {
      "name": "CNS Group",
      "category": [
        "Cyber Security",
        "Incident & Emergency Response",
        "Information Technology"
      ],
      "address": {
        "text": "1-3 Pemberton Row\nLondon\nEC4A 3BG\nUnited Kingdom",
        "iso2": "GB",
        "lat": 51.5150356,
        "lon": -0.1084822
      },
      "telephone": "+44 (0)7958 633973"
    },
    {
      "name": "Cobalt Light Systems",
      "category": [
        "CBRN",
        "Transport Security"
      ],
      "address": {
        "text": "174 Brook Drive\nMilton Park\nAbingdon\nOX14 4SD\nUK",
        "iso2": "GB",
        "lat": 51.6238032,
        "lon": -1.2816917
      },
      "telephone": "+44 (0)1235 856555"
    },
    {
      "name": "Cogent Technologies Ltd",
      "category": [
        "Border Security",
        "Surveillance",
        "Communications",
        "Command & Control"
      ],
      "address": {
        "text": "Unit 3, Brickfields Business Park \nWoolpit\nBury St Edmunds\nSuffolk\nIP30 9QS\nUK",
        "iso2": "GB",
        "lat": 52.2254648,
        "lon": 0.9021884000000001
      },
      "telephone": "+44 (0)7795 540400"
    },
    {
      "name": "Commesh UAB",
      "category": [
        "Counter Terrorism & Intelligence",
        "Surveillance",
        "Communications",
        "Command & Control"
      ],
      "address": {
        "text": "A. Tumeno St. 4\nVilnius\n01109\nLithuania",
        "iso2": "LT",
        "lat": 54.6920182,
        "lon": 25.2633905
      },
      "telephone": "+44 (0)7983 114848"
    },
    {
      "name": "Conjay Collectors Ammunition Company Ltd",
      "category": [
        "Counter Terrorism & Intelligence",
        "Explosives & Blast Protection",
        "Personal Protection Equipment",
        "Clothing & Accessories"
      ],
      "address": {
        "text": "P.O. Box 1891\nNewport\nNP10 8FW\nUnited Kingdom",
        "iso2": "GB",
        "lat": 51.54936170000001,
        "lon": -3.0396157
      },
      "telephone": "+44 (0)117 379 0150"
    },
    {
      "name": "Counter-IED UK",
      "category": [
        "Counter Terrorism & Intelligence",
        "Explosives & Blast Protection",
        "Unmanned Systems & Robotics"
      ],
      "address": {
        "text": "Counter-IED UK\nSpecial Interest Group – ADS\nEtps Road\nFarnborough\nGU14 6GB\nUK",
        "iso2": "GB",
        "lat": 51.2759499,
        "lon": -0.7632361
      },
      "telephone": "+44 (0)7768 977435"
    },
    {
      "name": "Covata",
      "category": [
        "Cyber Security",
        "Information Technology"
      ],
      "address": {
        "text": "1 London Bridge\nLondon\nSE1 9BG\nUnited Kingdom",
        "iso2": "GB",
        "lat": 51.50656499999999,
        "lon": -0.08743329999999999
      },
      "telephone": "+44 (0)20 7901 1293"
    },
    {
      "name": "Covidence",
      "category": [
        "Counter Terrorism & Intelligence",
        "Surveillance"
      ],
      "address": {
        "text": "Strandvejen 2A\nRoende\n8410\nDenmark",
        "iso2": "DK",
        "lat": 56.3027543,
        "lon": 10.4643834
      },
      "telephone": "+45 (0)8880 9000"
    },
    {
      "name": "Cranfield University",
      "category": [
        "Counter Terrorism & Intelligence",
        "Cyber Security",
        "Forensic Services"
      ],
      "address": {
        "text": "College Road\nCranfield\nBedfordshire\nMK43 0AL\nUK",
        "iso2": "GB",
        "lat": 52.0791845,
        "lon": -0.6172992
      },
      "telephone": "+44 (0)1793 785296"
    },
    {
      "name": "Create Intelligence",
      "category": [
        "Counter Terrorism & Intelligence",
        "Forensic Services",
        "Information Technology"
      ],
      "address": {
        "text": "Create House\n2 Station Road\nWoodbridge\nSuffolk\nIP12 4AU\nUK",
        "iso2": "GB",
        "lat": 52.09069359999999,
        "lon": 1.3157464
      },
      "telephone": "+44 (0)20 3597 7350"
    },
    {
      "name": "CRFS Limited",
      "category": [
        "Border Security",
        "Maritime Security",
        "Surveillance"
      ],
      "address": {
        "text": "Cambridge Research Park\nBuilding 7200\nBeach Drive\nCambridge\nCambridgeshire\nCB25 9TL\nUK",
        "iso2": "GB",
        "lat": 52.292353,
        "lon": 0.1706348
      },
      "telephone": "+44 (0)1223 859500"
    },
    {
      "name": "CrisisCast",
      "category": [
        "Cyber Security",
        "Incident & Emergency Response",
        "Training"
      ],
      "address": {
        "text": "22 Wenlock Road\nLondon \nLondon \nN1 7GU\nUK",
        "iso2": "GB",
        "lat": 51.530579,
        "lon": -0.0936837
      },
      "telephone": "+44 (0)7714 257999"
    },
    {
      "name": "CTSF",
      "category": [
        "Counter Terrorism & Intelligence",
        "Surveillance",
        "Communications",
        "Command & Control"
      ],
      "address": {
        "text": "c/o ADS Group\nShowCentre \nETPS Road\nFarnborough\nHampshire\nGU14 6FD \nUK",
        "iso2": "GB",
        "lat": 51.2756346,
        "lon": -0.7611333
      },
      "telephone": "+44 (0)7921 297207"
    },
    {
      "name": "Cunning Running Software Ltd",
      "category": [
        "Counter Terrorism & Intelligence",
        "Information Technology",
        "Surveillance"
      ],
      "address": {
        "text": "Bell House\n32 Bell Street\nRomsey\nHampshire\nSO51 8GW\nUnited Kingdom",
        "iso2": "GB",
        "lat": 50.9877569,
        "lon": -1.4992654
      },
      "telephone": "+44 (0)1794 834750"
    },
    {
      "name": "Cyan Forensics",
      "category": [
        "Counter Terrorism & Intelligence",
        "Cyber Security",
        "Forensic Services"
      ],
      "address": {
        "text": "Cyan Forensics\nCodeBase\nArgyle House\n3 Lady Lawson Street\nEdinburgh\nEH3 9DR\nUnited Kingdom",
        "iso2": "GB",
        "lat": 55.9467975,
        "lon": -3.201195100000001
      },
      "telephone": "+44 (0)131 608 0195"
    },
    {
      "name": "CYJAX Limited",
      "category": [
        "Cyber Security"
      ],
      "address": {
        "text": "35 New Broad Street\nLondon\nEC2M 1NH\nUnited Kingdom",
        "iso2": "GB",
        "lat": 51.5170056,
        "lon": -0.0837344
      },
      "telephone": "+44 (0)20 7096 0668"
    },
    {
      "name": "Cypher Technology Ltd",
      "category": [
        "Forensic Services",
        "Information Technology",
        "Surveillance"
      ],
      "address": {
        "text": "5-7 Gravel Hill\nLeatherhead\nKT22 7HG\nUK",
        "iso2": "GB",
        "lat": 51.29610419999999,
        "lon": -0.3303467
      },
      "telephone": "+44 (0)1372 375500"
    },
    {
      "name": "David Horn Communications Limited",
      "category": [
        "Surveillance"
      ],
      "address": {
        "text": "Comtec House, Unit F1\nBramingham Business Park\nEnterprise Way\nLuton\nBedfordshire\nLU3 4BU\nUnited Kingdom",
        "iso2": "GB",
        "lat": 51.9206314,
        "lon": -0.4324422
      },
      "telephone": "+44 (0)1582 490300"
    },
    {
      "name": "dBD Communications",
      "category": [
        "Professional Services",
        "Communications",
        "Command & Control"
      ],
      "address": {
        "text": "Unit 14, Britannia Court\nBurnt Mills Industrial Estate\nBasildon\nEssex\nSS13 1EU\nUnited Kingdom",
        "iso2": "GB",
        "lat": 51.5843821,
        "lon": 0.5176531
      },
      "telephone": "+44 (0)1268 724617"
    },
    {
      "name": "Deenside Limited",
      "category": [
        "Custodial",
        "Personal Protection Equipment",
        "Clothing & Accessories"
      ],
      "address": {
        "text": "Meadows House\n80 Henry Street\nNorthampton\nNorthamptonshire\nNN1 4JE\nUnited Kingdom",
        "iso2": "GB",
        "lat": 52.2436221,
        "lon": -0.8804888999999999
      },
      "telephone": "+44 (0)1604 633260"
    },
    {
      "name": "Demux Video Services Ltd",
      "category": [
        "CCTV & Video Analytics",
        "Forensic Services"
      ],
      "address": {
        "text": "PO Box 777\nAmpthill\nMK45 2WN\nUnited Kingdom",
        "iso2": "GB",
        "lat": 52.0272503,
        "lon": -0.4951417
      },
      "telephone": "+44 (0)7855 384141"
    },
    {
      "name": "Digital Barriers",
      "category": [
        "CCTV & Video Analytics",
        "Surveillance",
        "Transport Security"
      ],
      "address": {
        "text": "Cargo Works\n1-2 Hatfields\nLondon\nSE1 9PG\nUnited Kingdom",
        "iso2": "GB",
        "lat": 51.5076087,
        "lon": -0.1079974
      },
      "telephone": "+44 (0)20 3553 5888"
    },
    {
      "name": "DMS Protective Equipment Ltd",
      "category": [
        "Custodial",
        "Incident & Emergency Response",
        "Personal Protection Equipment",
        "Clothing & Accessories"
      ],
      "address": {
        "text": "Lingen Road\nLudlow Business Park\nLudlow\nShropshire\nSY8 1XD\nUK",
        "iso2": "GB",
        "lat": 52.3690464,
        "lon": -2.6973797
      },
      "telephone": "+44 (0)1584 874679"
    },
    {
      "name": "DNA-Tracker",
      "category": [
        "Border Security",
        "Counter Terrorism & Intelligence",
        "Surveillance"
      ],
      "address": {
        "text": "26 Charles Street\nChester\nCheshire\nCH2 3AY\nUnited Kingdom",
        "iso2": "GB",
        "lat": 53.1993143,
        "lon": -2.8745414
      },
      "telephone": "+44 (0)1244 340684"
    },
    {
      "name": "Domo Tactical Communications",
      "category": [
        "Counter Terrorism & Intelligence",
        "Surveillance",
        "Communications",
        "Command & Control"
      ],
      "address": {
        "text": "Fusion 2, 1100 Parkway\nSolent Business Park\nWhiteley\nFareham\nHampshire\nPO15 7AB\nUnited Kingdom",
        "iso2": "GB",
        "lat": 50.8768212,
        "lon": -1.2477975
      },
      "website": "www.domotactical.com"
    },
    {
      "name": "Drumgrange Ltd",
      "category": [
        "Border Security",
        "Maritime Security",
        "Communications",
        "Command & Control"
      ],
      "address": {
        "text": "Unit A, The Forum\nHanworth Lane\nChertsey\nSurrey\nKT16 9JX\nUnited Kingdom",
        "iso2": "GB",
        "lat": 51.3835401,
        "lon": -0.5094778999999999
      },
      "telephone": "+44 (0)1932 581154"
    },
    {
      "name": "DuPont International Operations Sàrl",
      "category": [
        "Border Security",
        "Explosives & Blast Protection",
        "Personal Protection Equipment",
        "Clothing & Accessories"
      ],
      "address": {
        "text": "2, Chemin du Pavilion\nP.O. Box 50\nLe Grand-Saconnex\nGeneva\nCH-1218\nSwitzerland",
        "iso2": "CH",
        "lat": 46.2384691,
        "lon": 6.1221518
      },
      "website": [
        "www.kevlar.com",
        "www.nomex.com"
      ]
    },
    {
      "name": "e2e assure",
      "category": [
        "Cyber Security",
        "Incident & Emergency Response",
        "Information Technology"
      ],
      "address": {
        "text": "The Old Chapel\nUnion Way\nWitney\nOxford\nOX28 6HD\nUnited Kingdom",
        "iso2": "GB",
        "lat": 51.7871189,
        "lon": -1.4995496
      },
      "telephone": "+44 (0)1666 860108"
    },
    {
      "name": "e2v",
      "category": [
        "Border Security",
        "Maritime Security",
        "Surveillance"
      ],
      "address": {
        "text": "106 Waterhouse Lane\nChelmsford\nEssex\nCM1 2QU\nUK",
        "iso2": "GB",
        "lat": 51.7317195,
        "lon": 0.4562485
      },
      "telephone": "+44 (0)1245 493493"
    },
    {
      "name": "Edesix Ltd",
      "category": [
        "CCTV & Video Analytics",
        "Surveillance",
        "Communications",
        "Command & Control"
      ],
      "address": {
        "text": "16 Forth Street\nEdinburgh\nMidlothian\nEH1 3LH\nUnited Kingdom",
        "iso2": "GB",
        "lat": 55.9579794,
        "lon": -3.1873604
      },
      "telephone": "+44 (0)1315 100232"
    },
    {
      "name": "EgoSecure UK Limited",
      "category": [
        "Cyber Security"
      ],
      "address": {
        "text": "Abbey House\n1650 Arlington Business Park\nTheale\nReading\nBerkshire\nRG7 4SA\nEngland",
        "iso2": "GB",
        "lat": 51.435604,
        "lon": -1.066328
      },
      "telephone": "+44 (0)7919 351828"
    },
    {
      "name": "Enterprise Control Systems Ltd",
      "category": [
        "Border Security",
        "Maritime Security",
        "Surveillance"
      ],
      "address": {
        "text": "ECS Technology Park\nWappenham\nNorthants\nNN12 8WJ\nUnited Kingdom",
        "iso2": "GB",
        "lat": 52.1064737,
        "lon": -1.0856287
      },
      "telephone": "+44 (0)1327 860050"
    },
    {
      "name": "Envitia Ltd",
      "category": [
        "Counter Terrorism & Intelligence",
        "Information Technology",
        "Communications",
        "Command & Control"
      ],
      "address": {
        "text": "North Heath Lane\nHorsham\nWest Sussex\nRH12 5UX\nUnited Kingdom",
        "iso2": "GB",
        "lat": 51.0801537,
        "lon": -0.3165302
      },
      "telephone": "+44 (0)1403 273123"
    },
    {
      "name": "Erebus UK Ltd",
      "category": [
        "Counter Terrorism & Intelligence",
        "Training"
      ],
      "address": {
        "text": "Unit 4, Hereford Trade Park\nHolmer Road\nHereford\nHerefordshire\nHR4 9SG\nUnited Kingdom",
        "iso2": "GB",
        "lat": 52.06656410000001,
        "lon": -2.7202988
      },
      "telephone": "+44 (0)1432 355337"
    },
    {
      "name": "Ericsson Ltd",
      "category": [
        "Border Security",
        "CCTV & Video Analytics",
        "Cyber Security",
        "Incident & Emergency Response",
        "Information Technology",
        "Maritime Security",
        "Optics",
        "Communications",
        "Command & Control"
      ],
      "address": {
        "text": "4 Middleton Gate\nGuildford\nUnited Kingdom",
        "iso2": "GB",
        "lat": 51.2472717,
        "lon": -0.5850497
      },
      "telephone": "+44 (0)1483 303666"
    },
    {
      "name": "Eskan Electronics",
      "category": [
        "Border Security",
        "Counter Terrorism & Intelligence",
        "Surveillance"
      ],
      "address": {
        "text": "Unit 3 B\nKelvin Industrial Estate\nLong Drive\nGreenford\nMiddlesex\nUB6 8WA\nUnited Kingdom",
        "iso2": "GB",
        "lat": 51.54463,
        "lon": -0.3591032
      },
      "telephone": "+44 (0)7860 920280"
    },
    {
      "name": "Esterline",
      "category": [
        "Communications",
        "Command & Control",
        "Personal Protection Equipment",
        "Clothing & Accessories"
      ],
      "address": {
        "text": "Waverly Industrial Park\nHailsham Drive\nHarrow\nHA1 4TR\nUnited Kingdom",
        "iso2": "GB",
        "lat": 51.5948852,
        "lon": -0.341801
      },
      "telephone": "+1 425 297 9700"
    },
    {
      "name": "Evidence Talks Ltd",
      "category": [
        "Counter Terrorism & Intelligence",
        "Cyber Security",
        "Forensic Services"
      ],
      "address": {
        "text": "Willen House, Tongwell St\n Fox Milne\nMilton Keynes\nBuckinghamshire\nMK15 0YS\nUnited Kingdom",
        "iso2": "GB",
        "lat": 52.0514792,
        "lon": -0.7103743
      },
      "telephone": "+44 (0)1908 597960"
    },
    {
      "name": "Excelerate Technology Ltd",
      "category": [
        "Surveillance",
        "Vehicles",
        "Communications",
        "Command & Control"
      ],
      "address": {
        "text": "Willow House\nPascal Close\nSt Mellons\nCardiff\nCF3 0LW\nUK",
        "iso2": "GB",
        "lat": 51.5298903,
        "lon": -3.0889664
      },
      "telephone": "+44 (0)845 65 85 747"
    },
    {
      "name": "EXFO Europe Ltd",
      "category": [
        "Counter Terrorism & Intelligence",
        "Surveillance",
        "Communications",
        "Command & Control"
      ],
      "address": {
        "text": "Winchester House\nSchool Lane\nChandlers Ford\nSouthampton\nSO52 4DG\nUnited Kingdom",
        "iso2": "GB",
        "lat": 50.9785468,
        "lon": -1.3922538
      },
      "website": "www.EXFO.com"
    },
    {
      "name": "FASTASLEEP",
      "category": [
        "CBRN",
        "Custodial",
        "Personal Protection Equipment",
        "Clothing & Accessories"
      ],
      "address": {
        "text": "5 Windmill Court\nGreystone Road\nAntrim\nCo Antrim\nBT41 2TX\nUnited Kingdom",
        "iso2": "GB",
        "lat": 54.7150472,
        "lon": -6.1806693
      },
      "telephone": "+44 (0)28 9442 8686"
    },
    {
      "name": "Fischer Connectors Ltd",
      "category": [
        "CCTV & Video Analytics",
        "Unmanned Systems & Robotics",
        "Communications",
        "Command & Control"
      ],
      "address": {
        "text": "11 The Briars\nWaterberry Drive\nWaterlooville\nHants\nPO7 7YH\nUnited Kingdom",
        "iso2": "GB",
        "lat": 50.8856222,
        "lon": -1.042239
      },
      "telephone": "+44 (0)23 9245 9600"
    },
    {
      "name": "FORSOLUTION LTD",
      "category": [
        "Counter Terrorism & Intelligence",
        "Information Technology",
        "Surveillance"
      ],
      "address": {
        "text": "Podnikatelska 553\nPraha 9\n190 11\nCzech Republic",
        "iso2": "CZ",
        "lat": 50.0895893,
        "lon": 14.6125922
      },
      "telephone": "+420 775 253 333"
    },
    {
      "name": "Foster = Freeman Ltd",
      "category": [
        "Border Security",
        "Forensic Services"
      ],
      "address": {
        "text": "Vale Park\nEvesham\nWorcestershire\nWR11 1TD\nUK",
        "iso2": "GB",
        "lat": 52.072567,
        "lon": -1.9379876
      },
      "telephone": "+44 (0)1386 768050"
    },
    {
      "name": "Frame Communications Ltd",
      "category": [
        "Cyber Security",
        "Optics",
        "Surveillance"
      ],
      "address": {
        "text": "Midshires House\n7 Midshires Business Park\nSmeaton Close\nAylesbury\nBucks\nHP19 8HL\nUK",
        "iso2": "GB",
        "lat": 51.8203713,
        "lon": -0.8376007999999999
      },
      "telephone": "+44 (0)7798 577823"
    },
    {
      "name": "Frazer-Nash Consultancy",
      "category": [
        "CBRN",
        "Cyber Security",
        "Information Technology"
      ],
      "address": {
        "text": "Stonebridge House \nDorking Business Park\nDorking\nSurrey\nRH4 1HJ\nEngland",
        "iso2": "GB",
        "lat": 51.2348942,
        "lon": -0.3373582
      },
      "website": "www.fnc.co.uk"
    },
    {
      "name": "Frontier Pitts Ltd",
      "category": [
        "Access Control & Entry Systems",
        "Border Security",
        "Counter Terrorism & Intelligence"
      ],
      "address": {
        "text": "Crompton House\nCrompton Way\nManor Royal Industrial Estate\nCrawley\nWest Sussex\nRH10 9QZ\nUK",
        "iso2": "GB",
        "lat": 51.12891949999999,
        "lon": -0.1802964
      },
      "telephone": "+44 (0)7931 703214"
    },
    {
      "name": "Future Digital",
      "category": [
        "Counter Terrorism & Intelligence",
        "Cyber Security",
        "Information Technology"
      ],
      "address": {
        "text": "71-75 Shelton St\nCovent Garden\nLondon\nW2CH9JQ\nUnited Kingdom",
        "iso2": "GB",
        "lat": 51.5149056,
        "lon": -0.1235464
      },
      "telephone": "+44 (0)203 846 0080"
    },
    {
      "name": "Gallagher Security (Europe) Ltd",
      "category": [
        "Access Control & Entry Systems",
        "Border Security",
        "Communications",
        "Command & Control"
      ],
      "address": {
        "text": "Unit 5\n Eastboro Fields\nHemdale Business Park\nNuneaton\nWarwickshire\nCV11 6GL\nEngland",
        "iso2": "GB",
        "lat": 52.5220742,
        "lon": -1.4410683
      },
      "telephone": "+44 (0)2476 641234"
    },
    {
      "name": "Gamma TSE Ltd",
      "category": [
        "Surveillance",
        "Communications",
        "Command & Control",
        "Training"
      ],
      "address": {
        "text": "Unit D-G, Porton Business Center\nPorton\nSalisbury\nWiltshire\nSP4 0ND\nUnited Kingdom",
        "iso2": "GB",
        "lat": 51.133479,
        "lon": -1.7397099
      },
      "telephone": "+44 (0)1980 611333"
    },
    {
      "name": "Gedion",
      "category": [
        "Surveillance"
      ],
      "address": {
        "text": "Perkunkiemio g 4A\nVilnius\n12128\nLithuania",
        "iso2": "LT",
        "lat": 54.74127230000001,
        "lon": 25.2226684
      },
      "telephone": "+370 6892 4965"
    },
    {
      "name": "Gentex Corporation",
      "category": [
        "Incident & Emergency Response",
        "Communications",
        "Command & Control",
        "Personal Protection Equipment",
        "Clothing & Accessories"
      ],
      "address": {
        "text": "Gentex Europe\nUnit 3, Focus 4\nLetchworth Garden City\nHertfordshire\nSG6 2TU\nUK",
        "iso2": "GB",
        "lat": 51.9831042,
        "lon": -0.2053367
      },
      "telephone": "+1 617 603 2477"
    },
    {
      "name": "Geoquip Worldwide",
      "category": [
        "Cyber Security",
        "Physical Security",
        "Man-guarding & Close Protection"
      ],
      "address": {
        "text": "Units 3 & 4, Duffield Road\nLittle Eaton\nDerbyshire \nDE21 5DR \nUnited Kingdon",
        "iso2": "GB",
        "lat": 52.9659039,
        "lon": -1.4621436
      },
      "telephone": "+44 (0)1302 763121"
    },
    {
      "name": "Getac UK Ltd",
      "category": [
        "Incident & Emergency Response",
        "Information Technology"
      ],
      "address": {
        "text": "Getac UK Ltd\nMitac House\nNedge Hill\nTelford\nShropshire\nTF3 3AH\nUnited Kingdom",
        "iso2": "GB",
        "lat": 52.6698364,
        "lon": -2.4167515
      },
      "telephone": "+44 (0)1952 207219"
    },
    {
      "name": "GMK Ltd",
      "category": [
        "Counter Terrorism & Intelligence",
        "Optics",
        "Personal Protection Equipment",
        "Clothing & Accessories"
      ],
      "address": {
        "text": "Bear House\nConcorde Way\nFareham\nHampshire\nPO15 5RL\nUnited Kingdon",
        "iso2": "GB",
        "lat": 50.86984959999999,
        "lon": -1.2427158
      },
      "telephone": "+44 (0)1489 579999"
    },
    {
      "name": "GOS Systems",
      "category": [
        "Counter Terrorism & Intelligence",
        "Surveillance",
        "Communications",
        "Command & Control"
      ],
      "address": {
        "text": "32 St James’s Street\nLondon\nSW1A 1HD\nUnited Kingdom",
        "iso2": "GB",
        "lat": 51.5072768,
        "lon": -0.1395539
      },
      "telephone": "+44 (0)20 3190 6600"
    },
    {
      "name": "GRC Ltd",
      "category": [
        "Border Security",
        "Incident & Emergency Response",
        "Communications",
        "Command & Control"
      ],
      "address": {
        "text": "Wyevale Business Park\nWyevale Way\nHereford\nHerefordshire\nHR4 7BS\nUK",
        "iso2": "GB",
        "lat": 52.0732147,
        "lon": -2.771884
      },
      "telephone": "+44 (0)1432 373800"
    },
    {
      "name": "Griffiths Communications Ltd",
      "category": [
        "Counter Terrorism & Intelligence",
        "Surveillance",
        "Training"
      ],
      "address": {
        "text": "Willowbrook\nKnighton Road\nPresteigne\nPowys\nLD8 2ET\nUnited Kingdom",
        "iso2": "GB",
        "lat": 52.2795988,
        "lon": -3.0139386
      },
      "telephone": "+44 (0)7785 380101"
    },
    {
      "name": "Griffon Hoverwork Ltd",
      "category": [
        "Border Security",
        "Maritime Security",
        "Vehicles"
      ],
      "address": {
        "text": "Merlin Quay\nHazel Road\nWoolston\nSouthampton\nHampshire\nSO19 7GB\nUK",
        "iso2": "GB",
        "lat": 50.9004826,
        "lon": -1.3819911
      },
      "telephone": "+44 (0)2380 686666"
    },
    {
      "name": "Group 2000 Nederland B.V.",
      "category": [
        "Counter Terrorism & Intelligence",
        "Surveillance"
      ],
      "address": {
        "text": "Van der Hoopweg 1\nAlmelo\n7602PJ\nThe Netherlands",
        "iso2": "NL",
        "lat": 52.373739,
        "lon": 6.647547299999999
      },
      "telephone": "+31 (0)546 482 400"
    },
    {
      "name": "GWSim Ltd",
      "category": [
        "Counter Terrorism & Intelligence",
        "Information Technology",
        "Surveillance"
      ],
      "address": {
        "text": "57 Rathbone Street\nLondon\nW1T 1JU\nUnited Kingdom",
        "iso2": "GB",
        "lat": 51.5186789,
        "lon": -0.1357966
      },
      "telephone": "+44 (0)7794 735183"
    },
    {
      "name": "Hamilton Erskine Limited",
      "category": [
        "Custodial",
        "Explosives & Blast Protection",
        "Transport Security"
      ],
      "address": {
        "text": "17 Moss Road\nBallygowan\nDown\nBT23 6JQ\nUnited Kingdom",
        "iso2": "GB",
        "lat": 54.4985983,
        "lon": -5.7827556
      },
      "telephone": "+44 (0)28 9752 1754"
    },
    {
      "name": "Harquebus",
      "category": [
        "Counter Terrorism & Intelligence",
        "Training"
      ],
      "address": {
        "text": "10 Watermark Way\nFoxholes Business Park\nHertford\nHertfordshire\nSG13 7TZ\nUnited Kingdom",
        "iso2": "GB",
        "lat": 51.7961888,
        "lon": -0.0592142
      },
      "telephone": "+44 (0)20 7692 4207"
    },
    {
      "name": "HazmatLINK Ltd",
      "category": [
        "Border Security",
        "CBRN",
        "Incident & Emergency Response"
      ],
      "address": {
        "text": "THe Innovation Centre\nLauriston Park\nPitchill\nEvesham\nWR11 8SN\nUK",
        "iso2": "GB",
        "lat": 52.1627856,
        "lon": -1.9251675
      },
      "telephone": "+44 (0)1242 808902"
    },
    {
      "name": "Heckler & Koch",
      "category": [
        "Professional Services",
        "Training"
      ],
      "address": {
        "text": "NSAF Ltd\nUnit 3\nEaster Park\nNottingham\nNG7 2PX\nUnited Kingdom",
        "iso2": "GB",
        "lat": 52.9418826,
        "lon": -1.1711721
      },
      "website": "http://www.heckler-koch.com"
    },
    {
      "name": "Helyx SIS Ltd",
      "category": [
        "Counter Terrorism & Intelligence",
        "Professional Services",
        "Training"
      ],
      "address": {
        "text": "2 Hanley Court\nBrockeridge Business Park\nTwyning\nTewkesbury\nGloucestershire\nGL20 6FE\nUnited Kingdom",
        "iso2": "GB",
        "lat": 52.03437690000001,
        "lon": -2.1585547
      },
      "telephone": "+44 (0)7964 945616"
    },
    {
      "name": "Holmatro Special Tactics equipment",
      "category": [
        "Access Control & Entry Systems",
        "Counter Terrorism & Intelligence",
        "Incident & Emergency Response"
      ],
      "address": {
        "text": "Lissenveld 30\nRaamsdonksveer\n4940 AB\nThe Netherlands",
        "iso2": "NL",
        "lat": 51.70796499999999,
        "lon": 4.887313
      },
      "telephone": "+31 162 589200"
    },
    {
      "name": "HSM UK",
      "category": [
        "Professional Services"
      ],
      "address": {
        "text": "14 Attwood Road\nBurntwood\nStaffordshire \nWS7 3GJ\nUnited Kingdom",
        "iso2": "GB",
        "lat": 52.6807276,
        "lon": -1.9505576
      },
      "telephone": "+44 (0)1543 272480"
    },
    {
      "name": "IBM",
      "category": [
        "CCTV & Video Analytics",
        "Cyber Security",
        "Surveillance"
      ],
      "address": {
        "text": "76/78 Upper Ground\nSouth Bank\nLondon\nSE1 9PZ\nUnited Kingdon",
        "iso2": "GB",
        "lat": 51.5072191,
        "lon": -0.1135191
      },
      "telephone": "+44 (0)7747 794679"
    },
    {
      "name": "Ilasco/Keela",
      "category": [
        "CBRN",
        "Personal Protection Equipment",
        "Clothing & Accessories"
      ],
      "address": {
        "text": "52-53 Nasmyth Road\nGlenrothes\nFife\nKY6 2SD\nUnited Kingdom",
        "iso2": "GB",
        "lat": 56.1778397,
        "lon": -3.1985084
      },
      "telephone": "+44 (0)1592 777000"
    },
    {
      "name": "Illumina",
      "category": [
        "Forensic Services"
      ],
      "address": {
        "text": "Chesterford Research Park\nLittle Chesterford\nNr Saffron Walden\nEssex\nCB10 1XL\nUK",
        "iso2": "GB",
        "lat": 52.05614600000001,
        "lon": 0.2356433
      },
      "telephone": "+44 (0)1799 532300"
    },
    {
      "name": "Inazone Ltd",
      "category": [
        "CCTV & Video Analytics",
        "Optics",
        "Training"
      ],
      "address": {
        "text": "Unit 1, Mill Farm\nKelston\nBath\nBA1 9AQ\nUK",
        "iso2": "GB",
        "lat": 51.4037093,
        "lon": -2.4326359
      },
      "telephone": "+44 (0)1225 331818"
    },
    {
      "name": "IndigoVision",
      "category": [
        "CCTV & Video Analytics",
        "Surveillance"
      ],
      "address": {
        "text": "Charles Darwin House\nThe Edinburgh Technopole\nEdinburgh\nMidlothian\nEH26 0PY\nUK",
        "iso2": "GB",
        "lat": 55.8592837,
        "lon": -3.2064892
      },
      "telephone": "+44 (0)1314 757370"
    },
    {
      "name": "Innova S.p.A.",
      "category": [
        "Information Technology",
        "Surveillance"
      ],
      "address": {
        "text": "via del Follatoio, 12\nTrieste\n34148\nItaly",
        "iso2": "IT",
        "lat": 45.6209529,
        "lon": 13.8056363
      },
      "telephone": "+44 (0)7957 216988"
    },
    {
      "name": "Int Research Ltd",
      "category": [
        "Counter Terrorism & Intelligence",
        "Surveillance",
        "Training"
      ],
      "address": {
        "text": "Unit 130\n24-28 St Leonards Road\nWindsor\nBerkshire\nSL4 3BB\nUK",
        "iso2": "GB",
        "lat": 51.4792224,
        "lon": -0.612601
      },
      "telephone": "+44 (0)1753 535599"
    },
    {
      "name": "Intelligent Devices, Inc",
      "category": [
        "Counter Terrorism & Intelligence",
        "Forensic Services",
        "Surveillance"
      ],
      "address": {
        "text": "9101 Guilford Road, Suite 112\nColumbia, MD\nHoward\n21046\nUSA",
        "iso2": "US",
        "lat": 39.1703921,
        "lon": -76.84666899999999
      },
      "telephone": "+1 301 498 7590"
    },
    {
      "name": "International Procurement Services  Ltd",
      "category": [
        "Counter Terrorism & Intelligence",
        "Professional Services",
        "Training"
      ],
      "address": {
        "text": "118 Piccadilly\nLondon\nW1J7NW\nUnited Kingdom",
        "iso2": "GB",
        "lat": 51.5044524,
        "lon": -0.1479357
      },
      "telephone": "+44 (0)20 7258 3771"
    },
    {
      "name": "Intertek",
      "category": [
        "Forensic Services",
        "Professional Services"
      ],
      "address": {
        "text": "Centre Court\nMeridian Business Park\nLeicester\nLeicestershire\nLE19 1WD\nUnited Kingdom",
        "iso2": "GB",
        "lat": 52.61190029999999,
        "lon": -1.1919554
      },
      "telephone": "+44 (0)116 263 0330"
    },
    {
      "name": "ip.access Ltd.",
      "category": [
        "Access Control & Entry Systems",
        "Incident & Emergency Response",
        "Surveillance"
      ],
      "address": {
        "text": "Building 2020 \nCambourne Business Park\nCambourne\nCB23 6DW\nUnited Kingdom",
        "iso2": "GB",
        "lat": 52.2226872,
        "lon": -0.0744119
      },
      "telephone": "+44 (0)7899 925229"
    },
    {
      "name": "IPS S.p.A.",
      "category": [
        "Counter Terrorism & Intelligence",
        "Information Technology",
        "Communications",
        "Command & Control"
      ],
      "address": {
        "text": "Via Monticello, 7\nAprilia\nLT\n04011\nItaly",
        "iso2": "IT",
        "lat": 41.5945514,
        "lon": 12.6310401
      },
      "telephone": "+39 0692 710500"
    },
    {
      "name": "Ipsotek",
      "category": [
        "CCTV & Video Analytics",
        "Forensic Services",
        "Surveillance"
      ],
      "address": {
        "text": "Tuition House\n27-37 St George’s Road\nLondon\nSW19 4EU\nUK",
        "iso2": "GB",
        "lat": 51.4202442,
        "lon": -0.2089343
      },
      "telephone": "+44 (0)20 8971 8300"
    },
    {
      "name": "IQHQ",
      "category": [
        "Counter Terrorism & Intelligence",
        "Surveillance",
        "Communications",
        "Command & Control"
      ],
      "address": {
        "text": "Building 15\nMalvern Technology Park\nSt Andrews Rd\nMalvern\nMalvern\nWorcestershire\nWR14 3PS\nEngland",
        "iso2": "GB",
        "lat": 52.0997695,
        "lon": -2.3200549
      },
      "telephone": "+44 (0)1684 561250"
    },
    {
      "name": "ISS Global",
      "category": [
        "Counter Terrorism & Intelligence",
        "Information Technology",
        "Unmanned Systems & Robotics"
      ],
      "address": {
        "text": "1-3 Waterloo Crescent\nFloor 2\nDover\nKent\nCT16 ILA\nUnited Kingdom",
        "iso2": "GB",
        "lat": 51.12283739999999,
        "lon": 1.3151662
      },
      "telephone": "+44 (0)7855 271447"
    },
    {
      "name": "ISSEE Ltd",
      "category": [
        "CBRN",
        "Physical Security",
        "Man-guarding & Close Protection",
        "Training"
      ],
      "address": {
        "text": "Talbot Hall\nHeythrop Park\nEnstone\nOxon\nOX7 5UE\nUK",
        "iso2": "GB",
        "lat": 51.9315574,
        "lon": -1.4726855
      },
      "telephone": "+44 (0)1608 678382"
    },
    {
      "name": "ITS testing services (UK) Ltd (also known as Intertek)",
      "category": [
        "Forensic Services",
        "Professional Services",
        "Personal Protection Equipment",
        "Clothing & Accessories"
      ],
      "address": {
        "text": "Centre Court\nMeridian Business Park\nLeicester\nLeicestershire\nLE19 1WD\nUK",
        "iso2": "GB",
        "lat": 52.61190029999999,
        "lon": -1.1919554
      },
      "telephone": "+44 (0)1162 630330"
    },
    {
      "name": "James Fisher Nuclear Ltd",
      "category": [
        "Access Control & Entry Systems",
        "CBRN",
        "Unmanned Systems & Robotics"
      ],
      "address": {
        "text": "Gordon House\nSceptre Way\nBamber Bridge\nPreston\nLancashire\nPR5 6AW\nUnited Kingdom",
        "iso2": "GB",
        "lat": 53.718922,
        "lon": -2.6389578
      },
      "telephone": "+44 (0)1772 622200"
    },
    {
      "name": "Jankel",
      "category": [
        "Counter Terrorism & Intelligence",
        "Explosives & Blast Protection",
        "Vehicles"
      ],
      "address": {
        "text": "P O Box 1\nWeybridge\nSurrey\nKT13 8XR\nUK",
        "iso2": "GB",
        "lat": 51.3725599,
        "lon": -0.4597466999999999
      },
      "telephone": "+44 (0)1932 857766"
    },
    {
      "name": "JENOPTIK Traffic Solutions UK",
      "category": [
        "Access Control & Entry Systems",
        "Surveillance"
      ],
      "address": {
        "text": "4.3 Frimley Business Park\nFrimley\nSurrey\nGU16 7SG\nUK",
        "iso2": "GB",
        "lat": 51.313059,
        "lon": -0.7545786
      },
      "telephone": "+44 (0)1183 130333"
    },
    {
      "name": "JSI Telecom",
      "category": [
        "Counter Terrorism & Intelligence",
        "Surveillance",
        "Communications",
        "Command & Control"
      ],
      "address": {
        "text": "15004 Northridge Drive, Suite 100\nChantilly\nVA\n20151\nUSA",
        "iso2": "US",
        "lat": 38.882219,
        "lon": -77.465057
      },
      "telephone": "+ 1 703 466 5220"
    },
    {
      "name": "JTiP",
      "category": [
        "Counter Terrorism & Intelligence",
        "Training"
      ],
      "address": {
        "text": "Level 2\n3 Sheldon Square\nPaddington\nLondon\nW2 6HY\nUK",
        "iso2": "GB",
        "lat": 51.5197584,
        "lon": -0.1806015
      },
      "telephone": "+44 (0)7876 862797"
    },
    {
      "name": "JTOL Limited",
      "category": [
        "Information Technology",
        "Surveillance",
        "Communications",
        "Command & Control"
      ],
      "address": {
        "text": "12 Dale Road\nRiverside\nRedditch\nWorcestershire\nB98 8HJ\nUnited Kingdom",
        "iso2": "GB",
        "lat": 52.311003,
        "lon": -1.9320076
      },
      "telephone": "+44 (0)7785 500325"
    },
    {
      "name": "Kelvin Hughes",
      "category": [
        "Border Security",
        "Maritime Security",
        "Communications",
        "Command & Control"
      ],
      "address": {
        "text": "Voltage \n6 Mollison Avenue\nEnfield\nLondon\nEN3 7XQ\nUnited Kingdom",
        "iso2": "GB",
        "lat": 51.6798009,
        "lon": -0.0298769
      },
      "telephone": "+44 (0)1992 805200"
    },
    {
      "name": "Keyprint Security Ltd",
      "category": [
        "Access Control & Entry Systems",
        "Training"
      ],
      "address": {
        "text": "45 Assembly Street\nEdinburgh\nEH6 7BQ\nUK",
        "iso2": "GB",
        "lat": 55.9748801,
        "lon": -3.1662802
      },
      "telephone": "+44 (0)7866 460761"
    },
    {
      "name": "KeyW",
      "category": [
        "Counter Terrorism & Intelligence",
        "Surveillance"
      ],
      "address": {
        "text": "7740 Milestone Parkway\nSuite 101\nHanover\n21076\nUSA",
        "iso2": "US",
        "lat": 39.1514472,
        "lon": -76.74833989999999
      },
      "telephone": "+1 410 714 1404"
    },
    {
      "name": "Kinesense Ltd",
      "category": [
        "Biometrics & Imagery",
        "CCTV & Video Analytics",
        "Forensic Services"
      ],
      "address": {
        "text": "79 Merrion square\nDublin\nD2\nD2\nIreland",
        "iso2": "IE",
        "lat": 53.3392259,
        "lon": -6.2510074
      },
      "telephone": "+44 (0)20 7096 1550"
    },
    {
      "name": "Land Rover",
      "category": [
        "Explosives & Blast Protection",
        "Vehicles"
      ],
      "address": {
        "text": "Abbey Road\nWhitley\nCoventry\nCV3 4LF\nUnited Kingdom",
        "iso2": "GB",
        "lat": 52.387202,
        "lon": -1.4840122
      },
      "website": "www.landrover.com"
    },
    {
      "name": "Landguard Systems Ltd",
      "category": [
        "Information Technology",
        "Surveillance",
        "Communications",
        "Command & Control"
      ],
      "address": {
        "text": "Semaphore House\nFareham Heights\nStandard Way\nFareham\nHampshire\nPO16 8XT\nUK",
        "iso2": "GB",
        "lat": 50.8595558,
        "lon": -1.1642708
      },
      "telephone": "+44 (0)1329 722133"
    },
    {
      "name": "Law Enforcement International Ltd",
      "category": [
        "Counter Terrorism & Intelligence",
        "Maritime Security",
        "Personal Protection Equipment",
        "Clothing & Accessories"
      ],
      "address": {
        "text": "P.O. Box 328\nSt Albans\nHerts\nAL4 0WA\nUK",
        "iso2": "GB",
        "lat": 51.7476554,
        "lon": -0.3019492
      },
      "telephone": "+44 (0)1727 826607"
    },
    {
      "name": "LBA International Limited",
      "category": [
        "Border Security",
        "Counter Terrorism & Intelligence",
        "Personal Protection Equipment",
        "Clothing & Accessories"
      ],
      "address": {
        "text": "1 – 2 Macadam Close\nDaventry\nNorthamptonshire\nNN11 8RX\nEngland",
        "iso2": "GB",
        "lat": 52.2726207,
        "lon": -1.1814656
      },
      "telephone": "+44 (0)1327 311020"
    },
    {
      "name": "LEC",
      "category": [
        "Counter Terrorism & Intelligence",
        "Forensic Services",
        "Surveillance"
      ],
      "address": {
        "text": "Hypsmanova 891\nPrague 4\n14900\nCzech Republic",
        "iso2": "CZ",
        "lat": 49.9989718,
        "lon": 14.5190302
      },
      "telephone": "+42 02 4401 6340"
    },
    {
      "name": "Leonardo",
      "category": [
        "Border Security",
        "Cyber Security",
        "Communications",
        "Command & Control"
      ],
      "address": {
        "text": "Piazza Monte Grappa 4\nRome\n000195\nItaly",
        "iso2": "IT",
        "lat": 41.9185778,
        "lon": 12.4681985
      },
      "telephone": "+39 06 324 731"
    },
    {
      "name": "LGC – ParaDNA",
      "category": [
        "Biometrics & Imagery",
        "Counter Terrorism & Intelligence",
        "Forensic Services"
      ],
      "address": {
        "text": "Queens Road\nTeddington\nMiddlesex\nTW11 0LY\nUK",
        "iso2": "GB",
        "lat": 51.4230491,
        "lon": -0.3387339
      },
      "telephone": "+44 (0)844 2641 999"
    },
    {
      "name": "Liteye UK Limited",
      "category": [
        "Counter Terrorism & Intelligence",
        "Optics",
        "Surveillance"
      ],
      "address": {
        "text": "Unit 15b\nEarls Colne Business Park\nEarls Colne\nColchester\nEssex\nCO6 2NS\nUnited Kingdom",
        "iso2": "GB",
        "lat": 51.9085821,
        "lon": 0.6807529999999999
      },
      "telephone": "+44 (0)1787 223972"
    },
    {
      "name": "Locken UK Ltd",
      "category": [
        "Access Control & Entry Systems"
      ],
      "address": {
        "text": "Evergreen House North – Grafton Place\n160 Euston Road \nLondon \nNW1 2DX \nUnited Kingdom",
        "iso2": "GB",
        "lat": 51.5278826,
        "lon": -0.1302071
      },
      "telephone": "+44 (0)20 3691 1610"
    },
    {
      "name": "Lockheed Martin UK",
      "category": [
        "CCTV & Video Analytics",
        "Counter Terrorism & Intelligence",
        "Cyber Security"
      ],
      "address": {
        "text": "Langstone Technology Park\nBuilding 7000 \nLangstone Rd\nHavant\nHampshire\n PO9 1SA,\nUK",
        "iso2": "GB",
        "lat": 50.845175,
        "lon": -0.987632
      },
      "telephone": "+44 (0)23 9244 3000"
    },
    {
      "name": "Luciad",
      "category": [
        "Border Security",
        "Incident & Emergency Response",
        "Communications",
        "Command & Control"
      ],
      "address": {
        "text": "Gaston Geenslaan 11\nLeuven\n3001\nBelgium",
        "iso2": "BE",
        "lat": 50.86501190000001,
        "lon": 4.6691501
      },
      "telephone": "+44 (0)7766 706188"
    },
    {
      "name": "Lumen ID",
      "category": [
        "Access Control & Entry Systems",
        "Cyber Security",
        "Forensic Services"
      ],
      "address": {
        "text": "Unit 2c Ballinderry Business Park\nBallinderry Road\nLisburn\nDown\nBT28 2SA\nNorthern Ireland",
        "iso2": "GB",
        "lat": 54.5122656,
        "lon": -6.0803927
      },
      "telephone": "+44 (0)7760 697060"
    },
    {
      "name": "Magnet Forensics",
      "category": [
        "Cyber Security",
        "Information Technology",
        "Training"
      ],
      "address": {
        "text": "156 Columbia Street West\nUnit 2\nWaterloo\nOntario\nN2L 3L3\nCanada",
        "iso2": "CA",
        "lat": 43.4772615,
        "lon": -80.5408066
      },
      "telephone": "+1 (844) 638 7884"
    },
    {
      "name": "Marlborough Communications Limited",
      "category": [
        "Surveillance",
        "Unmanned Systems & Robotics",
        "Communications",
        "Command & Control"
      ],
      "address": {
        "text": "Dovenby  Hall\nBalcombe Road \nHorley\nSurrey\nRH6 9UU\nUnited Kingdom",
        "iso2": "GB",
        "lat": 51.16050749999999,
        "lon": -0.1491966
      },
      "telephone": "01293 775071"
    },
    {
      "name": "MASS",
      "category": [
        "Cyber Security",
        "Forensic Services"
      ],
      "address": {
        "text": "Enterprise House\nGreat North Road\nLittle Paxton\nSt Neots\nCambridgeshire\nPE19 6BN\nUnited Kingdom",
        "iso2": "GB",
        "lat": 52.2533209,
        "lon": -0.2641665
      },
      "telephone": "+44 (0)1480 222600"
    },
    {
      "name": "Maximum Protection Services Ltd",
      "category": [
        "CCTV & Video Analytics",
        "Surveillance",
        "Physical Security",
        "Man-guarding & Close Protection"
      ],
      "address": {
        "text": "Unit 5\nPetre Road\nClayton Business Park\nClayton-le-Moors\nAccrington\nLancashire\nBB5 5JB\nUK",
        "iso2": "GB",
        "lat": 53.7694197,
        "lon": -2.3896149
      },
      "telephone": "+44 (0)1254 301050"
    },
    {
      "name": "MCM Solutions",
      "category": [
        "Counter Terrorism & Intelligence",
        "Cyber Security",
        "Forensic Services"
      ],
      "address": {
        "text": "The Courtyard\n30 Worthing Road\nHorsham\nWest Sussex\nRH12 1SL\nUnited Kingdom",
        "iso2": "GB",
        "lat": 51.0624621,
        "lon": -0.3336038
      },
      "telephone": "+44 (0)7870 512961"
    },
    {
      "name": "Memtex Ltd",
      "category": [
        "Counter Terrorism & Intelligence",
        "Optics",
        "Surveillance"
      ],
      "address": {
        "text": "Palanium Building \nPOB 12\nEinat\n4880500\nIsrael",
        "iso2": "IL",
        "lat": 32.081948,
        "lon": 34.937514
      },
      "telephone": "+972 (54 )594 5744"
    },
    {
      "name": "Mendip Media Group Ltd",
      "address": {
        "text": "Rockeagle House\nPynes Hill\nExeter\nEX2 5AZ\nUnited Kingdom",
        "iso2": "GB",
        "lat": 50.7114177,
        "lon": -3.4845256
      },
      "telephone": "+44 (0)1392 213958"
    },
    {
      "name": "Merlin Equipment Ltd",
      "category": [
        "Counter Terrorism & Intelligence",
        "Surveillance",
        "Vehicles"
      ],
      "address": {
        "text": "Unit 3/4, Cabot Business Village\nHolyrood Close\nPoole\nDorset\nBH17 7BA\nUnited Kingdom",
        "iso2": "GB",
        "lat": 50.7410023,
        "lon": -1.9939173
      },
      "telephone": "+44 (0)7779 814570"
    },
    {
      "name": "metOcean telematics",
      "category": [
        "Surveillance",
        "Communications",
        "Command & Control"
      ],
      "address": {
        "text": "21 Thornhill Drive\nDartmouth\nB3B 1R9\nCanada",
        "iso2": "CA",
        "lat": 44.7005741,
        "lon": -63.5947438
      },
      "website": "www.metocean.com"
    },
    {
      "name": "Metrasens Ltd",
      "category": [
        "Border Security",
        "Counter Terrorism & Intelligence",
        "Custodial"
      ],
      "address": {
        "text": "Unit 8 Beauchamp Business Centre\nSparrowhawk Close\nMalvern\nWorcestershire\nWR14 1GL\nUnited Kingdom",
        "iso2": "GB",
        "lat": 52.1279718,
        "lon": -2.3062601
      },
      "telephone": "+44 (0)1684 219000"
    },
    {
      "name": "MIB Electronic Ltd",
      "category": [
        "Counter Terrorism & Intelligence",
        "Optics",
        "Surveillance"
      ],
      "address": {
        "text": "Cobblers Way\nUnit 3H\nSt Peters Park\nRadstock\nBA3 3BX\nUnited Kingdom",
        "iso2": "GB",
        "lat": 51.28223329999999,
        "lon": -2.4668589
      },
      "telephone": "+44 (0)7375 086317"
    },
    {
      "name": "Michael Lupton Associates Limited",
      "category": [
        "Personal Protection Equipment",
        "Clothing & Accessories"
      ],
      "address": {
        "text": "Halifax House\nSeaton Ross\nYork\nNorth Yorks\nY042 4LU\nUnited Kingdom",
        "iso2": "GB",
        "lat": 53.8646402,
        "lon": -0.8181427
      },
      "telephone": "+44 (0)1759 318557"
    },
    {
      "name": "Mico Tindall Engineering",
      "category": [
        "Access Control & Entry Systems",
        "Explosives & Blast Protection",
        "Physical Security",
        "Man-guarding & Close Protection"
      ],
      "address": {
        "text": "Unit 8 \nLaurel Trading Estate \nHigginshaw Lane\nRyrib\nOL2 6LH\nUK",
        "iso2": "GB",
        "lat": 53.5576351,
        "lon": -2.1028676
      },
      "telephone": "+44 (0)1189 772525"
    },
    {
      "name": "MS Instruments",
      "category": [
        "Forensic Services",
        "Training"
      ],
      "address": {
        "text": "Unit 4 Ravensquay Business Centre\nCray Avenue\nOrpington\nKent\nBR5 4BQ\nUK",
        "iso2": "GB",
        "lat": 51.3884188,
        "lon": 0.109541
      },
      "telephone": "+44 (0)1689 883020"
    },
    {
      "name": "Municipal Security Limited",
      "category": [
        "Maritime Security",
        "Professional Services",
        "Storage & Containers"
      ],
      "address": {
        "text": "Seaspace House\nBrighton Road\nHandcross\nHaywards Heath\nWest Sussex\nRH17 6BZ\nUK",
        "iso2": "GB",
        "lat": 51.1096709,
        "lon": -0.191347
      },
      "telephone": "+44 (0)1444 405170"
    },
    {
      "name": "National VIPER® Bureau, West Yorkshire Police",
      "category": [
        "Biometrics & Imagery",
        "CCTV & Video Analytics",
        "Information Technology"
      ],
      "address": {
        "text": "PO BOX 9\nWakefield\nWest Yorkshire\nWF1 3QP\nUnited Kingdom",
        "iso2": "GB",
        "lat": 53.67988649999999,
        "lon": -1.4997016
      },
      "telephone": "+44 (0)1924 878511"
    },
    {
      "name": "NDI Recognition Systems Limited",
      "category": [
        "Access Control & Entry Systems",
        "CCTV & Video Analytics",
        "Counter Terrorism & Intelligence"
      ],
      "address": {
        "text": "NDI House\n11 Alvaston Business Park\nMiddlewich Road\nNantwich\nCheshire\nCW5 6PF\nEngland",
        "iso2": "GB",
        "lat": 53.0798689,
        "lon": -2.5129317
      },
      "telephone": "+44 (0)1270 613796"
    },
    {
      "name": "NEC UK Ltd",
      "category": [
        "Biometrics & Imagery",
        "Border Security",
        "Cyber Security"
      ],
      "address": {
        "text": "Athene, Odyssey Business Park\nWest End Road\nRuislip\nMiddx\nHA4 6QE\nUnited Kingdom",
        "iso2": "GB",
        "lat": 51.55726929999999,
        "lon": -0.4025298
      },
      "telephone": "+44 (0)7736 890877"
    },
    {
      "name": "NeoSoft AG",
      "category": [
        "Counter Terrorism & Intelligence",
        "Information Technology"
      ],
      "address": {
        "text": "Uetlibergstrasse 132\nZurich\n8045\nSwitzerland",
        "iso2": "CH",
        "lat": 47.3604101,
        "lon": 8.516143399999999
      },
      "telephone": "+41 4452 00804"
    },
    {
      "name": "NEST iON",
      "category": [
        "Border Security",
        "Counter Terrorism & Intelligence",
        "Surveillance"
      ],
      "address": {
        "text": "Unit 13 Docklands Innovation Park\n128-130 East Wall Road\nDublin 3\nD03 KC98\nIreland",
        "iso2": "IE",
        "lat": 53.3538223,
        "lon": -6.2288403
      },
      "telephone": "+353 8775 59134"
    },
    {
      "name": "Nexter Robotics",
      "category": [
        "CBRN",
        "Surveillance",
        "Unmanned Systems & Robotics"
      ],
      "address": {
        "text": "14 Route de la Miniere\nVersailles\nIDF\n78034\nFrance",
        "iso2": "FR",
        "lat": 48.7824383,
        "lon": 2.1018864
      },
      "telephone": "+33 1 39 49 33 22"
    },
    {
      "name": "NICE",
      "category": [
        "Incident & Emergency Response",
        "Information Technology",
        "Communications",
        "Command & Control"
      ],
      "address": {
        "text": "Tollbar Way\nHedge End\nSouthampton\nHampshire\nSO30 2ZP\nUnited Kingdom",
        "iso2": "GB",
        "lat": 50.9213713,
        "lon": -1.312057
      },
      "telephone": "+44 (0)1489 771200"
    },
    {
      "name": "Nightsearcher Ltd",
      "category": [
        "Forensic Services",
        "Incident & Emergency Response",
        "Personal Protection Equipment",
        "Clothing & Accessories"
      ],
      "address": {
        "text": "Unit 4, Applied House\nFitzherbert Spur\nFarlington\nPortsmouth\nHampshire\nPO6 1TT\nUnited Kingdom",
        "iso2": "GB",
        "lat": 50.8434176,
        "lon": -1.0321545
      },
      "telephone": "+44 (0)2392 389774"
    },
    {
      "name": "Northern Ireland",
      "category": [
        "Cyber Security",
        "Explosives & Blast Protection",
        "Information Technology"
      ],
      "address": {
        "text": "Bedford Square\nBedford Street \nBelfast\nAntrim\nBT2 7ES\nNorthern Ireland",
        "iso2": "GB",
        "lat": 54.5936944,
        "lon": -5.9311405
      },
      "telephone": "+44 (0)28 9069 8495"
    },
    {
      "name": "Observant Innovations Limited",
      "category": [
        "CCTV & Video Analytics",
        "Optics",
        "Surveillance"
      ],
      "address": {
        "text": "The Museum Room\nAvington Park\nWinchester\nSO21 1DB\nUK",
        "iso2": "GB",
        "lat": 51.088745,
        "lon": -1.235577
      },
      "telephone": "+44 (0)7768 807733"
    },
    {
      "name": "ODU UK",
      "category": [
        "Optics",
        "Unmanned Systems & Robotics",
        "Communications",
        "Command & Control"
      ],
      "address": {
        "text": "Unit 3A\nWhitworth Court\nManor Park\nEpinal Way\nRuncorn\nWA7 1WA\nUnited Kingdon",
        "iso2": "GB",
        "lat": 53.348035,
        "lon": -2.6621322
      },
      "telephone": "+44 (0)3300 020640"
    },
    {
      "name": "Oncam",
      "category": [
        "CCTV & Video Analytics",
        "Surveillance",
        "Transport Security"
      ],
      "address": {
        "text": "Building 4, Chiswick Park\n566 Chiswick High Road\nLondon\nW4 5YE\nUnited Kingdom",
        "iso2": "GB",
        "lat": 51.49466400000001,
        "lon": -0.276038
      },
      "telephone": "+44 (0)20 7371 6640"
    },
    {
      "name": "OpenWorks Engineering Ltd",
      "category": [
        "Border Security",
        "Counter Terrorism & Intelligence",
        "Physical Security",
        "Man-guarding & Close Protection"
      ],
      "address": {
        "text": "OpenWorks Engineering Ltd\n4B Stocksfield Hall\nStocksfield\nNorthumberland\nNE43 7TN\nUnited Kingdom",
        "iso2": "GB",
        "lat": 54.950757,
        "lon": -1.916665
      },
      "telephone": "+44 (0)7951 022151"
    },
    {
      "name": "Ovation Systems Ltd",
      "category": [
        "Surveillance"
      ],
      "address": {
        "text": "Springfield Barn\nLondon Road\nMilton Common\nOxfordshire\nOX9 2JY\nUnited Kingdom",
        "iso2": "GB",
        "lat": 51.7356479,
        "lon": -1.0820996
      },
      "telephone": "+44 (0)1844 279638"
    },
    {
      "name": "Overview Ltd",
      "category": [
        "CCTV & Video Analytics"
      ],
      "address": {
        "text": "Overview Ltd\n55 Bendon Valley\nEarlsfield\nLondon\nSW18 4LZ\nUnited Kingdom",
        "iso2": "GB",
        "lat": 51.4465084,
        "lon": -0.1926855
      },
      "telephone": "+44 (0)20 8875 0984"
    },
    {
      "name": "Oxehealth",
      "category": [
        "CCTV & Video Analytics",
        "Custodial",
        "Surveillance"
      ],
      "address": {
        "text": "The Sadler Building\nOxford Science Park\nOxford\nOxfordshire\nOX4 4GE\nUnited Kingdom",
        "iso2": "GB",
        "lat": 51.7158616,
        "lon": -1.222119
      },
      "telephone": "+44 (0)1865 781343"
    },
    {
      "name": "Oxford Wave Research",
      "category": [
        "Biometrics & Imagery",
        "Counter Terrorism & Intelligence",
        "Training"
      ],
      "address": {
        "text": "Oxford Wave Research\nClarendon Business Centre , Sandford Gate\nSandy Lane West\nOxford\nOxfordshire\nOX4 6LB\nUnited Kingdom",
        "iso2": "GB",
        "lat": 51.7234872,
        "lon": -1.215765
      },
      "telephone": "+44 (0)1865 910345"
    },
    {
      "name": "Panoptech",
      "category": [
        "Border Security",
        "CCTV & Video Analytics",
        "Communications",
        "Command & Control"
      ],
      "address": {
        "text": "Cedar House\nAncells Road\nAncells Business Park\nFleet\nHampshire\nGU51 2UN\nEngland",
        "iso2": "GB",
        "lat": 51.29682090000001,
        "lon": -0.81967
      },
      "telephone": "+44 (0)1252 812055"
    },
    {
      "name": "Páramo Clothing Ltd",
      "category": [
        "Personal Protection Equipment",
        "Clothing & Accessories"
      ],
      "address": {
        "text": "Unit F\nDurgates Industrial Estate\nWadhurst\nEast Sussex\nTN5 6DF\nUnited Kingdom",
        "iso2": "GB",
        "lat": 51.0661277,
        "lon": 0.3294356
      },
      "telephone": "+44 (0)1892 786446"
    },
    {
      "name": "PDA Electronics Ltd",
      "category": [
        "Border Security",
        "Counter Terrorism & Intelligence",
        "Forensic Services"
      ],
      "address": {
        "text": "Cairn House\nElgiva Lane\nChesham\nBuckinghamshire\nHP5 2JD\nUK",
        "iso2": "GB",
        "lat": 51.7066624,
        "lon": -0.6130799
      },
      "telephone": "+44 (0)1494 257911"
    },
    {
      "name": "Pearson Engineering Ltd",
      "category": [
        "Counter Terrorism & Intelligence",
        "Explosives & Blast Protection",
        "Unmanned Systems & Robotics"
      ],
      "address": {
        "text": "Pearson Engineering Ltd\nArmstrong Works\nScotswood Road\nNewcastle upon Tyne\nTyne and Wear\nNE15 6UX\nUK",
        "iso2": "GB",
        "lat": 54.9669761,
        "lon": -1.6847773
      },
      "telephone": "+44 (0)191 234 0001"
    },
    {
      "name": "Perimeter Protection Worldwide (PPW)",
      "category": [
        "Border Security",
        "CCTV & Video Analytics",
        "Counter Terrorism & Intelligence"
      ],
      "address": {
        "text": "71-75 Shelton Street\nCovent Garden\nLondon\nWC2H 9QJ\nUnited Kingdom",
        "iso2": "GB",
        "lat": 51.5149056,
        "lon": -0.1235464
      },
      "telephone": "+44 (0)7581 317052"
    },
    {
      "name": "Pervade Software Ltd",
      "category": [
        "Cyber Security",
        "Information Technology",
        "Communications",
        "Command & Control"
      ],
      "address": {
        "text": "Castle Court\n6 Cathedral Road\nCardiff\nCF11 9LJ\nUK",
        "iso2": "GB",
        "lat": 51.48214249999999,
        "lon": -3.1892846
      },
      "telephone": "+44 (0)7753 573999"
    },
    {
      "name": "PGI",
      "category": [
        "Cyber Security",
        "Training"
      ],
      "address": {
        "text": "Cascades 1\n1190 Park Avenue\nAztec West \nBristol \nBS32 4FP\nUK",
        "iso2": "GB",
        "lat": 51.5419181,
        "lon": -2.5785328
      },
      "telephone": "+44 (0)20 7887 2699"
    },
    {
      "name": "Police Credit Union Ltd",
      "category": [
        "Professional Services"
      ],
      "address": {
        "text": "2111 Coventry Road\nSheldon\nBirmingham\nB26 3EA\nUnited Kingdom",
        "iso2": "GB",
        "lat": 52.452987,
        "lon": -1.7881754
      },
      "telephone": "+44 (0)121 700 1240"
    },
    {
      "name": "Policing Insight (CoPaCC Ltd)",
      "category": [
        "Professional Services"
      ],
      "address": {
        "text": "128 Brunel Drive\nBiggleswade\nBedfordshire\nSG18 8BJ\nUnited Kingdom",
        "iso2": "GB",
        "lat": 52.079378,
        "lon": -0.2635688
      },
      "telephone": "+44 (0)7711 043988"
    },
    {
      "name": "Primonics",
      "category": [
        "Information Technology"
      ],
      "address": {
        "text": "500 Boulevard Morgan \nSuite 100\nBaie D’Urfe\nQuebec\nH9X3V1\nCanada",
        "iso2": "CA",
        "lat": 45.42239439999999,
        "lon": -73.9177918
      },
      "telephone": "+1 514 694 4866 ext 222"
    },
    {
      "name": "Pro4tech Ltd",
      "category": [
        "Surveillance"
      ],
      "address": {
        "text": "Kochav Building\nPOB 607\nKochav Building\nPOB 607\nYokneam\n20692\nIsrael",
        "iso2": "IL",
        "lat": 32.660225,
        "lon": 35.104606
      },
      "telephone": "+972 4 9590081"
    },
    {
      "name": "Providence Group",
      "category": [
        "Counter Terrorism & Intelligence",
        "Surveillance",
        "Training"
      ],
      "address": {
        "text": "1 Upper Barn\nGrange Farm, Harewood End\nHereford\nHerefordshire\nHR2 8JS\nUnited Kingdom",
        "iso2": "GB",
        "lat": 51.9491239,
        "lon": -2.685537
      },
      "telephone": "+44 (0)1989 730740"
    },
    {
      "name": "Pycko Scientific Ltd",
      "category": [
        "CBRN",
        "Incident & Emergency Response",
        "Training"
      ],
      "address": {
        "text": "Innovation House\nDaleside Road\nNottingham\nNotts\nNG2 4DH\nUK",
        "iso2": "GB",
        "lat": 52.9460014,
        "lon": -1.1288893
      },
      "telephone": "+44 (0)115 911 0239"
    },
    {
      "name": "Pyser-SGI Limited",
      "category": [
        "Border Security",
        "Optics",
        "Surveillance"
      ],
      "address": {
        "text": "Fircroft Way\nEdenbridge\nKent\nTN8 6HA\nUnited Kingdom",
        "iso2": "GB",
        "lat": 51.2061145,
        "lon": 0.0642512
      },
      "telephone": "+44 (0)1732 864111"
    },
    {
      "name": "Q Electronics Ltd",
      "address": {
        "text": "Beck House\nHawksworth Rd\nHorsforth\nLeeds\nLS18 4JP\nUnited Kingdom",
        "iso2": "GB",
        "lat": 53.83307,
        "lon": -1.6215897
      },
      "telephone": "+44 (0)7050 678999"
    },
    {
      "name": "QCC Global Limted",
      "category": [
        "Cyber Security",
        "Forensic Services"
      ],
      "address": {
        "text": "1 Hind Court\n149 Fleet Street\nLondon\nEC4A 3DL\nUnited Kingdom",
        "iso2": "GB",
        "lat": 51.5144478,
        "lon": -0.1075317
      },
      "telephone": "+44 (0)20 7205 2100"
    },
    {
      "name": "QinetiQ",
      "category": [
        "Border Security",
        "Cyber Security",
        "Unmanned Systems & Robotics"
      ],
      "address": {
        "text": "Cody Technology Park\nIvely Road\nFarnborough\nHampshire\nGU14 0LX\nUK",
        "iso2": "GB",
        "lat": 51.2794862,
        "lon": -0.7921119999999999
      },
      "telephone": "+44 (0)1252 392000"
    },
    {
      "name": "Qioptiq",
      "category": [
        "Border Security",
        "Optics",
        "Surveillance"
      ],
      "address": {
        "text": "GLascoed Road\nSt. Asaph\nDENBIGHSHIRE\nLL17 0LL\nUnited Kingdom",
        "iso2": "GB",
        "lat": 53.2531786,
        "lon": -3.472457
      },
      "telephone": "+44 (0)1745 588002"
    },
    {
      "name": "Qognify Ltd",
      "category": [
        "CCTV & Video Analytics",
        "Incident & Emergency Response",
        "Physical Security",
        "Man-guarding & Close Protection"
      ],
      "address": {
        "text": "Tallis House\n2 Tallis Street\nLondon\nEC4Y 0HB\nUnited Kingdom",
        "iso2": "GB",
        "lat": 51.5117,
        "lon": -0.107878
      },
      "telephone": "+97 25 2509 2497"
    },
    {
      "name": "Rajant Corporation",
      "category": [
        "Information Technology",
        "Communications",
        "Command & Control"
      ],
      "address": {
        "text": "400 E. King St.\nMalvern\n19355\nUSA",
        "iso2": "US",
        "lat": 40.03740020000001,
        "lon": -75.5085165
      },
      "telephone": "+44 (0)7419 735194"
    },
    {
      "name": "Rapiscan Systems Ltd",
      "category": [
        "Border Security",
        "Transport Security"
      ],
      "address": {
        "text": "X-Ray House\nBonehurst Road\nSalfords\nRedhill\nSurrey\nRH1 5GG\nUnited Kingdom",
        "iso2": "GB",
        "lat": 51.1958438,
        "lon": -0.1639232
      },
      "telephone": "+44 (0)870 777 4301"
    },
    {
      "name": "Raptor Photonics Ltd",
      "category": [
        "CCTV & Video Analytics",
        "Counter Terrorism & Intelligence",
        "Surveillance"
      ],
      "address": {
        "text": "Willowbank Business Park\nMillbrook\nLarne\nAntrim\nBT40 2SF\nNorthern Ireland",
        "iso2": "GB",
        "lat": 54.8416442,
        "lon": -5.8606247
      },
      "telephone": "+44 (0)2828 270141"
    },
    {
      "name": "RCS S.p.A.",
      "category": [
        "Surveillance"
      ],
      "address": {
        "text": "Caldera Business Park, Building B\nVia Caldera 21\nMilano \n20153\nItaly",
        "iso2": "IT",
        "lat": 45.4769929,
        "lon": 9.1021417
      },
      "telephone": "+39 02 3977 7453"
    },
    {
      "name": "Red Tulip Systems",
      "category": [
        "Counter Terrorism & Intelligence",
        "Cyber Security",
        "Information Technology"
      ],
      "address": {
        "text": "HSD Campus\nWilhelmina van Pruisenweg 104\nThe Hague\n2595 AN\nThe Netherlands",
        "iso2": "NL",
        "lat": 52.0794503,
        "lon": 4.340885699999999
      },
      "telephone": "+31 68 5167312"
    },
    {
      "name": "Reveal",
      "category": [
        "CCTV & Video Analytics",
        "Surveillance",
        "Personal Protection Equipment",
        "Clothing & Accessories"
      ],
      "address": {
        "text": "Endeavour II\nBecketts Wharf\nLower Teddington Road\nHampton Wick\nSurrey\nKT1 4ER\nUnited Kingdom",
        "iso2": "GB",
        "lat": 51.4133801,
        "lon": -0.3097297
      },
      "telephone": "+44 (0)20 3890 2000"
    },
    {
      "name": "Revision Military",
      "category": [
        "Personal Protection Equipment",
        "Clothing & Accessories"
      ],
      "address": {
        "text": "360 Bristol Business Park\nCold Harbour Lane\nBristol\nBS16 1EJ\nUnited Kingdom",
        "iso2": "GB",
        "lat": 51.5020004,
        "lon": -2.5408208
      },
      "telephone": "+44 (0)1174 033644"
    },
    {
      "name": "RFEL Ltd",
      "category": [
        "Border Security",
        "Optics",
        "Surveillance"
      ],
      "address": {
        "text": "Unit B, The Apex\nSt Cross Business Park\nNewport\nIsle of Wight\nPO30 5XW\nUnited Kingdom",
        "iso2": "GB",
        "lat": 50.7129578,
        "lon": -1.2911159
      },
      "telephone": "+44 (0)1983 216600"
    },
    {
      "name": "RFID Secure Ltd",
      "category": [
        "Access Control & Entry Systems",
        "Counter Terrorism & Intelligence",
        "Personal Protection Equipment",
        "Clothing & Accessories"
      ],
      "address": {
        "text": "7 Howard Terrace\nBrighton\nEast Sussex\nBN1 3TR\nUnited Kingdom",
        "iso2": "GB",
        "lat": 50.8318449,
        "lon": -0.1467617
      },
      "telephone": "+44 (0)7971 389603"
    },
    {
      "name": "Ripjar Limited",
      "category": [
        "Counter Terrorism & Intelligence",
        "Surveillance",
        "Communications",
        "Command & Control"
      ],
      "address": {
        "text": "Suite 404, Eagle Tower\nMontpellier Drive\nCheltenham\nGloucestershire\nGL50 1TA\nUK",
        "iso2": "GB",
        "lat": 51.8941696,
        "lon": -2.0769562
      },
      "telephone": "+44 (0)7376 075604"
    },
    {
      "name": "Rockwell Collins",
      "category": [
        "Border Security",
        "Counter Terrorism & Intelligence",
        "Transport Security"
      ],
      "address": {
        "text": "Rockwell Collins\nPegasus One, Pegasus Place \nGatwick Road\nCrawley\nWest Sussex\nRH10 9AY\nUK",
        "iso2": "GB",
        "lat": 51.131107,
        "lon": -0.1693146
      },
      "telephone": "+44 (0)1293 641200"
    },
    {
      "name": "Rohde & Schwarz",
      "category": [
        "Access Control & Entry Systems",
        "Counter Terrorism & Intelligence",
        "Communications",
        "Command & Control"
      ],
      "address": {
        "text": "Rohde & Schwarz UK Ltd\nAncells  Business Park\nFleet\nHampshire\nGU51 2UZ \nUK",
        "iso2": "GB",
        "lat": 51.29682090000001,
        "lon": -0.81967
      },
      "telephone": "+44 (0)1252 818835"
    },
    {
      "name": "RTP UK Ltd",
      "category": [
        "Professional Services",
        "Vehicles",
        "Training"
      ],
      "address": {
        "text": "200 Woodlands Court\nAsh Ridge Road\nBradley Stoke\nBristol\nSouth Gloucestershire\nBS32 4LB\nUnited Kingdom",
        "iso2": "GB",
        "lat": 51.5453757,
        "lon": -2.5670649
      },
      "telephone": "+44 (0)1454 643100"
    },
    {
      "name": "RVA Synergies Ltd",
      "category": [
        "Counter Terrorism & Intelligence",
        "Optics",
        "Surveillance"
      ],
      "address": {
        "text": "L5 Innsworth Technology Park\nInnsworth Lane\nGloucester\nGloucestershire\nGL3 1DL\nUnited Kingdom",
        "iso2": "GB",
        "lat": 51.8879776,
        "lon": -2.2153522
      },
      "telephone": "+44 (0)1452 739111"
    },
    {
      "name": "S.E.A. Datentechnik GmbH",
      "category": [
        "Information Technology",
        "Surveillance",
        "Communications",
        "Command & Control"
      ],
      "address": {
        "text": "Muelheimer Str 7\nTroisdorf\nNRW\n53840\nGermany",
        "iso2": "DE",
        "lat": 50.8182653,
        "lon": 7.1455242
      },
      "telephone": "+49 2241 12737 49"
    },
    {
      "name": "Safetyflex Anti Terrorist Barriers",
      "category": [
        "Border Security",
        "Counter Terrorism & Intelligence"
      ],
      "address": {
        "text": "unit B, Boston Place\nFoleshill\nCoventry\nCV6 5NN\nUK",
        "iso2": "GB",
        "lat": 52.4330393,
        "lon": -1.503382
      },
      "telephone": "+44 (0)2476 662116"
    },
    {
      "name": "Salient Sciences",
      "category": [
        "CCTV & Video Analytics",
        "Training"
      ],
      "address": {
        "text": "1000 Centre Green Way\nSuite 200\nCary\nNC \n27513\nUnited States",
        "iso2": "US",
        "lat": 35.8271184,
        "lon": -78.7976444
      },
      "telephone": "+1 (919) 572 6767"
    },
    {
      "name": "Scanna MSC Ltd",
      "category": [
        "Border Security",
        "Counter Terrorism & Intelligence",
        "Explosives & Blast Protection"
      ],
      "address": {
        "text": "223 Regent Street\nLondon\nW1B 2EB\nUK",
        "iso2": "GB",
        "lat": 51.5137283,
        "lon": -0.1415283
      },
      "telephone": "+44 (0)1793 786045"
    },
    {
      "name": "Science & Engineering Applications Datentechnik GmbH",
      "category": [
        "Communications",
        "Command & Control"
      ],
      "address": {
        "text": "Muelheimerstr.7\nTroisdorf\nNRW\n53840\nGermany",
        "iso2": "DE",
        "lat": 50.8182653,
        "lon": 7.1455242
      },
      "telephone": "+49 224112737 49"
    },
    {
      "name": "Search Systems Ltd",
      "category": [
        "Incident & Emergency Response",
        "Professional Services",
        "Unmanned Systems & Robotics"
      ],
      "address": {
        "text": "Forsyth House\nCromac Square\nBelfast\nAntrim \n BT2 8LA\nUK",
        "iso2": "GB",
        "lat": 54.59575839999999,
        "lon": -5.9233844
      },
      "telephone": "+44 (0)7881 621859"
    },
    {
      "name": "Seartech",
      "category": [
        "Surveillance"
      ],
      "address": {
        "text": "401 Roslyn Avenue \nWaterkloof Glen \nPretoria\nGauteng \n0181\nSouth Africa",
        "iso2": "ZA",
        "lat": -25.7997529,
        "lon": 28.2779666
      },
      "telephone": "+27 12 998 8519/8078"
    },
    {
      "name": "Secupro Government BV",
      "category": [
        "Access Control & Entry Systems",
        "Surveillance",
        "Training"
      ],
      "address": {
        "text": "Tingietersweg 38-40\nHaarlem\n2031ES\nNetherlands",
        "iso2": "NL",
        "lat": 52.3985943,
        "lon": 4.6573214
      },
      "telephone": "+31 (0)23 539 68 86"
    },
    {
      "name": "Secure Data Media Solutions Limited",
      "category": [
        "Information Technology",
        "Storage & Containers",
        "Training"
      ],
      "address": {
        "text": "81/82 Shrivenham Hundred Business Park\nMajors Road\nWatchfield\nOXON\nSN6 8TY\nUK",
        "iso2": "GB",
        "lat": 51.6143101,
        "lon": -1.6456467
      },
      "telephone": "+44 (0)1793 782286"
    },
    {
      "name": "Security Cleared Jobs.com",
      "category": [
        "Border Security",
        "Incident & Emergency Response",
        "Information Technology"
      ],
      "address": {
        "text": "19 – 23 Masons Hill\nBromley\nKent\nBR2 9HD\nUK",
        "iso2": "GB",
        "lat": 51.39929,
        "lon": 0.0177579
      },
      "telephone": "+44 (0)20 8166 0616"
    },
    {
      "name": "SeeQuestor",
      "category": [
        "CCTV & Video Analytics",
        "Counter Terrorism & Intelligence",
        "Forensic Services"
      ],
      "address": {
        "text": "14-16 Dowgate Hill\nLondon\nEC4R 2SU\nUK",
        "iso2": "GB",
        "lat": 51.5107654,
        "lon": -0.0915445
      },
      "telephone": "+44 (0)7454 578068"
    },
    {
      "name": "SelectaDNA",
      "category": [
        "Forensic Services",
        "Transport Security",
        "Physical Security",
        "Man-guarding & Close Protection"
      ],
      "address": {
        "text": "1 Locks Court\n429 Crofton Road\nLocksbottom\nKent\nBR6 8NL\nUK",
        "iso2": "GB",
        "lat": 51.3661557,
        "lon": 0.0539251
      },
      "telephone": "+44 (0)1689 860757"
    },
    {
      "name": "Senstar Ltd",
      "category": [
        "Border Security",
        "CCTV & Video Analytics",
        "Custodial"
      ],
      "address": {
        "text": "Orchard House\nEvesham Road\nBroadway\nWorcs\nWR12 7HU\nUK",
        "iso2": "GB",
        "lat": 52.0476097,
        "lon": -1.8775719
      },
      "telephone": "+44 (0)1386 834433"
    },
    {
      "name": "SeSys Ltd",
      "category": [
        "Border Security",
        "CCTV & Video Analytics",
        "Incident & Emergency Response"
      ],
      "address": {
        "text": "Unit 1 Rotherbrook Court\nBedford Road\nPetersfield\nHampshire\nGU32 3QG\nUnited Kingdom",
        "iso2": "GB",
        "lat": 51.0005625,
        "lon": -0.9508000000000001
      },
      "telephone": "+44 (0)1730 230530"
    },
    {
      "name": "Seven Technologies Group",
      "category": [
        "Border Security",
        "Optics",
        "Surveillance"
      ],
      "address": {
        "text": "23-25 Crescent Business Park\nLisburn\nAntrim\nBT28 2GN\nUnited Kingdom",
        "iso2": "GB",
        "lat": 54.5136392,
        "lon": -6.0724851
      },
      "telephone": "+44 (0)2892 605200"
    },
    {
      "name": "Seyntex NV",
      "category": [
        "CBRN",
        "Explosives & Blast Protection",
        "Personal Protection Equipment",
        "Clothing & Accessories"
      ],
      "address": {
        "text": "1 Seyntexlaan\nTilet\nB 8700\nBelgium",
        "iso2": "BE",
        "lat": 50.9848217,
        "lon": 3.3357832
      },
      "telephone": "+44 (0)7724 606600"
    },
    {
      "name": "Shearwater TSCM Ltd",
      "category": [
        "Information Technology",
        "Professional Services",
        "Transport Security"
      ],
      "address": {
        "text": "Innovation Centre\nBletchley Park\nSherwood Drive\nMilton Keynes\nBuckinghamshire\nMK3 6EB\nUK",
        "iso2": "GB",
        "lat": 51.9976597,
        "lon": -0.7406863
      },
      "telephone": "+44 (0)1908 639712"
    },
    {
      "name": "SIM Secure Information Management GmbH",
      "category": [
        "Counter Terrorism & Intelligence",
        "Forensic Services",
        "Training"
      ],
      "address": {
        "text": "Chemnitzer Strasse 2\nNeustadt\n67433\nGermany",
        "iso2": "DE",
        "lat": 49.3447712,
        "lon": 8.157409099999999
      },
      "telephone": "+49 6321 9127 115"
    },
    {
      "name": "SITA",
      "category": [
        "Biometrics & Imagery",
        "Border Security",
        "Communications",
        "Command & Control"
      ],
      "address": {
        "text": "Royal Pavillion \nWellesley Road \nAldershot \nHampshire\nGU11 1PZ\nUnited Kingdom",
        "iso2": "GB",
        "lat": 51.2506596,
        "lon": -0.7846272999999999
      },
      "telephone": "+44 (0)7860 784093"
    },