{
  "name": "Securex South Africa 2023",
  "series": "Securex South Africa",
  "edition": "2023",
  "startDate": "2023-06-06",
  "endDate": "2023-06-08",
  "address": {
    "text": "Gallagher Convention Centre\n19 Richards Drive\nMidrand\nJohannesburg\nSouth Africa",
    "iso2": "ZA",
    "lat": -26.0016667,
    "lon": 28.1297222
  },
  "website": "https://securex.co.za",
  "organiser": [
    {
      "name": "Specialised Exhibitions – a division of Montgomery Group",
      "website": "https://www.specialised.com/"
    }
  ],
  "social": [
    {
      "platform": "facebook",
      "url": "https://www.facebook.com/securexsa/"
    },
    {
      "platform": "twitter",
      "url": "https://twitter.com/SecurexSA"
    },
    {
      "platform": "linkedin",
      "url": "https://www.linkedin.com/company/securex-south-africa"
    },
    {
      "platform": "instagram",
      "url": "https://www.instagram.com/securex_sa/"
    }
  ],
  "exhibitorListUrl": "https://securex.co.za/exhibitors/",
  "exhibitorListDate": "2023-06-26T11:26:45+00:00",
  "exhibitor": [
    {
      "name": "Hyundai",
      "exhibitorUrl": "https://securex.co.za/exhibitor/2941/",
      "website": "https://www.hyundai.co.za",
      "telephone": "010 248 8122",
      "address": {
        "text": "2 Norman Rd,\nBedfordview,\nGauteng\n2008",
        "iso2": "ZA",
        "lat": -26.1882812,
        "lon": 28.1364237
      }
    },
    {
      "name": "RAPHAEL ELETRONICS",
      "exhibitorUrl": "https://securex.co.za/exhibitor/2993/",
      "telephone": "+886 2 8227 9128"
    },
    {
      "name": "Action Bullet Proof",
      "exhibitorUrl": "https://securex.co.za/exhibitor/action-bulletproof/",
      "website": "http://www.actionbulletproof.co.za",
      "telephone": "(083) 634-5881",
      "address": {
        "text": "139 Jan Hofmeyer Road\nWestville\nKwaZulu-Natal\n3639",
        "iso2": "ZA",
        "lat": -29.8281674,
        "lon": 30.9323656
      }
    },
    {
      "name": "Activeye",
      "exhibitorUrl": "https://securex.co.za/exhibitor/active-track/",
      "website": "http://www.activeye.co.za",
      "telephone": "011 551 1765",
      "address": {
        "text": "7 Drome Road\nFormain\nGauteng\n2090",
        "iso2": "ZA",
        "lat": -26.12525,
        "lon": 28.10775
      }
    },
    {
      "name": "Africa Radio Distributors",
      "exhibitorUrl": "https://securex.co.za/exhibitor/africa-radio-distributors/",
      "website": "http://www.aradiod.co.za/ard/",
      "telephone": "071-886-5653",
      "address": {
        "text": "2 La Gratitude Rd,\nNorthcliff,\nGauteng\n1709",
        "iso2": "ZA",
        "lat": -26.1686068,
        "lon": 27.9638294
      }
    },
    {
      "name": "Ajax Systems Trading DMCC",
      "exhibitorUrl": "https://securex.co.za/exhibitor/ajax-systems-trading-dmcc/",
      "telephone": "+380 9566 99518",
      "address": {
        "text": "Unit No: 3603-23, Mazaya Business Avenue AA1, Plot No: JLTE-PH2-AA1\nDubai",
        "iso2": "AE",
        "lat": 25.0675524,
        "lon": 55.144309
      }
    },
    {
      "name": "Allbro",
      "exhibitorUrl": "https://securex.co.za/exhibitor/allbro/",
      "website": "https://www.allbro.com",
      "telephone": "+27 (11) 894 8341",
      "address": {
        "text": "121, Cnr 13th Ave & Dormehl Str\nAnderbolt\nGauteng\n1459",
        "iso2": "ZA",
        "lat": -26.1933567,
        "lon": 28.2631518
      }
    },
    {
      "name": "Alpine Cases",
      "exhibitorUrl": "https://securex.co.za/exhibitor/alpine-cases/",
      "website": "https://alpinecases.co.za",
      "telephone": "079-228-6546",
      "address": {
        "text": "42 Kyalami Blvd,\nKyalami Park,\nGauteng\n1684",
        "iso2": "ZA",
        "lat": -25.9930718,
        "lon": 28.0666525
      }
    },
    {
      "name": "AMS Technologies Pty Ltd",
      "exhibitorUrl": "https://securex.co.za/exhibitor/ams-technologies/",
      "website": "https://amst.co.za",
      "telephone": "(073) 908-9082",
      "address": {
        "text": "Gauteng\n0157",
        "iso2": "ZA",
        "lat": -25.8527567,
        "lon": 28.1941785
      }
    },
    {
      "name": "Arcanum Africa",
      "exhibitorUrl": "https://securex.co.za/exhibitor/arcanum-africa/",
      "website": "https://www.arcanum-africa.com",
      "telephone": "066-051-4508",
      "address": {
        "text": "Hout Bay",
        "iso2": "ZA",
        "lat": -34.0392923,
        "lon": 18.3500299
      }
    },
    {
      "name": "Aritech",
      "exhibitorUrl": "https://securex.co.za/exhibitor/aritech/",
      "website": "https://za.firesecurityproducts.com/en/home",
      "telephone": "(011) 579-7300",
      "address": {
        "text": "29 Angus Crescent, Longmeadow Business Park East\nEdenvale\nGauteng\n1609",
        "iso2": "ZA",
        "lat": -26.1130233,
        "lon": 28.1404518
      }
    },
    {
      "name": "Astra Fasteners Pty Ltd",
      "exhibitorUrl": "https://securex.co.za/exhibitor/astra-fasteners/",
      "website": "http://www.astrafasteners.com",
      "telephone": "(011) 918-6696",
      "address": {
        "text": "Unit 46 N12 Business Park, 188 Dr. Vosloo Road\nGauteng\n1459",
        "iso2": "ZA",
        "lat": -26.1710773,
        "lon": 28.248231
      }
    },
    {
      "name": "Astra Security Innovations",
      "exhibitorUrl": "https://securex.co.za/exhibitor/astra-security-innovations/",
      "website": "https://astrafasteners.co.za",
      "telephone": "083-608-1163",
      "address": {
        "text": "Unit 46, N 12,\nIndustrial Park, 188 Dr Vosloo Rd,\nGauteng\n1459",
        "iso2": "ZA",
        "lat": -26.171344,
        "lon": 28.2505038
      }
    },
    {
      "name": "AxxonSoft Southern Africa & SADC (Pty) Ltd",
      "exhibitorUrl": "https://securex.co.za/exhibitor/axxonsoft/",
      "website": "https://www.axxonsoft.com",
      "telephone": "(082) 973-0197",
      "address": {
        "text": "4 Broadacres Drive, Mulberry Hill Office Park, Building 15\nDainfern\nGauteng\n2191",
        "iso2": "ZA",
        "lat": -25.9934688,
        "lon": 28.0115409
      }
    },
    {
      "name": "Bandit",
      "exhibitorUrl": "https://securex.co.za/exhibitor/bandit/",
      "website": "http://fog-bandit.co.za",
      "telephone": "0875512832",
      "address": {
        "text": "14 Beach Road\nStrand\nWestern Cape\n7140",
        "iso2": "ZA",
        "lat": -34.1185749,
        "lon": 18.8279024
      }
    },
    {
      "name": "Battery Experts",
      "exhibitorUrl": "https://securex.co.za/exhibitor/battery-experts/",
      "website": "http://www.batteryexperts.co.za",
      "telephone": "O87 086 1144",
      "address": {
        "text": "Unit 14, Sunrise Centre, 71 van Riebeeck Avenue, (Entrance 70 – 10th Ave)\nGauteng",
        "iso2": "ZA",
        "lat": -26.1411705,
        "lon": 28.1532239
      }
    },
    {
      "name": "BESTFENCE",
      "exhibitorUrl": "https://securex.co.za/exhibitor/bestfence/",
      "website": "https://www.bestfence.co.za",
      "telephone": "(010) 591-1230",
      "address": {
        "text": "6 Swartberg Street\nGauteng\n1451",
        "iso2": "ZA",
        "lat": -26.2837299,
        "lon": 28.05378
      }
    },
    {
      "name": "Bravo Global",
      "exhibitorUrl": "https://securex.co.za/exhibitor/bravo-global/",
      "website": "https://bravoglobal.com",
      "telephone": "+971504566313",
      "country": {
        "text": "UAE",
        "iso2": "AE"
      },
      "address": {
        "text": "P.O. Box: 61232",
        "iso2": "US",
        "lat": 41.4238692,
        "lon": -90.7390245
      }
    },
    {
      "name": "CARRIER FIRE & SECURITY SOUTH AFRICA PTY LTD",
      "exhibitorUrl": "https://securex.co.za/exhibitor/carrier-fire-security-south-africa-pty-ltd/",
      "website": "https://za.firesecurityproducts.com/en/home",
      "telephone": "072 882 3586",
      "address": {
        "text": "29 Angus Crescent, Longmeadow Business Park East\nEdenvale\nGauteng\n1609",
        "iso2": "ZA",
        "lat": -26.1130233,
        "lon": 28.1404518
      }
    },
    {
      "name": "CIAODA CLOUD TECHNOLOGY",
      "exhibitorUrl": "https://securex.co.za/exhibitor/ciaoda-cloud-technology/",
      "telephone": "+886-2-26962500"
    },
    {
      "name": "Clyronex",
      "exhibitorUrl": "https://securex.co.za/exhibitor/clyronex/",
      "website": "http://www.clyronex.co.za",
      "telephone": "(012) 667-0260",
      "address": {
        "text": "28 Alexandra Road\nDoringkloof\nGauteng\n0157",
        "iso2": "ZA",
        "lat": -25.8620143,
        "lon": 28.2163407
      }
    },
    {
      "name": "Cochrane International",
      "exhibitorUrl": "https://securex.co.za/exhibitor/cochrane-international/",
      "website": "https://www.cochraneglobal.com",
      "telephone": "083 383 1557",
      "address": {
        "text": "125 Fitter Rd,\nSpartan,\nGauteng\n9161",
        "iso2": "ZA",
        "lat": -26.1214309,
        "lon": 28.2143579
      }
    },
    {
      "name": "Condeza",
      "exhibitorUrl": "https://securex.co.za/exhibitor/condeza/",
      "website": "https://condeza.co.za",
      "telephone": "0108240069",
      "address": {
        "text": "Building 5, Unit 6, Riversands Outlet Park, 75 Century Blvd\nKnopjeslaagte\nGauteng",
        "iso2": "ZA",
        "lat": -25.957814,
        "lon": 28.0225664
      }
    },
    {
      "name": "CSIR",
      "exhibitorUrl": "https://securex.co.za/exhibitor/csir/",
      "website": "https://www.csir.co.za",
      "telephone": "072-216-3623"
    },
    {
      "name": "CTK CONTACT ELECTRONICS",
      "exhibitorUrl": "https://securex.co.za/exhibitor/ctk-contact-electronics/",
      "website": "https://www.c-tk.com",
      "telephone": "+886 3-4630873",
      "address": {
        "text": "No. 27, Jilin Rd.,\nZhongli Dist.,\n320679,",
        "iso2": "TW",
        "lat": 24.9803081,
        "lon": 121.2463216
      }
    },
    {
      "name": "Dahua Technology",
      "exhibitorUrl": "https://securex.co.za/exhibitor/dahua-technology/",
      "website": "https://www.dahuasecurity.com/sa",
      "telephone": "078-865-2602",
      "address": {
        "text": "Country Club Estate, 21 Woodlands Drive\nWoodmead\nGauteng\n2157",
        "iso2": "ZA",
        "lat": -26.0579891,
        "lon": 28.0836676
      }
    },
    {
      "name": "DeepAlert",
      "exhibitorUrl": "https://securex.co.za/exhibitor/deepalert/",
      "website": "https://www.deepalert.ai",
      "telephone": "(277) 665-4550",
      "address": {
        "text": "46 Bell Crescent,\nWestlake Business Park,\nWestern Cape\n7945",
        "iso2": "ZA",
        "lat": -34.0773268,
        "lon": 18.4358349
      }
    },
    {
      "name": "Detelec Technologies",
      "exhibitorUrl": "https://securex.co.za/exhibitor/detelec-technologies/",
      "website": "https://detelec.co.za",
      "telephone": "073-048-1641",
      "address": {
        "text": "Unit 12 Washington Business Park, Washington Drive\nHalfway House\nGauteng",
        "iso2": "ZA",
        "lat": -26.007965,
        "lon": 28.1308739
      }
    },
    {
      "name": "Digit FMS",
      "exhibitorUrl": "https://securex.co.za/exhibitor/digit-fms-store/",
      "website": "https://digitfms.co.za",
      "telephone": "082-597-6616",
      "address": {
        "text": "94 North Rd,\nClayville East,\nGauteng\n1666,",
        "iso2": "ZA",
        "lat": -25.9523221,
        "lon": 28.2351078
      }
    },
    {
      "name": "DJI Enterprise",
      "exhibitorUrl": "https://securex.co.za/exhibitor/dji-enterprise/",
      "website": "https://africadroneking.co.za",
      "telephone": "+2711 824 0678",
      "address": {
        "text": "First House, 258 Main Avenue\nFerndale\nGauteng\n2196",
        "iso2": "ZA",
        "lat": -26.09874,
        "lon": 27.99503
      }
    },
    {
      "name": "Doculam",
      "exhibitorUrl": "https://securex.co.za/exhibitor/doculam/",
      "website": "https://www.doculam.co.za",
      "telephone": "(087) 152-3333",
      "address": {
        "text": "140 Umbilo Rd\nKwaZulu-Natal\n4001",
        "iso2": "ZA",
        "lat": -29.8629929,
        "lon": 31.0034247
      }
    },
    {
      "name": "Dragon Protection Services",
      "exhibitorUrl": "https://securex.co.za/exhibitor/dragon-protection-services/",
      "website": "https://dragonprotection.co.za",
      "telephone": "082-930-1884",
      "address": {
        "text": "Suite 301, Bro Hill Building, 76 Mathews Meyiwa Rd,\nGreyville,\nKwaZulu-Natal\n4023",
        "iso2": "ZA",
        "lat": -29.8395544,
        "lon": 31.0208916
      }
    },
    {
      "name": "Easy Storage Technologies Co.,Ltd",
      "exhibitorUrl": "https://securex.co.za/exhibitor/easy-storage-technologies-co-ltd/",
      "website": "https://www.szest.com/en/",
      "telephone": "0086-755-26503433",
      "address": {
        "text": "5/F, South Wing, Building 23#, Road Kezhixi, Science&Technology Industrial Park\nNanshan\n518057",
        "iso2": "CN",
        "lat": 22.5445,
        "lon": 113.94705
      }
    },
    {
      "name": "Edgedock",
      "exhibitorUrl": "https://securex.co.za/exhibitor/edgedock/",
      "website": "https://www.edgedock.co.za",
      "telephone": "060-503-3654",
      "address": {
        "text": "Turnberry Office Park, 48 Grosvenor Rd,\nBryanston,\nGauteng\n2021",
        "iso2": "ZA",
        "lat": -26.0537274,
        "lon": 28.0065319
      }
    },
    {
      "name": "EDP Communications",
      "exhibitorUrl": "https://securex.co.za/exhibitor/edp-communications/",
      "website": "https://www.edp.co.za",
      "telephone": "083-397-9782",
      "address": {
        "text": "20 20th St,\nMenlo Park,\nGauteng\n0081",
        "iso2": "ZA",
        "lat": -25.7748763,
        "lon": 28.2597462
      }
    },
    {
      "name": "Johnson Control and Alarm.com",
      "exhibitorUrl": "https://securex.co.za/exhibitor/elvey-security-technologies/",
      "website": "https://www.johnsoncontrols.com, https://www.alarm.com",
      "telephone": "011 401 6700 / 079 885 7033",
      "address": {
        "text": "27 Greenstone Place\nGreenstone Hill\nGauteng\n1609",
        "iso2": "ZA",
        "lat": -26.1221286,
        "lon": 28.1441477
      }
    },
    {
      "name": "EnZhi HuaDaTong(ShenZhen) Digital Technology Co.,Ltd",
      "exhibitorUrl": "https://securex.co.za/exhibitor/enzhi-huadatongshenzhendigital-technology-co-ltd/",
      "website": "http://www.ezhdt.com",
      "telephone": "(865) 130-1610",
      "address": {
        "text": "6th Floor, No. 4, North District, Snow Technology Park, Jihua Road\nBantian\nShenzhen",
        "iso2": "CN",
        "lat": 22.628106,
        "lon": 114.075175
      }
    },
    {
      "name": "ERM Advanced Telematics",
      "exhibitorUrl": "https://securex.co.za/exhibitor/erm-advanced-telematics/",
      "website": "https://www.ermtelematics.com",
      "telephone": "(050) 818-1184",
      "address": "16 Hasar Shapira St\n75704"
    },
    {
      "name": "Escort Monitoring systems",
      "exhibitorUrl": "https://securex.co.za/exhibitor/escort-monitoring-systems-2/",
      "website": "https://www.fmeter.ru/en/",
      "telephone": "+79658975210",
      "address": {
        "text": "2B k3, Dementieva street,\nKazan,",
        "iso2": "RU",
        "lat": 55.7878944,
        "lon": 49.12332929999999
      }
    },
    {
      "name": "FMETER LLC",
      "exhibitorUrl": "https://securex.co.za/exhibitor/escort-monitoring-systems/",
      "website": "https://www.fmeter.ru/en/",
      "telephone": "+7 916 907 4878"
    },
    {
      "name": "ESDA",
      "exhibitorUrl": "https://securex.co.za/exhibitor/esda/",
      "website": "https://esda.org.za",
      "telephone": "076-142-7271"
    },
    {
      "name": "eufy Security",
      "exhibitorUrl": "https://securex.co.za/exhibitor/eufy-security/",
      "website": "http://www.eufylife.com",
      "telephone": "+27823254282",
      "address": {
        "text": "Premium House, Midstream Office Park, Erasmus Drive\nLouwlardia x10\nGauteng",
        "iso2": "ZA",
        "lat": -25.9065359,
        "lon": 28.1625199
      }
    },
    {
      "name": "Eworks Manager",
      "exhibitorUrl": "https://securex.co.za/exhibitor/eworks-manager/",
      "website": "https://www.eworksmanager.co.za",
      "telephone": "041 004 0045",
      "address": {
        "text": "166 Cape Rd\nMill Park\n6001",
        "iso2": "ZA",
        "lat": -33.95637,
        "lon": 25.5887966
      }
    },
    {
      "name": "Fidelity Services Group",
      "exhibitorUrl": "https://securex.co.za/exhibitor/fidelity-services-group/",
      "website": "http://www.fidelity-services.com",
      "telephone": "0117639000",
      "address": {
        "text": "104C Mimosa St\nGauteng\n1724",
        "iso2": "ZA",
        "lat": -26.1344198,
        "lon": 27.8596324
      }
    },
    {
      "name": "Fluss",
      "exhibitorUrl": "https://securex.co.za/exhibitor/fluss/",
      "website": "https://fluss.io",
      "telephone": "082-925-2720",
      "address": {
        "text": "Killarney\nGauteng",
        "iso2": "ZA",
        "lat": -26.1683874,
        "lon": 28.0522732
      }
    },
    {
      "name": "Formalito & Inyathi Sporting Supplies",
      "exhibitorUrl": "https://securex.co.za/exhibitor/formalito-inyathi-sporting-supplies/",
      "website": "http://formalito.co.za",
      "telephone": "083 468 3385",
      "address": {
        "text": "1019 Pretorius Ave\nLyttelton Manor\nGauteng\n0157",
        "iso2": "ZA",
        "lat": -25.8446067,
        "lon": 28.2084763
      }
    },
    {
      "name": "FUHO TECHNOLOGY",
      "exhibitorUrl": "https://securex.co.za/exhibitor/fuho-technology/",
      "website": "https://www.asmag.com/suppliers/companyinfo.aspx?co=fuho",
      "telephone": "+886 4 751 5575",
      "address": {
        "text": "18 Howard Rd,\n369585",
        "iso2": "SG",
        "lat": 1.3339878,
        "lon": 103.8858538
      }
    },
    {
      "name": "G4S Secure Solutions (SA) (Pty) Ltd",
      "exhibitorUrl": "https://securex.co.za/exhibitor/g4s-secure-solutions-sa-pty-ltd/",
      "website": "http://www.g4s.com",
      "telephone": "082-602-0910",
      "address": {
        "text": "Byls Bridge Office Park, Building 11, Cnr Jean ave & Olievenhoutbosch rd\nGauteng\n0157",
        "iso2": "ZA",
        "lat": -25.864865,
        "lon": 28.2077734
      }
    },
    {
      "name": "Gosafe (Guangzhou) Company Limited",
      "exhibitorUrl": "https://securex.co.za/exhibitor/gosafe/",
      "website": "http://www.gosafesystem.com",
      "telephone": "0086-20-82006896",
      "address": {
        "text": "RM1105, Innovation Building C1, 182 Kexue Ave, Science & Tech City\nGuangzhou\n510663",
        "iso2": "CN",
        "lat": 23.1290799,
        "lon": 113.26436
      }
    },
    {
      "name": "GotYou",
      "exhibitorUrl": "https://securex.co.za/exhibitor/gotyou/",
      "website": "https://gotyou.co.za",
      "telephone": "010 006 2324",
      "address": {
        "text": "Jigsaw Park, 7 Einstein St\nGauteng\n0157",
        "iso2": "ZA",
        "lat": -25.8739016,
        "lon": 28.192028
      }
    },
    {
      "name": "HAB International / Fire and Security",
      "exhibitorUrl": "https://securex.co.za/exhibitor/hab-south-africa/",
      "website": "https://www.hab.co.za",
      "telephone": "+27 (0)72 202 0534",
      "address": {
        "text": "61 Tsessebe Crescent, Corporate Business Park\nRandjiespark\nGauteng",
        "iso2": "ZA",
        "lat": -25.9510313,
        "lon": 28.1398419
      }
    },
    {
      "name": "HangZhou YuShu Technology Co.,Ltd",
      "exhibitorUrl": "https://securex.co.za/exhibitor/hangzhou-yushu-technology-co-ltd/",
      "website": "https://www.unitree.com/en/",
      "telephone": "0086-571-56716562",
      "address": {
        "text": "No.88 DongLiu Road\nBinjiang District\nZhejiang",
        "iso2": "CN",
        "lat": 30.2083999,
        "lon": 120.21201
      }
    },
    {
      "name": "HISSCO International",
      "exhibitorUrl": "https://securex.co.za/exhibitor/hissco-international/",
      "website": "https://www.hisscoint.com",
      "telephone": "(011) 397-1323",
      "address": {
        "text": "635 Sterkfontein Ave\nDoornkloof East\nGauteng\n0153",
        "iso2": "ZA",
        "lat": -25.88995,
        "lon": 28.2559942
      }
    },
    {
      "name": "Provision ISR",
      "exhibitorUrl": "https://securex.co.za/exhibitor/hitek-security-distributors/",
      "telephone": "073-823-1610"
    },
    {
      "name": "Huizhou changfei photoelectricity technology co.,Itd",
      "exhibitorUrl": "https://securex.co.za/exhibitor/huizhou-changfei-photoelectricity-technology-co-itd/",
      "website": "https://www.cffiberlink.com",
      "telephone": "0086-17722517636",
      "address": {
        "text": "Second floor Huasheng Company factory no 26 west, Xinhua Avenue\nZhongkai High-tech Zone Huizhou",
        "iso2": "CN",
        "lat": 23.1125099,
        "lon": 114.41552
      }
    },
    {
      "name": "Hyundai",
      "exhibitorUrl": "https://securex.co.za/exhibitor/hyundai/",
      "website": "https://www.hyundai.co.za",
      "telephone": "060 787 7623"
    },
    {
      "name": "iCAM Video Telematics",
      "exhibitorUrl": "https://securex.co.za/exhibitor/icam-video-telematics/",
      "website": "http://www.icamvideo.co.za",
      "telephone": "076-992-4038",
      "address": {
        "text": "Route 21 Corporate Park, Regency Terrace, 81 Regency Drive\nIrene\nGauteng\n0157",
        "iso2": "ZA",
        "lat": -25.86142,
        "lon": 28.25893
      }
    },
    {
      "name": "Imperial Armour",
      "exhibitorUrl": "https://securex.co.za/exhibitor/imperial-armour/",
      "website": "https://www.imperial-armour.com",
      "telephone": "031-700-2650"
    },
    {
      "name": "Innovatrics",
      "exhibitorUrl": "https://securex.co.za/exhibitor/innovatrics/",
      "website": "https://www.innovatrics.com",
      "telephone": "+421-907964682",
      "address": {
        "text": "Tomášikova 64, 831 04\nBratislava,\nSlovakia",
        "iso2": "SK",
        "lat": 48.1726229,
        "lon": 17.1430962
      }
    },
    {
      "name": "Instacom (Pty) Ltd",
      "exhibitorUrl": "https://securex.co.za/exhibitor/instacom/",
      "website": "https://www.instacom.co.za",
      "telephone": "(010) 157-1410",
      "address": {
        "text": "14 Pieter St, Highveld Techno Park\nCenturion\nGauteng\n0169",
        "iso2": "ZA",
        "lat": -25.870711,
        "lon": 28.188662
      }
    },
    {
      "name": "Intalock Solutions",
      "exhibitorUrl": "https://securex.co.za/exhibitor/intalock-solutions/",
      "website": "https://finance892.wixsite.com/intalock",
      "telephone": "(083) 297-8869",
      "address": {
        "text": "Unit 1 17 Banghoek Crescent, N4 Gateway Industrial Park, The Willows 340-JR\nGauteng\n0184",
        "iso2": "ZA",
        "lat": -25.7560481,
        "lon": 28.3602657
      }
    },
    {
      "name": "Integrated Convoy Protection (Pty) Ltd",
      "exhibitorUrl": "https://securex.co.za/exhibitor/integrated-convoy-protection-reva/",
      "website": "https://revaarmoredvehicles.com",
      "telephone": "012-811-8600",
      "address": {
        "text": "70 Klipkop\nLynnwood Extension\nGauteng",
        "iso2": "ZA",
        "lat": -25.7642508,
        "lon": 28.2672801
      }
    },
    {
      "name": "IoTrack",
      "exhibitorUrl": "https://securex.co.za/exhibitor/iotrack/",
      "website": "https://iotrack.co.za",
      "telephone": "083-287-9218",
      "address": {
        "text": "International Business Gateway Midridge Office Estate South Block C,\nGround Floor Corner New Rd &, Pioneer Ave,\nGauteng\n1685",
        "iso2": "ZA",
        "lat": -25.9787208,
        "lon": 28.1225575
      }
    },
    {
      "name": "iWalkie",
      "exhibitorUrl": "https://securex.co.za/exhibitor/iwalkie/",
      "telephone": "+27 (0)61 015 0000"
    },
    {
      "name": "Pulsar",
      "exhibitorUrl": "https://securex.co.za/exhibitor/jantar-computer-services/",
      "website": "http://www.pulsarsa.co.za",
      "telephone": "082-460-8533",
      "address": {
        "text": "29 Richter Street\nMpumalanga\n2300",
        "iso2": "ZA",
        "lat": -26.4903207,
        "lon": 29.2296039
      }
    },
    {
      "name": "Kaleidoscope Technology",
      "exhibitorUrl": "https://securex.co.za/exhibitor/kaleidoscope-technology/",
      "website": "http://www.kaleidoscopetechnology.co.za",
      "telephone": "082-9502010",
      "address": {
        "text": "Unit 1, Building 8, Tijger Vallei Office Park, cnr Silverlakes Boulevard and Pony street\nHazeldean\nGauteng\n0081",
        "iso2": "ZA",
        "lat": -25.7838439,
        "lon": 28.3616568
      }
    },
    {
      "name": "Kenai Platform",
      "exhibitorUrl": "https://securex.co.za/exhibitor/kenai-platform/",
      "website": "https://www.kenai.co.za",
      "telephone": "082-6148024"
    },
    {
      "name": "Kernel Afrika",
      "exhibitorUrl": "https://securex.co.za/exhibitor/kernel-afrika/",
      "website": "https://kernelafrika.com",
      "telephone": "082-879-6040",
      "address": {
        "text": "3 De La Rey Rd\nRivonia\nGauteng\n2128",
        "iso2": "ZA",
        "lat": -26.0613771,
        "lon": 28.0585653
      }
    },
    {
      "name": "Leppard & Associates",
      "exhibitorUrl": "https://securex.co.za/exhibitor/leppard-associates/",
      "website": "https://leppard.co.za",
      "telephone": "011459 1640",
      "address": {
        "text": "13 Baker Street Corner of Keyes &, Baker St,\nRosebank,\nGauteng\n2193",
        "iso2": "ZA",
        "lat": -26.1483086,
        "lon": 28.0373336
      }
    },
    {
      "name": "Liquid Bullet",
      "exhibitorUrl": "https://securex.co.za/exhibitor/liquid-bullet/",
      "website": "https://www.liquidbullet.net",
      "telephone": "(082) 559-6846",
      "address": {
        "text": "9 Delfos street\nGauteng\n1452",
        "iso2": "ZA",
        "lat": -26.3440007,
        "lon": 28.1259375
      }
    },
    {
      "name": "LJI International",
      "exhibitorUrl": "https://securex.co.za/exhibitor/lji-international/",
      "telephone": "011 326 1450"
    },
    {
      "name": "LUCKWELL",
      "exhibitorUrl": "https://securex.co.za/exhibitor/luckwell/",
      "website": "https://luckwellsolutions.com",
      "telephone": "+886 2 2356 0332",
      "address": {
        "text": "3475 Investment Boulevard Suite 201\nHayward,\n94545",
        "iso2": "US",
        "lat": 37.6257514,
        "lon": -122.1191877
      }
    },
    {
      "name": "Lytehouse (Pty) Ltd",
      "exhibitorUrl": "https://securex.co.za/exhibitor/lytehouse/",
      "website": "http://www.Lytehouse.io",
      "telephone": "(083) 214-5989",
      "address": {
        "text": "Willow Wood Office Park, Cnr 3rd Ave & Cedar Rd\nBroadacres\nGauteng\n2021",
        "iso2": "ZA",
        "lat": -25.9949069,
        "lon": 27.9830184
      }
    },
    {
      "name": "MAMI",
      "exhibitorUrl": "https://securex.co.za/exhibitor/mami/",
      "website": "https://www.mami.co.za",
      "telephone": "076-142-7271",
      "address": {
        "text": "21 Hubert Mathew Road\nIlliondale,\nGauteng\n1609,",
        "iso2": "ZA",
        "lat": -26.1173357,
        "lon": 28.1685056
      }
    },
    {
      "name": "Martin Electronics",
      "exhibitorUrl": "https://securex.co.za/exhibitor/martin-electronics/",
      "website": "http://martin-electronics.co.za",
      "telephone": "011 433 4084"
    },
    {
      "name": "Mechatronics",
      "exhibitorUrl": "https://securex.co.za/exhibitor/mechatronics/",
      "website": "https://eurosenstelematics.com",
      "telephone": "(375) 177-1330",
      "address": {
        "text": "80/3, 1st May\nMinskaja oblast\n222417",
        "iso2": "BY",
        "lat": 54.10678890000001,
        "lon": 27.4129245
      }
    },
    {
      "name": "Microsound System",
      "exhibitorUrl": "https://securex.co.za/exhibitor/microsound-system/",
      "website": "http://www.microsound.co.za",
      "telephone": "079 743 3420",
      "address": {
        "text": "55 Booysens Reserve Rd\nOrmonde 99-Ir\nGauteng\n2091",
        "iso2": "ZA",
        "lat": -26.2300165,
        "lon": 28.0209369
      }
    },
    {
      "name": "Mielta Technology",
      "exhibitorUrl": "https://securex.co.za/exhibitor/mielta-technology/",
      "website": "https://mieltatech.com/en/",
      "telephone": "+79622336383",
      "address": [
        {
          "text": "392000,\nTambov,\n2L",
          "iso2": "RU",
          "lat": 52.7244173,
          "lon": 41.4632379
        },
        {
          "text": "Urozhaynaya,",
          "iso2": "KZ",
          "lat": 51.2629168,
          "lon": 51.2862368
        }
      ]
    },
    {
      "name": "Mint Solutions",
      "exhibitorUrl": "https://securex.co.za/exhibitor/mint-solutions/",
      "website": "https://www.mintsolutions.co.za",
      "telephone": "083-383-0938",
      "address": {
        "text": "15 Forest Rd,\nBramley,\nGauteng\n2090",
        "iso2": "ZA",
        "lat": -26.1268766,
        "lon": 28.0731312
      }
    },
    {
      "name": "My Mobile ZA",
      "exhibitorUrl": "https://securex.co.za/exhibitor/my-mobile-za/",
      "telephone": "082-212-7981",
      "address": {
        "text": "1016 Roos Street, Fourways Golf Park, Selbourne Building\nGauteng\n2191",
        "iso2": "ZA",
        "lat": -26.0147698,
        "lon": 28.002513
      }
    },
    {
      "name": "NBCPPS",
      "exhibitorUrl": "https://securex.co.za/exhibitor/nbcpps/",
      "website": "https://nbcpss.org.za",
      "telephone": "084-717-3038",
      "address": {
        "text": "Block J, 400 16th Rd,\nRandjespark,\nGauteng\n1685",
        "iso2": "ZA",
        "lat": -25.9796294,
        "lon": 28.1321189
      }
    },
    {
      "name": "Ndende Technologies",
      "exhibitorUrl": "https://securex.co.za/exhibitor/ndende-technologies/",
      "website": "https://www.ndende.co.za",
      "telephone": "073-198-7262"
    },
    {
      "name": "neaMetrics",
      "exhibitorUrl": "https://securex.co.za/exhibitor/neametrics-suprema/",
      "website": "http://www.neametrics.africa",
      "telephone": "+27 11 784 3952",
      "address": {
        "text": "108 11th Street\nParkmore\nGauteng\n2196",
        "iso2": "ZA",
        "lat": -26.0975994,
        "lon": 28.0433036
      }
    },
    {
      "name": "Nemtek",
      "exhibitorUrl": "https://securex.co.za/exhibitor/nemtek/",
      "website": "https://nemtek.co.za",
      "telephone": "082 441 1037"
    },
    {
      "name": "NEOMATICA",
      "exhibitorUrl": "https://securex.co.za/exhibitor/neomatica/",
      "website": "http://www.neomatica.com",
      "telephone": "(965) 560-9000"
    },
    {
      "name": "New Teltron",
      "exhibitorUrl": "https://securex.co.za/exhibitor/new-teltron/",
      "website": "https://newteltron.co.za",
      "telephone": "+27 (0)82 559 6190"
    },
    {
      "name": "Olarm",
      "exhibitorUrl": "https://securex.co.za/exhibitor/olarm/",
      "website": "https://olarm.com",
      "telephone": "021 009 0911",
      "address": {
        "text": "3rd Floor, Pam Golding on Main, 325 Main Rd\nKenilworth\nWestern Cape\n7708",
        "iso2": "ZA",
        "lat": -33.9959838,
        "lon": 18.4690345
      }
    },
    {
      "name": "Omnicomm",
      "exhibitorUrl": "https://securex.co.za/exhibitor/omnicomm/",
      "website": "https://www.omnicomm-world.com",
      "telephone": "+7916 509 8704",
      "country": "EU",
      "address": "A-A. Tiimanni 1"
    },
    {
      "name": "OPTEX",
      "exhibitorUrl": "https://securex.co.za/exhibitor/optex/",
      "website": "https://www.optex-europe.com",
      "telephone": "+44 7967638559",
      "address": {
        "text": "The Chambers, Bishops Court, Corner Old Main Road and Warrior Road\nKwa-Zulu Natal,\n3610",
        "iso2": "ZA",
        "lat": -29.7854705,
        "lon": 30.7673682
      }
    },
    {
      "name": "ORing Industrial Networking Africa",
      "exhibitorUrl": "https://securex.co.za/exhibitor/oring-industrial-networking-africa/",
      "website": "https://oringnet.com/en-global",
      "telephone": "012 661 3360"
    },
    {
      "name": "Orion Audio Visual (Pty) Ltd",
      "exhibitorUrl": "https://securex.co.za/exhibitor/orion-audio-visual-pty-ltd/",
      "website": "https://www.orionav.co.za",
      "telephone": "011 314 0040",
      "address": {
        "text": "Unit 10, Alphen Square North, Corner 16th Road & George Road\nRandjespark\nGauteng\n1685",
        "iso2": "ZA",
        "lat": -25.9451714,
        "lon": 28.1399066
      }
    },
    {
      "name": "OUKITEL SOUTH AFRICA",
      "exhibitorUrl": "https://securex.co.za/exhibitor/oukitel-south-africa/",
      "website": "http://www.oukitel.co.za",
      "telephone": "064 758 8634"
    },
    {
      "name": "Phendula Technologies",
      "exhibitorUrl": "https://securex.co.za/exhibitor/phendula-technologies/",
      "website": "https://www.phendulatech.co.za",
      "telephone": "0861 342 737",
      "address": {
        "text": "7 Berkley office park, 8 Bauhinia St,\nHighveld Techno Park,\nGauteng\n0157",
        "iso2": "ZA",
        "lat": -25.876842,
        "lon": 28.1808798
      }
    },
    {
      "name": "Pilot IOT Solutions & Polyservice Security Sensors",
      "exhibitorUrl": "https://securex.co.za/exhibitor/pilot-iot-solutions-polyservice-security-sensors/",
      "telephone": "+971562044824"
    },
    {
      "name": "Plustek Inc",
      "exhibitorUrl": "https://securex.co.za/exhibitor/plustek-inc/",
      "website": "https://plustek.com/us/",
      "telephone": "+886 2 2655 7866",
      "address": {
        "text": "9830 Norwalk Blvd #155\nSanta Fe Springs,\nCalifornia\n90670",
        "iso2": "US",
        "lat": 33.948432,
        "lon": -118.0711538
      }
    },
    {
      "name": "Printers for Africa",
      "exhibitorUrl": "https://securex.co.za/exhibitor/printers-for-africa/",
      "website": "http://www.printersforafrica.co.za",
      "telephone": "0827831260",
      "address": {
        "text": "68 Watt Street\nMeadowdale\nGauteng\n1614",
        "iso2": "ZA",
        "lat": -26.1471792,
        "lon": 28.1864781
      }
    },
    {
      "name": "Private Security Industry Regulatory Authority (PSIRA)",
      "exhibitorUrl": "https://securex.co.za/exhibitor/private-security-industry-regulatory-authority/",
      "website": "https://www.psira.co.za",
      "telephone": "012 003 0674",
      "address": {
        "text": "Eco Glades 2 Office Park, Block B, 420 Witch-Hazel Avenue\nHighveld Ext 70\nGauteng\n0157",
        "iso2": "ZA",
        "lat": -25.8881313,
        "lon": 28.1688598
      }
    },
    {
      "name": "Profile Corporate Services",
      "exhibitorUrl": "https://securex.co.za/exhibitor/profile-corporate-services/",
      "website": "https://www.profilecs.co.za",
      "telephone": "(011) 447-9620",
      "address": {
        "text": "127B Dunmaglass road\nGlenferness\nGauteng\n2191",
        "iso2": "ZA",
        "lat": -25.9922499,
        "lon": 28.0469388
      }
    },
    {
      "name": "Progoup",
      "exhibitorUrl": "https://securex.co.za/exhibitor/progoup/",
      "website": "http://progroup.co.za",
      "telephone": "073-146-5027",
      "country": {
        "text": "South Africa",
        "iso2": "ZA"
      },
      "address": {
        "text": "Unit 4 Selby Warehouse Complex, Krag Street\nSelby Ext.\nGauteng",
        "iso2": "GB",
        "lat": 53.78352400000001,
        "lon": -1.067189
      }
    },
    {
      "name": "PRP Solutions",
      "exhibitorUrl": "https://securex.co.za/exhibitor/prp-solutions/",
      "website": "http://www.prpsolutions.com",
      "telephone": "082-888-0120",
      "address": {
        "text": "260 Surrey Avenue\nFerndale\nGauteng\n2194",
        "iso2": "ZA",
        "lat": -26.0987629,
        "lon": 27.9973187
      }
    },
    {
      "name": "Qolsys by JCI",
      "exhibitorUrl": "https://securex.co.za/exhibitor/qolsys-by-jci/",
      "website": "https://qolsys.com",
      "telephone": "079 8857033",
      "address": {
        "text": "1919 Bascom Ave 6th Floor Campbell,\nCA (855)\nUnited States",
        "iso2": "US",
        "lat": 37.2882247,
        "lon": -121.9358006
      }
    },
    {
      "name": "Quatro Integrated Services",
      "exhibitorUrl": "https://securex.co.za/exhibitor/quatro-integrated-services/",
      "website": "https://quatro.co.za",
      "telephone": "083 288 9495",
      "address": {
        "text": "Libertas Office Park, Block E, Cnr The Highway & Libertas Roads\nEquestria\nGauteng",
        "iso2": "ZA",
        "lat": -26.0387498,
        "lon": 28.0273683
      }
    },
    {
      "name": "Radio Data Communications",
      "exhibitorUrl": "https://securex.co.za/exhibitor/radio-data-communications/",
      "website": "https://www.radiodata.co.za",
      "telephone": "061-135-9056",
      "address": {
        "text": "157 Van Riebeeck Ave,\nEdenvale,\nGauteng\n1609",
        "iso2": "ZA",
        "lat": -26.1291128,
        "lon": 28.1465772
      }
    },
    {
      "name": "Recon Powerbikes Africa",
      "exhibitorUrl": "https://securex.co.za/exhibitor/recon-powerbikes-africa/",
      "website": "https://reconpowerbikesafrica.co.za",
      "telephone": "084 659 8996",
      "address": {
        "text": "15 Van Der Byl St,\nGraaff-Reinet,\nEastern Cape\n6280",
        "iso2": "ZA",
        "lat": -32.2626526,
        "lon": 24.5470018
      }
    },
    {
      "name": "Red Alert",
      "exhibitorUrl": "https://securex.co.za/exhibitor/red-alert/",
      "website": "https://redalert.co.za",
      "telephone": "064-870-7180",
      "address": {
        "text": "148 Johannesburg Road,\nLyndhurst,\nGauteng\n2192",
        "iso2": "ZA",
        "lat": -26.1269494,
        "lon": 28.1060953
      }
    },
    {
      "name": "Ring",
      "exhibitorUrl": "https://securex.co.za/exhibitor/ring/",
      "website": "http://www.ring.com",
      "telephone": "082-561-0812",
      "address": {
        "text": "1523 26th St\nSanta Monica\nCA\n90404",
        "iso2": "US",
        "lat": 34.0316942,
        "lon": -118.4717747
      }
    },
    {
      "name": "RJ Connect",
      "exhibitorUrl": "https://securex.co.za/exhibitor/rj-connect/",
      "website": "https://www.rjconnect.co.za",
      "telephone": "+27 (0)11 781 0777"
    },
    {
      "name": "RTS Trust",
      "exhibitorUrl": "https://securex.co.za/exhibitor/rts-trust/",
      "website": "https://www.repeater.co.za",
      "telephone": "061 015 0000",
      "address": {
        "text": "34 Van Riebeeck street\nFree State\n9600",
        "iso2": "ZA",
        "lat": -29.2178293,
        "lon": 26.8469033
      }
    },
    {
      "name": "SAMM Teknoloji",
      "exhibitorUrl": "https://securex.co.za/exhibitor/samm-teknoloji/",
      "website": "https://www.samm.com/en/",
      "telephone": "+905323653483"
    },
    {
      "name": "Script Technologies",
      "exhibitorUrl": "https://securex.co.za/exhibitor/script-technologies/",
      "website": "http://www.scriptholdings.com",
      "telephone": "082 871 8809"
    },
    {
      "name": "Securadoor",
      "exhibitorUrl": "https://securex.co.za/exhibitor/securadoor/",
      "website": "https://securadoor.co.za",
      "telephone": "0861 111 987",
      "address": {
        "text": "761 Tortoise Street\nGauteng\n1709",
        "iso2": "ZA",
        "lat": -26.1451409,
        "lon": 27.9261356
      }
    },
    {
      "name": "Security Association of South Africa (SASA)",
      "exhibitorUrl": "https://securex.co.za/exhibitor/security-association-of-south-africa-sasa/",
      "website": "https://www.sasecurity.co.za",
      "telephone": "083-272-1373",
      "address": {
        "text": "Suite 4, Blake Bester Building, 18 Mimosa Street (cnr C R Swart Road)\nWilro Park\nGauteng",
        "iso2": "ZA",
        "lat": -26.1246805,
        "lon": 27.8463472
      }
    },
    {
      "name": "Secury360",
      "exhibitorUrl": "https://securex.co.za/exhibitor/secury360/",
      "website": "http://www.secury-360.com",
      "telephone": "(047) 317-6499",
      "address": {
        "text": "Industrieweg-zuid 1320\nLimburg\n3520",
        "iso2": "BE",
        "lat": 51.0001752,
        "lon": 5.3861853
      }
    },
    {
      "name": "SEON Group",
      "exhibitorUrl": "https://securex.co.za/exhibitor/seon-group/",
      "website": "https://www.seon.group",
      "telephone": "+49-1734010080"
    },
    {
      "name": "ServCraft",
      "exhibitorUrl": "https://securex.co.za/exhibitor/servcraft/",
      "website": "https://www.servcraft.co.za",
      "telephone": "+27878131137"
    },
    {
      "name": "Shentek",
      "exhibitorUrl": "https://securex.co.za/exhibitor/shentek/",
      "website": "https://shentek.com",
      "telephone": "+886 2 8973 5011",
      "address": {
        "text": "2F., No.93, Sec. 2, Zhonghua Rd., S\ninjhuang District,\n242",
        "iso2": "TW",
        "lat": 25.0495565,
        "lon": 121.4525626
      }
    },
    {
      "name": "Shenzhen Atelematics Technology Co Ltd.",
      "exhibitorUrl": "https://securex.co.za/exhibitor/shenzhen-atelematics-technology-co-ltd/",
      "website": "http://www.atelematics.net",
      "telephone": "0086-755-23011070",
      "address": {
        "text": "R709，Block 3, Wanting Building, No.2009 Baoyuan Road\nBao An District",
        "iso2": "CN",
        "lat": 22.55836,
        "lon": 113.87691
      }
    },
    {
      "name": "ShenZhen Intermed Co.,LTD",
      "exhibitorUrl": "https://securex.co.za/exhibitor/shenzhen-intermed-co-ltd/",
      "website": "http://www.int-med.com",
      "telephone": "0086-755-86372570",
      "country": {
        "text": "China",
        "iso2": "CN"
      },
      "address": {
        "text": "5/F,Building 17, Majialong Industry Zone, No.29, Hongbu Road, Nantou Street\n518054",
        "iso2": "TW",
        "lat": 23.9609981,
        "lon": 120.9718638
      }
    },
    {
      "name": "Shenzhen iStartek Technology Co., Ltd.",
      "exhibitorUrl": "https://securex.co.za/exhibitor/shenzhen-istartek-technology-co-ltd/",
      "website": "https://www.istartek.com",
      "telephone": "0086-755-85241929",
      "address": {
        "text": "Zone B, 4/F, Building A6, Qinghu Dongli Industrial Park, No. 416 Xuegang North Road\nLonghua District\n518109",
        "iso2": "CN",
        "lat": 22.66788,
        "lon": 114.05411
      }
    },
    {
      "name": "ShenZhen JideTech Development Co., Ltd",
      "exhibitorUrl": "https://securex.co.za/exhibitor/shenzhen-jidetech-development-co-ltd/",
      "website": "http://www.jidetech.com",
      "telephone": "0086-755-21059849",
      "address": {
        "text": "4F, Building 1, Peace Industrial Park, Shitouling,LongHua Street\nLonghua District\n518027",
        "iso2": "CN",
        "lat": 22.7529899,
        "lon": 114.03601
      }
    },
    {
      "name": "Shenzhen Jimi IOT Co., Ltd",
      "exhibitorUrl": "https://securex.co.za/exhibitor/shenzhen-jimi-iot-co-ltd-jimi-iot/",
      "website": "http://www.jimilab.com",
      "telephone": "0086-18665805469",
      "address": {
        "text": "3-4/f, Block A, Building #7, Shenzhen International\nNanshan District",
        "iso2": "CN",
        "lat": 22.5333199,
        "lon": 113.93041
      }
    },
    {
      "name": "Shenzhen Newbridge Communication Equipment CO.,LTD.",
      "exhibitorUrl": "https://securex.co.za/exhibitor/shenzhen-newbridge-communication-equipment-co-ltd/",
      "website": "http://www.newbridge.com.cn",
      "telephone": "0086-755-85292270",
      "address": {
        "text": "4A B Building Zhuao Industrial Park\nGushu Xixiang\nShenzhen",
        "iso2": "CN",
        "lat": 22.58035,
        "lon": 113.88359
      }
    },
    {
      "name": "ShenZhen Phonemax Technology Co., Ltd",
      "exhibitorUrl": "https://securex.co.za/exhibitor/shenzhen-phonemax-technology-co-ltd/",
      "website": "http://www.phonemax.cc",
      "telephone": "0086-755-83579180",
      "address": {
        "text": "5F, East Block, Laobing Building, Xingye Road\nXixiang\nBao'an District",
        "iso2": "CN",
        "lat": 22.5532899,
        "lon": 113.88308
      }
    },
    {
      "name": "Shenzhen RECODA Technology LTD",
      "exhibitorUrl": "https://securex.co.za/exhibitor/shenzhen-recoda-technology-ltd/",
      "website": "http://www.recoda.com.cn",
      "telephone": "0086-755-27844949",
      "address": {
        "text": "3F, Sixth Plant, Tangzhong Industrial Park, Hengnan Road\nGushu, Xixiang Town, Baoan District\nGuangdong",
        "iso2": "CN",
        "lat": 22.60413,
        "lon": 113.85764
      }
    },
    {
      "name": "ShenZhen Sectec Co.,Ltd",
      "exhibitorUrl": "https://securex.co.za/exhibitor/shenzhen-sectec-co-ltd/",
      "website": "https://www.sectec.com.cn",
      "telephone": "0086-13480924173",
      "address": {
        "text": "4F, 6 Building,Jianghao Industrial Park\nBantian",
        "iso2": "CN",
        "lat": 22.628106,
        "lon": 114.075175
      }
    },
    {
      "name": "Shenzhen Tenda Technology Co, Ltd",
      "exhibitorUrl": "https://securex.co.za/exhibitor/shenzhen-tenda-technology-co-ltd/",
      "website": "http://www.tendacn.com",
      "telephone": "+27 076 125 4665",
      "address": {
        "text": "Tenda Technology Tower ,#1001 Int' l E-City Zhongshanyuan Road\nNanshan District\n518052",
        "iso2": "CN",
        "lat": 22.56704,
        "lon": 113.92465
      }
    },
    {
      "name": "Shenzhen Think Power Technology Co., Ltd",
      "exhibitorUrl": "https://securex.co.za/exhibitor/shenzhen-think-power-technology-co-ltd/",
      "website": "http://www.cnthinkpower.com",
      "telephone": "0086-755-86719689",
      "address": {
        "text": "#1215 Block B, Dualshine Global science innovation center, Honglang North Second Road\nBaoan District\nGD Province",
        "iso2": "CN",
        "lat": 22.5532899,
        "lon": 113.88308
      }
    },
    {
      "name": "Shenzhen TOPFLYtech",
      "exhibitorUrl": "https://securex.co.za/exhibitor/shenzhen-topflytech/",
      "website": "https://www.topflytech.com/en/",
      "telephone": "0086-755-26060058",
      "address": {
        "text": "4th-5th floor, Scientific Research Building, Tsinghua Info Hub,\nNanshan Hi-Tech Park,\nGuangdong,",
        "iso2": "CN",
        "lat": 22.55414,
        "lon": 113.94675
      }
    },
    {
      "name": "Shenzhen TVT Digital Technology Co., Ltd.",
      "exhibitorUrl": "https://securex.co.za/exhibitor/shenzhen-tvt-digital-technology-co-ltd/",
      "website": "http://en.tvt.net.cn",
      "telephone": "0086-755-36995888",
      "address": {
        "text": "23rd Floor Building B4 Block 9, Shenzhen Bay science and technology ecological garden\nNanshan District",
        "iso2": "CN",
        "lat": 22.5333199,
        "lon": 113.93041
      }
    },
    {
      "name": "Shenzhen Ultravision Technology Co Ltd",
      "exhibitorUrl": "https://securex.co.za/exhibitor/shenzhen-ultravision-technology-co-ltd/",
      "website": "https://www.ulvisions.com.cn",
      "telephone": "0086-13554750080",
      "address": {
        "text": "3rd Floor, Building 5, Ji'antai Industrial Park, XinheErcun\nFuyong\nShenzhen",
        "iso2": "CN",
        "lat": 22.67147,
        "lon": 113.8227
      }
    },
    {
      "name": "PILOT Telematics",
      "exhibitorUrl": "https://securex.co.za/exhibitor/sky-electronics/",
      "telephone": "+971562044824"
    },
    {
      "name": "Skyco Media Solutions",
      "exhibitorUrl": "https://securex.co.za/exhibitor/skyco-media-solutions/",
      "telephone": "+27 (0)11 026 7018"
    },
    {
      "name": "Smart security industry association of Shenzhen",
      "exhibitorUrl": "https://securex.co.za/exhibitor/smart-security-industry-association-of-shenzhen/",
      "telephone": "0086-755-82583671",
      "address": {
        "text": "3rd Floor, West Block, Xinruike Science and Technology Building, 32 Taohua Road\nShenzhen",
        "iso2": "CN",
        "lat": 22.5053108,
        "lon": 114.0423663
      }
    },
    {
      "name": "Smart Security Solutions",
      "exhibitorUrl": "https://securex.co.za/exhibitor/smart-security-solutions/",
      "telephone": "082-331-2440"
    },
    {
      "name": "Spiderweb Labs",
      "exhibitorUrl": "https://securex.co.za/exhibitor/spiderweb-labs/",
      "telephone": "0836655656",
      "address": {
        "text": "18 Cactus Road\nFairview\nEastern Cape",
        "iso2": "ZA",
        "lat": -33.9660194,
        "lon": 25.5279242
      }
    },
    {
      "name": "SPOTBOT – Intruder Detection",
      "exhibitorUrl": "https://securex.co.za/exhibitor/spotbot-intruder-detection/",
      "website": "https://www.spotbot.co.za",
      "telephone": "086 0017 443"
    },
    {
      "name": "STAB-A-LOAD",
      "exhibitorUrl": "https://securex.co.za/exhibitor/stab-a-load/",
      "website": "https://www.stabaload.co.za",
      "telephone": "(011) 900-3909",
      "address": {
        "text": "13 Statler Street\nAlrode South\nGauteng\n1448",
        "iso2": "ZA",
        "lat": -26.3447811,
        "lon": 28.1209209
      }
    },
    {
      "name": "Stafix Security Centres",
      "exhibitorUrl": "https://securex.co.za/exhibitor/stafix-security-centres/",
      "website": "http://stafix.co.za",
      "telephone": "072-347-6236",
      "address": {
        "text": "219 Jetpark Road Areostar Business Park\nJetpark\nGauteng",
        "iso2": "ZA",
        "lat": -26.1783675,
        "lon": 28.212631
      }
    },
    {
      "name": "Stallion Security",
      "exhibitorUrl": "https://securex.co.za/exhibitor/stallion-security/",
      "website": "https://stallion.co.za",
      "telephone": "082 485 8155"
    },
    {
      "name": "Suprema",
      "exhibitorUrl": "https://securex.co.za/exhibitor/suprema/",
      "website": "http://www.suprema.co.za",
      "telephone": "+27 11 784 3952",
      "address": {
        "text": "108 11th Street\nParkmore\nGauteng\n2196",
        "iso2": "ZA",
        "lat": -26.0975994,
        "lon": 28.0433036
      }
    },
    {
      "name": "SVI Engineering",
      "exhibitorUrl": "https://securex.co.za/exhibitor/svi-engineering/",
      "website": "https://svi.co.za",
      "telephone": "066-301-5268",
      "address": {
        "text": "174 Bashewa, Off Garsfontein Drive\nBashewa\nGauteng\n0056",
        "iso2": "ZA",
        "lat": -25.9184701,
        "lon": 28.4187729
      }
    },
    {
      "name": "TAIWAN EXTERNAL TRADE DEVELOPMENT COUNCIL",
      "exhibitorUrl": "https://securex.co.za/exhibitor/taiwan-external-trade-development-council/",
      "website": "https://www.taitra.org.tw/en/",
      "telephone": "+886 2 2725 5200"
    },
    {
      "name": "Taiwan Trade Center Johannesburg",
      "exhibitorUrl": "https://securex.co.za/exhibitor/taiwan-trade-center-johannesburg/",
      "website": "https://joburg.taiwantrade.com",
      "telephone": "011-268-2005",
      "address": {
        "text": "Ground Floor ,5 Cradock Avenue\nRosebank\nGauteng\n2196",
        "iso2": "ZA",
        "lat": -26.1489489,
        "lon": 28.0426493
      }
    },
    {
      "name": "TANDM",
      "exhibitorUrl": "https://securex.co.za/exhibitor/tandm/",
      "website": "https://tandm.co.za",
      "telephone": "083-300-5847",
      "address": {
        "text": "342 The Rand Street\nLynnwood\nGauteng\n0081",
        "iso2": "ZA",
        "lat": -25.7636892,
        "lon": 28.2624672
      }
    },
    {
      "name": "TASSTA & ESPER",
      "exhibitorUrl": "https://securex.co.za/exhibitor/tassta-esper/",
      "website": "https://tassta.com",
      "telephone": "072-149-3559",
      "address": {
        "text": "3 Ilala Palm Street\nRandpark Ridge\nGauteng\n2188",
        "iso2": "ZA",
        "lat": -26.0904204,
        "lon": 27.9334379
      }
    },
    {
      "name": "TECH4IR",
      "exhibitorUrl": "https://securex.co.za/exhibitor/tech4ir/",
      "website": "https://tech4ir.co.za",
      "telephone": "+27 10-300-8524",
      "address": {
        "text": "The Station, Parade on Kloof Office Park, 1 Parade Street\nGauteng\n2007",
        "iso2": "ZA",
        "lat": -26.1863679,
        "lon": 28.130944
      }
    },
    {
      "name": "The South African Intruder Detection Services Association (SAIDSA)",
      "exhibitorUrl": "https://securex.co.za/exhibitor/the-south-african-intruder-detection-services-association-saidsa/",
      "website": "http://www.saidsa.co.za",
      "telephone": "082 826 1548",
      "address": {
        "text": "3rd Floor Senet House, 157 Van Riebeeck Avenue\nGauteng",
        "iso2": "ZA",
        "lat": -26.1293013,
        "lon": 28.146747
      }
    },
    {
      "name": "ThisTree",
      "exhibitorUrl": "https://securex.co.za/exhibitor/thistree/",
      "website": "https://thistree.co.za",
      "telephone": "071-614-8320",
      "address": {
        "text": "Block 4, Kudu Street\nAllen's Nek\nGauteng",
        "iso2": "ZA",
        "lat": -26.1299552,
        "lon": 27.907819
      }
    },
    {
      "name": "Thorburn Security Solutions",
      "exhibitorUrl": "https://securex.co.za/exhibitor/thorburn-security-solutions/",
      "website": "https://www.thorburn.co.za",
      "telephone": "071-180-1616",
      "address": {
        "text": "4 Challenger Avenue International Business Gateway, New Road\nGauteng\n1685",
        "iso2": "ZA",
        "lat": -26.2707593,
        "lon": 28.1122679
      }
    },
    {
      "name": "Titan Aviation group",
      "exhibitorUrl": "https://securex.co.za/exhibitor/titan-aviation-group/",
      "website": "https://www.titanaviation.aero",
      "telephone": "082-958-4607"
    },
    {
      "name": "TOP CCTV",
      "exhibitorUrl": "https://securex.co.za/exhibitor/top-cctv/",
      "website": "http://www.topcctv.co.za",
      "telephone": "+27 (0)21 852 6680"
    },
    {
      "name": "TP-Link Technologies South Africa",
      "exhibitorUrl": "https://securex.co.za/exhibitor/tp-link-technologies-south-africa/",
      "website": "https://www.tp-link.com/za/",
      "telephone": "010 590 6147",
      "address": {
        "text": "Unit No. 8, Stanford Business Park, 817 16th Road\nRandjespark\nGauteng",
        "iso2": "ZA",
        "lat": -25.966855,
        "lon": 28.134444
      }
    },
    {
      "name": "Trackforce Valiant + TrackTik",
      "exhibitorUrl": "https://securex.co.za/exhibitor/trackforce/",
      "website": "https://www.trackforcevaliant.com",
      "telephone": "+27 61 472 4641",
      "address": {
        "text": "Trackforce Valaint, No. 18 Unit 1 Pendoring Office Park, 299 Pendoring Road\nBlackheath\nGauteng",
        "iso2": "ZA",
        "lat": -26.13043,
        "lon": 27.96817
      }
    },
    {
      "name": "Transaction Control Technologies",
      "exhibitorUrl": "https://securex.co.za/exhibitor/transaction-control-technologies/",
      "website": "https://tct.co.za",
      "telephone": "+27 (0)11 888 1210"
    },
    {
      "name": "Turnstar Systems",
      "exhibitorUrl": "https://securex.co.za/exhibitor/turnstar-systems/",
      "website": "https://www.turnstar.co.za",
      "telephone": "(082) 298-2821",
      "address": {
        "text": "17 5th Street\nWynberg\nGauteng",
        "iso2": "ZA",
        "lat": -26.1113904,
        "lon": 28.0810849
      }
    },
    {
      "name": "Uffizio",
      "exhibitorUrl": "https://securex.co.za/exhibitor/uffizio/",
      "website": "https://www.uffizio.com",
      "telephone": "(728) 585-5104",
      "address": {
        "text": "4th Floor, Metropolis Opp S.T Workshop, Abrama-Dharampur Rd\nGujarat\n396001",
        "iso2": "IN",
        "lat": 20.5930993,
        "lon": 72.9423322
      }
    },
    {
      "name": "Unisa",
      "exhibitorUrl": "https://securex.co.za/exhibitor/unisa/",
      "website": "https://www.unisa.ac.za",
      "telephone": "060-374-9607"
    },
    {
      "name": "Viper",
      "exhibitorUrl": "https://securex.co.za/exhibitor/viper/",
      "telephone": "074-744-4072"
    },
    {
      "name": "VOLTRONIC POWER TECHNOLOGY",
      "exhibitorUrl": "https://securex.co.za/exhibitor/voltronic-power-technology/",
      "website": "https://voltronicpower.com/en-US/",
      "telephone": "+886 2 2791 8296"
    },
    {
      "name": "Watcher Surveillance Solutions",
      "exhibitorUrl": "https://securex.co.za/exhibitor/watcher-surveillance-solutions/",
      "website": "https://www.watcher.co.za",
      "telephone": "(012) 006-1047",
      "address": {
        "text": "4 Einstein Road\nHighveld Techno Park\nGauteng\n0169",
        "iso2": "ZA",
        "lat": -25.8732484,
        "lon": 28.1906658
      }
    },
    {
      "name": "Wes Worldwide Expo Services (Shenzhen) Ltd",
      "exhibitorUrl": "https://securex.co.za/exhibitor/wes-worldwide-expo-services-shenzen-ltd/",
      "telephone": "+008675526528480"
    },
    {
      "name": "Wialon",
      "exhibitorUrl": "https://securex.co.za/exhibitor/wialon/",
      "telephone": "+886 2 7701 5899"
    },
    {
      "name": "Wire Ventures",
      "exhibitorUrl": "https://securex.co.za/exhibitor/wire-ventures/",
      "website": "http://www.fencing-supplier.com",
      "telephone": "011 437 8903"
    },
    {
      "name": "WIREFORCE",
      "exhibitorUrl": "https://securex.co.za/exhibitor/wireforce/",
      "website": "https://www.wireforce.co.za",
      "telephone": "+27 (0)72 907 0354"
    },
    {
      "name": "XSCANN Technologies",
      "exhibitorUrl": "https://securex.co.za/exhibitor/xscann-technologies/",
      "website": "http://www.xscann.com",
      "telephone": "(011) 608-1504",
      "address": {
        "text": "6 Guernsey Drive, Longmeadow East Business Park\nGauteng\n1610",
        "iso2": "ZA",
        "lat": -26.1137929,
        "lon": 28.1382119
      }
    },
    {
      "name": "XUZHOU DRAGON GUARD INDUSTRIAL",
      "exhibitorUrl": "https://securex.co.za/exhibitor/xuzhou-dragon-guard-industrial/",
      "website": "https://dragon-guard.com",
      "telephone": "0086-516-61886636",
      "address": {
        "text": "5545+RCQ, Qianjiang Rd,\nTongshan District, Xuzhou,\n221112",
        "iso2": "CN",
        "lat": 34.15797,
        "lon": 117.16201
      }
    },
    {
      "name": "Youuxi Digital",
      "exhibitorUrl": "https://securex.co.za/exhibitor/youuxi-digital/",
      "website": "https://youuxi.com",
      "telephone": "+886-932-832330",
      "address": {
        "text": "1800 Abbot Kinney Blvd.\nUnit D & E\nVenice",
        "iso2": "US",
        "lat": 33.9883267,
        "lon": -118.4605064
      }
    },
    {
      "name": "Zhongshan Elock Security Technology Co.,Ltd",
      "exhibitorUrl": "https://securex.co.za/exhibitor/zhongshan-elock-security-technology-co-ltd/",
      "website": "http://www.elocksecurity.com",
      "telephone": "0086-760-22821500",
      "address": {
        "text": "No. 25 Silong East Street,Dongsheng East Road\nDongsheng\nGuangdong",
        "iso2": "CN",
        "lat": 22.69274,
        "lon": 113.21892
      }
    },
    {
      "name": "ZKTeco South Africa",
      "exhibitorUrl": "https://securex.co.za/exhibitor/zkteco-south-africa/",
      "website": "https://zkteco.co.za",
      "telephone": "082 612 4681",
      "address": {
        "text": "Witch-Hazel Ave,\nEco-Park Estate,\nGauteng\n0144",
        "iso2": "ZA",
        "lat": -25.8780048,
        "lon": 28.176252
      }
    },
    {
      "name": "ZYTEQ Fire",
      "exhibitorUrl": "https://securex.co.za/exhibitor/zyteq-fire/",
      "website": "http://www.zyteqfire.com",
      "telephone": "(021) 761-3980",
      "address": {
        "text": "Mercury Crescent\nWetton\nWestern Cape\n7780",
        "iso2": "ZA",
        "lat": -34.00588,
        "lon": 18.503704
      }
    }
  ]
}
