{
  "name": "SOBRA 2023",
  "series": "SOBRA",
  "alias": "9th International Fair of Defence, Security, Protection and Rescue",
  "edition": "2023",
  "startDate": "2023-09-21",
  "endDate": "2023-09-24",
  "address": {
    "text": "Gornja Radgona\nSlovenia",
    "iso2": "SI",
    "lat": 46.6767457,
    "lon": 15.9912205
  },
  "website": "https://www.sejem-sobra.si/en/",
  "exhibitorListUrl": "https://www.sejem-sobra.si/wp-content/uploads/sites/12/2023/09/SOBRA-2023-screen.pdf",
  "exhibitorListDate": "2025-02-12T16:58:17+00:00",
  "exhibitor": [
    {
      "name": "Arex d.o.o. Šentjernej",
      "address": {
        "text": "Trubarjeva cesta 7, SI-8310 Šentjernej, Slovenija",
        "iso2": "SI",
        "lat": 45.84394830000001,
        "lon": 15.3338133
      }
    },
    {
      "name": "ASC Technologies AG, Slovenija"
    },
    {
      "name": "Kompas Telekomunikacije d.o.o."
    },
    {
      "name": "BERTIN Environics",
      "country": {
        "text": "Finska",
        "iso2": "FI"
      }
    },
    {
      "name": "Dr. Nemo d.o.o."
    },
    {
      "name": "Bijol d.o.o.",
      "address": {
        "text": "Livarska cesta 17, SI-2367 Vuzenica, Slovenija",
        "iso2": "SI",
        "lat": 46.5952176,
        "lon": 15.1585591
      }
    },
    {
      "name": "Blackned GmbH",
      "country": {
        "text": "Nemčija",
        "iso2": "DE"
      }
    },
    {
      "name": "MIL Sistemika INT d.o.o."
    },
    {
      "name": "BO2-MEGA d.o.o.",
      "address": {
        "text": "Ulica Mirka Vadnova 19, SI-4000 Kranj, Slovenija",
        "iso2": "SI",
        "lat": 46.2468076,
        "lon": 14.3747917
      }
    },
    {
      "name": "CARBOTECH TECHNOLOGIES d.o.o.",
      "address": {
        "text": "Podjunska ulica 13, SI-1000 Ljubljana, Slovenija",
        "iso2": "SI",
        "lat": 46.0686638,
        "lon": 14.4942646
      }
    },
    {
      "name": "CARBOTECH TECHNOLOGIES d.o.o.",
      "country": {
        "text": "Slovenija",
        "iso2": "SI"
      }
    },
    {
      "name": "Guardiaris d.o.o."
    },
    {
      "name": "C-ASTRAL d.o.o.",
      "country": {
        "text": "Slovenija",
        "iso2": "SI"
      }
    },
    {
      "name": "Perigon d.o.o."
    },
    {
      "name": "Ceia",
      "country": {
        "text": "Italija",
        "iso2": "IT"
      }
    },
    {
      "name": "Vama trade Povšič & Co. d.o.o."
    },
    {
      "name": "Civilna zaščita Republike Slovenije",
      "country": {
        "text": "Slovenija",
        "iso2": "SI"
      }
    },
    {
      "name": "CODEX Technologies, d.o.o.",
      "address": {
        "text": "Savska loka 20, SI-4000 Kranj, Slovenija",
        "iso2": "SI",
        "lat": 46.2274617,
        "lon": 14.3617057
      }
    },
    {
      "name": "Comark d.o.o.",
      "address": {
        "text": "Italijanska ulica 8, SI-1000 Ljubljana, Slovenija",
        "iso2": "SI",
        "lat": 46.0629623,
        "lon": 14.5437006
      }
    },
    {
      "name": "Crosscall",
      "country": {
        "text": "Francija",
        "iso2": "FR"
      }
    },
    {
      "name": "Vama trade Povšič & Co. d.o.o."
    },
    {
      "name": "Dr. Nemo d.o.o.",
      "address": {
        "text": "Stegne 27, SI-1000 Ljubljana, Slovenija",
        "iso2": "SI",
        "lat": 46.0881262,
        "lon": 14.4818441
      }
    },
    {
      "name": "Dräger Slovenija d.o.o.",
      "country": {
        "text": "Slovenija",
        "iso2": "SI"
      }
    },
    {
      "name": "WEBO.SI d.o.o."
    },
    {
      "name": "Društvo za srčno žilne bolezni AED",
      "address": {
        "text": "Koroška cesta 2, SI-4000 Kranj, Slovenija",
        "iso2": "SI",
        "lat": 46.2415812,
        "lon": 14.3562421
      }
    },
    {
      "name": "Elektronika Naglič d.o.o.",
      "address": {
        "text": "Goričica pri Ihanu 44, SI-1230 Domžale, Slovenija",
        "iso2": "SI",
        "lat": 46.1229675,
        "lon": 14.6334483
      }
    },
    {
      "name": "EURO GV d.o.o.",
      "country": {
        "text": "Slovenija",
        "iso2": "SI"
      }
    },
    {
      "name": "WEBO.SI d.o.o."
    },
    {
      "name": "FireApp, informacijske storitve d.o.o.",
      "address": {
        "text": "Vojsko 24a, SI-5280 Idrija, Slovenija",
        "iso2": "SI",
        "lat": 46.0254266,
        "lon": 13.9026479
      }
    },
    {
      "name": "Gasilska vozila Pušnik d.o.o.",
      "address": {
        "text": "Črešnjevec 120a, SI-2310 Slovenska Bistrica, Slovenija",
        "iso2": "SI",
        "lat": 46.3742785,
        "lon": 15.6189634
      }
    },
    {
      "name": "Gasilska zveza Gornja Radgona",
      "address": {
        "text": "Gasilska cesta 2, SI-9250 Gornja Radgona, Slovenija",
        "iso2": "SI",
        "lat": 46.6805724,
        "lon": 15.9792263
      }
    },
    {
      "name": "Gasilska zveza Slovenije",
      "address": {
        "text": "Tržaška cesta 221, SI-1000 Ljubljana, Slovenija",
        "iso2": "SI",
        "lat": 46.0339196,
        "lon": 14.4543064
      }
    },
    {
      "name": "GESTI NA CESTI, gostinske storitve, Miha Rihtaršič s.p.",
      "address": {
        "text": "Ulica Prekmurske čete 18, SI-9000 Murska Sobota, Slovenija",
        "iso2": "SI",
        "lat": 46.6531612,
        "lon": 16.1551468
      }
    },
    {
      "name": "Gilardoni",
      "country": {
        "text": "Italija",
        "iso2": "IT"
      }
    },
    {
      "name": "Vama trade Povšič & Co. d.o.o."
    },
    {
      "name": "Gorska reševalna zveza Slovenije",
      "address": {
        "text": "Bleiweisova cesta 34, SI-4000 Kranj, Slovenija",
        "iso2": "SI",
        "lat": 46.2544304,
        "lon": 14.355015
      }
    },
    {
      "name": "Gostinstvo Simon Fekonja, s.p.",
      "address": {
        "text": "Trg osvoboditve 16, SI-2230 Lenart v Slov. goricah, Slovenija",
        "iso2": "SI",
        "lat": 46.5756723,
        "lon": 15.8297977
      }
    },
    {
      "name": "Group 22 d.o.o.",
      "address": {
        "text": "Babičeva ulica 1, SI-1000 Ljubljana, Slovenija",
        "iso2": "SI",
        "lat": 46.029694,
        "lon": 14.5214149
      }
    },
    {
      "name": "Guardiaris d.o.o.",
      "address": {
        "text": "Podjunska ulica 13, SI-1000 Ljubljana, Slovenija",
        "iso2": "SI",
        "lat": 46.0686638,
        "lon": 14.4942646
      }
    },
    {
      "name": "IMEXA d.o.o.",
      "address": {
        "text": "Zaloška cesta 163, SI-1000 Ljubljana, Slovenija",
        "iso2": "SI",
        "lat": 46.0564565,
        "lon": 14.5596892
      }
    },
    {
      "name": "Informacijske tehnologije Matjaž Resnik s.p.",
      "country": {
        "text": "Slovenija",
        "iso2": "SI"
      }
    },
    {
      "name": "Rodentia d.o.o."
    },
    {
      "name": "Institut Jožef Stefan",
      "address": {
        "text": "Jamova cesta 39, SI-1000 Ljubljana, Slovenija",
        "iso2": "SI",
        "lat": 46.0423441,
        "lon": 14.4878625
      }
    },
    {
      "name": "IONIC",
      "country": {
        "text": "Velika Britanija",
        "iso2": "GB"
      }
    },
    {
      "name": "PROSAFE INTERNATIONAL d.o.o."
    },
    {
      "name": "Iveco Defence Vehicles S.p.a.",
      "country": {
        "text": "Italija",
        "iso2": "IT"
      }
    },
    {
      "name": "MOVO d.o.o."
    },
    {
      "name": "Jamarska zveza Slovenije",
      "address": {
        "text": "Lepi pot 6, SI-1000 Ljubljana, Slovenija",
        "iso2": "SI",
        "lat": 46.0456387,
        "lon": 14.4941406
      }
    },
    {
      "name": "Kinološka zveza Slovenije",
      "address": {
        "text": "Zapoge 3d, SI-1217 Vodice, Slovenija",
        "iso2": "SI",
        "lat": 46.17990169999999,
        "lon": 14.4707609
      }
    },
    {
      "name": "Kompas Telekomunikacije d.o.o.",
      "address": {
        "text": "Pot k sejmišču 30, SI-1231 Ljubljana-Črnuče, Slovenija",
        "iso2": "SI",
        "lat": 46.0996512,
        "lon": 14.5363309
      }
    },
    {
      "name": "L3 Harris Technologies",
      "country": {
        "text": "Velika Britanija",
        "iso2": "GB"
      }
    },
    {
      "name": "Kompas Telekomunikacije d.o.o."
    },
    {
      "name": "Live safe d.o.o.",
      "address": {
        "text": "Miklošičeva ulica 31, SI-9000 Murska Sobota, Slovenija",
        "iso2": "SI",
        "lat": 46.6566688,
        "lon": 16.1500241
      }
    },
    {
      "name": "MAKEL MEKANIK MUHENDISLIK A.S.",
      "country": {
        "text": "Turčija",
        "iso2": "TR"
      }
    },
    {
      "name": "SUPROBOX sp. z.o.o."
    },
    {
      "name": "Medičarstvo Celec, Gregor Celec s.p.",
      "address": {
        "text": "Štefana Kovača 22, SI-9000 Murska Sobota, Slovenija",
        "iso2": "SI",
        "lat": 46.6611083,
        "lon": 16.1609797
      }
    },
    {
      "name": "MF Plus d.o.o. Ljubljana",
      "address": {
        "text": "Kamniška ulica 39a, SI-1000 Ljubljana, Slovenija",
        "iso2": "SI",
        "lat": 46.0714711,
        "lon": 14.5019732
      }
    },
    {
      "name": "MF Plus d.o.o. Ljubljana",
      "country": {
        "text": "Slovenija",
        "iso2": "SI"
      }
    },
    {
      "name": "Guardiaris d.o.o."
    },
    {
      "name": "MIL Sistemika INT d.o.o.",
      "address": {
        "text": "Finžgarjeva ulica 6, SI-1234 Mengeš, Slovenija",
        "iso2": "SI",
        "lat": 46.1700923,
        "lon": 14.5770375
      }
    },
    {
      "name": "MilDef",
      "country": {
        "text": "Švedska",
        "iso2": "SE"
      }
    },
    {
      "name": "MIL Sistemika INT d.o.o."
    },
    {
      "name": "Ministrstvo za notranje zadeve Republike Slovenije, Policija",
      "address": {
        "text": "Štefanova ulica 2, SI-1501 Ljubljana, Slovenija",
        "iso2": "SI",
        "lat": 46.0535589,
        "lon": 14.5036604
      }
    },
    {
      "name": "Ministrstvo za obrambo RS - Uprava RS za zaščito in reševanje",
      "address": {
        "text": "Vojkova cesta 61, SI-1000 Ljubljana, Slovenija",
        "iso2": "SI",
        "lat": 46.072676,
        "lon": 14.5184209
      }
    },
    {
      "name": "Ministrstvo za obrambo, Direktorat za logistiko",
      "address": {
        "text": "Vojkova cesta 59, SI-1000 Ljubljana, Slovenija",
        "iso2": "SI",
        "lat": 46.0724451,
        "lon": 14.5180014
      }
    },
    {
      "name": "Ministrstvo za obrambo, Direktorat za obrambne zadeve, Uprava za obrambo Maribor",
      "address": {
        "text": "Ulica heroja Bračiča 2, SI-2000 Maribor, Slovenija",
        "iso2": "SI",
        "lat": 46.5580141,
        "lon": 15.6493563
      }
    },
    {
      "name": "Motorola Solutions, Inc.",
      "country": {
        "text": "Združene države Amerike",
        "iso2": "US"
      }
    },
    {
      "name": "Kompas Telekomunikacije d.o.o."
    },
    {
      "name": "MOVO d.o.o.",
      "address": {
        "text": "Ob gozdu 19a, SI-2352 Selnica ob Dravi, Slovenija",
        "iso2": "SI",
        "lat": 46.5507973,
        "lon": 15.4843022
      }
    },
    {
      "name": "Nacionalni inštitut za javno zdravje",
      "address": {
        "text": "Trubarjeva 2, SI-1000 Ljubljana, Slovenija",
        "iso2": "SI",
        "lat": 46.0516128,
        "lon": 14.5066154
      }
    },
    {
      "name": "Nacionalni laboratorij za zdravje, okolje in hrano",
      "address": {
        "text": "Prvomajska ulica 1, SI-2000 Maribor, Slovenija",
        "iso2": "SI",
        "lat": 46.5368654,
        "lon": 15.6600588
      }
    },
    {
      "name": "Nano team j.d.o.o.",
      "address": {
        "text": "Matije Gupca 60, HR-35214 Donji Andrijevci, Hrvaška",
        "iso2": "HR",
        "lat": 45.18755849999999,
        "lon": 18.3043445
      }
    },
    {
      "name": "Nanocut d.o.o.",
      "address": {
        "text": "Cesta 3. julija 7, SI-1430 Hrastnik, Slovenija",
        "iso2": "SI",
        "lat": 46.1496229,
        "lon": 15.0854016
      }
    },
    {
      "name": "NOAQ Flood Protection AB",
      "country": {
        "text": "Švedska",
        "iso2": "SE"
      }
    },
    {
      "name": "PROSAFE INTERNATIONAL d.o.o."
    },
    {
      "name": "North Stone s.r.o.",
      "address": {
        "text": "Jičínská Street 226/17, CZ-13000 Praha 3, Češka",
        "iso2": "CZ",
        "lat": 50.0787851,
        "lon": 14.4605997
      }
    },
    {
      "name": "Novatel, družba za informacijske tehnologije d.o.o.",
      "address": {
        "text": "Bukovžlak 101, SI-3000 Celje, Slovenija",
        "iso2": "SI",
        "lat": 46.2414302,
        "lon": 15.3032187
      }
    },
    {
      "name": "Območno združenje veteranov vojne za Slovenijo Gornja Radgona",
      "address": {
        "text": "Partizanska 12, SI-9250 Gornja Radgona, Slovenija",
        "iso2": "SI",
        "lat": 46.6773268,
        "lon": 15.9901066
      }
    },
    {
      "name": "Okrepčevalnica Rocky John William Dremelj s.p.",
      "address": {
        "text": "Prešernova cesta 1z, SI-9253 Apače, Slovenija",
        "iso2": "SI",
        "lat": 46.6766909,
        "lon": 15.9908138
      }
    },
    {
      "name": "OneDrone d.o.o.",
      "address": {
        "text": "Cesta Andreja Bitenca 36, SI-1210 Ljubljana Šentvid, Slovenija",
        "iso2": "SI",
        "lat": 46.088143,
        "lon": 14.4665593
      }
    },
    {
      "name": "Ortoroma, Tatjana Mali s.p.",
      "address": {
        "text": "Sokolska ulica 46, SI-2000 Maribor, Slovenija",
        "iso2": "SI",
        "lat": 46.55829869999999,
        "lon": 15.6209434
      }
    },
    {
      "name": "P team d.o.o.",
      "address": {
        "text": "Pot na Ferjanko 1, SI-1358 Log pri Brezovici, Slovenija",
        "iso2": "SI",
        "lat": 46.01133069999999,
        "lon": 14.3666578
      }
    },
    {
      "name": "Panna Plus d.o.o.",
      "address": {
        "text": "Podjunska ulica 13, SI-1000 Ljubljana, Slovenija",
        "iso2": "SI",
        "lat": 46.0686638,
        "lon": 14.4942646
      }
    },
    {
      "name": "Panna Plus d.o.o.",
      "country": {
        "text": "Slovenija",
        "iso2": "SI"
      }
    },
    {
      "name": "Guardiaris d.o.o."
    },
    {
      "name": "Perigon d.o.o.",
      "address": {
        "text": "Vojkova cesta 58, SI-1000 Ljubljana, Slovenija",
        "iso2": "SI",
        "lat": 46.0693328,
        "lon": 14.5179182
      }
    },
    {
      "name": "Petre šotori - hale d.o.o.",
      "address": {
        "text": "Čeplje 51, SI-3305 Vransko, Slovenija",
        "iso2": "SI",
        "lat": 46.2510754,
        "lon": 14.9751362
      }
    },
    {
      "name": "PF Pumpen und Feuerlöschtechnik GmbH",
      "country": {
        "text": "Nemčija",
        "iso2": "DE"
      }
    },
    {
      "name": "Svit - Zolar, d.o.o."
    },
    {
      "name": "Posredovanje Gugi, Vladimir Dlouhy s.p.",
      "address": {
        "text": "Lomanoše 44c, SI-9250 Gornja Radgona, Slovenija",
        "iso2": "SI",
        "lat": 46.6685897,
        "lon": 15.9423724
      }
    },
    {
      "name": "Prevent & Deloza d.o.o.",
      "address": {
        "text": "Kosova ulica 14, SI-3000 Celje, Slovenija",
        "iso2": "SI",
        "lat": 46.2315923,
        "lon": 15.2816994
      }
    },
    {
      "name": "Primalab d.o.o.",
      "address": {
        "text": "Pod bregom 27, SI-3313 Polzela, Slovenija",
        "iso2": "SI",
        "lat": 46.2720795,
        "lon": 15.0857232
      }
    },
    {
      "name": "Proarmis d.o.o.",
      "address": {
        "text": "Pekel 20, SI-2000 Maribor, Slovenija",
        "iso2": "SI",
        "lat": 46.5830706,
        "lon": 15.6832673
      }
    },
    {
      "name": "Prodaja sladoleda, Milaim Derviši s.p.",
      "address": {
        "text": "Partizanska cesta 3, SI-9250 Gornja Radgona, Slovenija",
        "iso2": "SI",
        "lat": 46.6782776,
        "lon": 15.9895902
      }
    },
    {
      "name": "PROSAFE INTERNATIONAL d.o.o.",
      "address": {
        "text": "Prešernova cesta 13, SI-4260 Bled, Slovenija",
        "iso2": "SI",
        "lat": 46.3697545,
        "lon": 14.111201
      }
    },
    {
      "name": "Prostovoljno gasilsko društvo Gornja Radgona",
      "address": {
        "text": "Gasilska cesta 2, SI-9250 Gornja Radgona, Slovenija",
        "iso2": "SI",
        "lat": 46.6805724,
        "lon": 15.9792263
      }
    },
    {
      "name": "Rdeči križ Slovenije - Območno združenje Gornja Radgona",
      "address": {
        "text": "Maistrov trg 2, SI-9250 Gornja Radgona, Slovenija",
        "iso2": "SI",
        "lat": 46.6796107,
        "lon": 15.9881745
      }
    },
    {
      "name": "Rodentia d.o.o.",
      "address": {
        "text": "Klinja vas 19b, SI-1330 Kočevje, Slovenija",
        "iso2": "SI",
        "lat": 45.6640408,
        "lon": 14.8702902
      }
    },
    {
      "name": "Rolatube",
      "country": {
        "text": "Velika Britanija",
        "iso2": "GB"
      }
    },
    {
      "name": "MIL Sistemika INT d.o.o."
    },
    {
      "name": "ROSENBAUER, d.o.o.",
      "address": {
        "text": "Ljutomerska cesta 6, SI-9250 Gornja Radgona, Slovenija",
        "iso2": "SI",
        "lat": 46.6711124,
        "lon": 15.9945774
      }
    },
    {
      "name": "RTC d.o.o.",
      "address": {
        "text": "Cesta k Dravi 21, SI-2000 Maribor, Slovenija",
        "iso2": "SI",
        "lat": 46.5371426,
        "lon": 15.691461
      }
    },
    {
      "name": "RTC d.o.o.",
      "country": {
        "text": "Slovenija",
        "iso2": "SI"
      }
    },
    {
      "name": "Guardiaris d.o.o."
    },
    {
      "name": "RT-TRI, d.o.o.",
      "address": {
        "text": "Borovec 31, SI-1236 Trzin, Slovenija",
        "iso2": "SI",
        "lat": 46.121972,
        "lon": 14.5491289
      }
    },
    {
      "name": "Serstech AB",
      "country": {
        "text": "Švedska",
        "iso2": "SE"
      }
    },
    {
      "name": "Dr. Nemo d.o.o."
    },
    {
      "name": "Sinergija MCI, d.o.o.",
      "address": {
        "text": "Savska loka 20, SI-4000 Kranj, Slovenija",
        "iso2": "SI",
        "lat": 46.2274617,
        "lon": 14.3617057
      }
    },
    {
      "name": "Slovenska potapljaška zveza",
      "address": {
        "text": "Ameriška ulica 2, SI-1000 Ljubljana, Slovenija",
        "iso2": "SI",
        "lat": 46.0683352,
        "lon": 14.5405796
      }
    },
    {
      "name": "Stelkom d.o.o.",
      "address": {
        "text": "Špruha 19, SI-1236 Trzin, Slovenija",
        "iso2": "SI",
        "lat": 46.118513,
        "lon": 14.5463453
      }
    },
    {
      "name": "StriX eMotors d.o.o.",
      "address": {
        "text": "Cesta k Dravi 21, SI-2000 Maribor, Slovenija",
        "iso2": "SI",
        "lat": 46.5371426,
        "lon": 15.691461
      }
    },
    {
      "name": "StriX eMotors d.o.o.",
      "country": {
        "text": "Slovenija",
        "iso2": "SI"
      }
    },
    {
      "name": "Guardiaris d.o.o."
    },
    {
      "name": "SUPROBOX sp. z.o.o.",
      "address": {
        "text": "Okrežna 18, PL-62-025 Kostrzyn, Poljska",
        "iso2": "PL",
        "lat": 52.402307,
        "lon": 17.2180545
      }
    },
    {
      "name": "Svit - Zolar, d.o.o.",
      "address": {
        "text": "Stogovci 5, SI-2323 Ptujska Gora, Slovenija",
        "iso2": "SI",
        "lat": 46.3491232,
        "lon": 15.755523
      }
    },
    {
      "name": "Šestan-Busch d.o.o.",
      "country": {
        "text": "Hrvaška",
        "iso2": "HR"
      }
    },
    {
      "name": "Nanocut d.o.o."
    },
    {
      "name": "TEMPO-DAM",
      "country": {
        "text": "Danska",
        "iso2": "DK"
      }
    },
    {
      "name": "PROSAFE INTERNATIONAL d.o.o."
    },
    {
      "name": "Tevel d.o.o.",
      "address": {
        "text": "Borovniško naselje 7, SI-1412 Kisovec, Slovenija",
        "iso2": "SI",
        "lat": 46.1409993,
        "lon": 14.9573637
      }
    },
    {
      "name": "Thomas - moda u koži, vl. Tomislav Jurišković",
      "address": {
        "text": "Toplička 2c, HR-10380 Sveti Ivan Zelina, Hrvaška",
        "iso2": "HR",
        "lat": 45.9682867,
        "lon": 16.250473
      }
    },
    {
      "name": "Timilon Corporation",
      "country": {
        "text": "Združene države Amerike",
        "iso2": "US"
      }
    },
    {
      "name": "Dr. Nemo d.o.o."
    },
    {
      "name": "TKI d.d. Hrastnik",
      "address": {
        "text": "Za Savo 6, SI-1430 Hrastnik, Slovenija",
        "iso2": "SI",
        "lat": 46.1186207,
        "lon": 15.0980262
      }
    },
    {
      "name": "Valhalla Turrets d.o.o.",
      "country": {
        "text": "Slovenija",
        "iso2": "SI"
      }
    },
    {
      "name": "Guardiaris d.o.o."
    },
    {
      "name": "Valhalla Turrets d.o.o.",
      "address": {
        "text": "Tehnološki park 22a, SI-1000 Ljubljana, Slovenija",
        "iso2": "SI",
        "lat": 46.05068379999999,
        "lon": 14.4596413
      }
    },
    {
      "name": "Vama trade Povšič & Co. d.o.o.",
      "address": {
        "text": "Industrijska cesta 7B, SI-5000 Nova Gorica, Slovenija",
        "iso2": "SI",
        "lat": 45.9564168,
        "lon": 13.6660532
      }
    },
    {
      "name": "Vistler d.o.o.",
      "address": {
        "text": "pp 55, Korenova c. 5, SI-1241 Kamnik, Slovenija",
        "iso2": "SI",
        "lat": 46.1992526,
        "lon": 14.5862144
      }
    },
    {
      "name": "VTZ podjetje za security, inženiring, storitve in trgovino d.o.o.",
      "address": {
        "text": "Koprska ulica 96, SI-1000 Ljubljana, Slovenija",
        "iso2": "SI",
        "lat": 46.0341253,
        "lon": 14.4828768
      }
    },
    {
      "name": "Webo Maribor d.o.o.",
      "country": {
        "text": "Slovenija",
        "iso2": "SI"
      }
    },
    {
      "name": "WEBO.SI d.o.o."
    },
    {
      "name": "WEBO.SI d.o.o.",
      "address": {
        "text": "Pod Hruševco 44G, SI-1360 Vrhnika, Slovenija",
        "iso2": "SI",
        "lat": 45.97439910000001,
        "lon": 14.2930876
      }
    },
    {
      "name": "Združenje slovenskih poklicnih gasilcev",
      "address": {
        "text": "Maistrova ulica 5, SI-3000 Celje, Slovenija",
        "iso2": "SI",
        "lat": 46.2244685,
        "lon": 15.2640244
      }
    },
    {
      "name": "Ziegler d.o.o.",
      "country": {
        "text": "Hrvaška",
        "iso2": "HR"
      }
    },
    {
      "name": "Live safe d.o.o."
    },
    {
      "name": "Zveza radioamaterjev Slovenije",
      "country": {
        "text": "ekipa ARON Pomurje, Slovenija",
        "iso2": "SI"
      }
    },
    {
      "name": "Zveza vodnikov reševalnih psov Slovenije",
      "country": {
        "text": "Slovenija",
        "iso2": "SI"
      }
    }
  ]
}
