{
  "name": "UDT 2025",
  "series": "UDT",
  "alias": [
    "Undersea Defence Technology",
    "UDT Global"
  ],
  "edition": "2025",
  "startDate": "2025-03-25",
  "endDate": "2025-03-27",
  "address": {
    "text": "NOVA Spektrum\nMesseveien 8\n2001 Lillestrøm\nOslo\nNorway",
    "iso2": "NO",
    "lat": 59.9507637,
    "lon": 11.0514812
  },
  "website": "https://www.udt-global.com",
  "social": [
    {
      "platform": "twitter",
      "url": "https://twitter.com/UDT_Event"
    },
    {
      "platform": "linkedin",
      "url": "https://www.linkedin.com/groups/1882279"
    }
  ],
  "organiser": [
    {
      "name": "Clarion Defence & Security",
      "address": "Bedford House\nFulham High Street\nLondon SW6 3JW\nUK"
    }
  ],
  "exhibitorListUrl": "https://udt-global.com/exhibit/udt-exhibitors",
  "exhibitorListDate": "2025-04-29T11:00:38+00:00",
  "exhibitor": [
    {
      "name": "ANSYS",
      "exhibitorUrl": "https://udt-global.com/exhibitors/ansys",
      "address": {
        "text": "Sheffield\nS1 2JE\nUnited Kingdom",
        "iso2": "GB",
        "lat": 53.3792701,
        "lon": -1.4694078
      }
    },
    {
      "name": "Acacia Systems",
      "exhibitorUrl": "https://udt-global.com/exhibitors/acacia-systems",
      "address": {
        "text": "Hendon\nNew South Wales\nSA 5014\nAustralia",
        "iso2": "AU",
        "lat": -34.872353,
        "lon": 138.5147325
      }
    },
    {
      "name": "Aeromaritime Systembau",
      "exhibitorUrl": "https://udt-global.com/exhibitors/aeromaritime-systembau",
      "address": {
        "text": "Ludwig-Erhard-Str. 16\nNeufahrn bei Freising\nBayern\n85375\nGermany",
        "iso2": "DE",
        "lat": 48.31171,
        "lon": 11.64702
      }
    },
    {
      "name": "Anschütz GmbH",
      "exhibitorUrl": "https://udt-global.com/exhibitors/anschutz-gmbh",
      "address": {
        "text": "Kiel\n24106\nGermany",
        "iso2": "DE",
        "lat": 54.3579391,
        "lon": 10.1211182
      }
    },
    {
      "name": "Aselsan",
      "exhibitorUrl": "https://udt-global.com/exhibitors/aselsan",
      "address": {
        "text": "Yenimahalle\nANKARA\n6370\nTurkey",
        "iso2": "TR",
        "lat": 40.0129334,
        "lon": 32.740723
      }
    },
    {
      "name": "Avon Protection Systems",
      "exhibitorUrl": "https://udt-global.com/exhibitors/avon-protection-systems",
      "address": {
        "text": "Melksham\nWiltshire\nSN12 6NB\nUnited Kingdom",
        "iso2": "GB",
        "lat": 51.3537566,
        "lon": -2.1401304
      }
    },
    {
      "name": "BAE Systems",
      "exhibitorUrl": "https://udt-global.com/exhibitors/bae-systems",
      "address": {
        "text": "Glasgow\nLanarkshire\nG14 0XN\nUnited Kingdom",
        "iso2": "GB",
        "lat": 55.8812592,
        "lon": -4.3646302
      }
    },
    {
      "name": "Babcock International",
      "exhibitorUrl": "https://udt-global.com/exhibitors/babcock-international",
      "address": {
        "text": "Bristol\nGwent\nBS3 2HQ\nUnited Kingdom",
        "iso2": "GB",
        "lat": 51.4387333,
        "lon": -2.628965
      }
    },
    {
      "name": "Bartington Instruments",
      "exhibitorUrl": "https://udt-global.com/exhibitors/bartington-instruments",
      "address": {
        "text": "Witney\nOxfordshire\nOX28 4GE\nUnited Kingdom",
        "iso2": "GB",
        "lat": 51.776298,
        "lon": -1.4957486
      }
    },
    {
      "name": "Beaufort",
      "exhibitorUrl": "https://udt-global.com/exhibitors/beaufort",
      "address": {
        "text": "Ellesmere Port\nMerseyside\nCH65 1AX\nUnited Kingdom",
        "iso2": "GB",
        "lat": 53.3089768,
        "lon": -2.9393818
      }
    },
    {
      "name": "Blue Ocean Marine Tech Systems",
      "exhibitorUrl": "https://udt-global.com/exhibitors/blue-ocean-marine-tech-systems",
      "address": {
        "text": "Bibra Lake\nWestern Australia\n6163\nAustralia",
        "iso2": "AU",
        "lat": -32.1071299,
        "lon": 115.8072672
      }
    },
    {
      "name": "Blueprint Subsea",
      "exhibitorUrl": "https://udt-global.com/exhibitors/blueprint-subsea",
      "address": {
        "text": "Ulverston\nCumbria\nLA12 8LY\nUnited Kingdom",
        "iso2": "GB",
        "lat": 54.24401760000001,
        "lon": -3.0042086
      }
    },
    {
      "name": "Castingpar",
      "exhibitorUrl": "https://udt-global.com/exhibitors/castingpar",
      "address": {
        "text": "Seneffe\nSoignies\n7180\nBelgium",
        "iso2": "BE",
        "lat": 50.5285674,
        "lon": 4.2721491
      }
    },
    {
      "name": "Cathx Ocean",
      "exhibitorUrl": "https://udt-global.com/exhibitors/cathx-ocean-",
      "address": {
        "text": "Co. Kildare\nW91 F780\nIreland",
        "iso2": "IE",
        "lat": 53.2160145,
        "lon": -6.7072864
      }
    },
    {
      "name": "Comrod Communication AS",
      "exhibitorUrl": "https://udt-global.com/exhibitors/comrod-communication",
      "address": {
        "text": "Tau\nRogaland\n4120\nNorway",
        "iso2": "NO",
        "lat": 59.0647006,
        "lon": 5.9223102
      }
    },
    {
      "name": "Curtiss-Wright INDAL",
      "exhibitorUrl": "https://udt-global.com/exhibitors/curtiss-wright-indal",
      "address": {
        "text": "Mississauga\nOntario\nL5C 2V8\nCanada",
        "iso2": "CA",
        "lat": 43.5719753,
        "lon": -79.6554734
      }
    },
    {
      "name": "DNV",
      "exhibitorUrl": "https://udt-global.com/exhibitors/dnv",
      "address": {
        "text": "Hamburg\nHamburg\n20457\nGermany",
        "iso2": "DE",
        "lat": 53.53164839999999,
        "lon": 9.9852574
      }
    },
    {
      "name": "Depro AS",
      "exhibitorUrl": "https://udt-global.com/exhibitors/depro",
      "address": {
        "text": "Bryne\n4344\nNorway",
        "iso2": "NO",
        "lat": 58.731967,
        "lon": 5.655442799999999
      }
    },
    {
      "name": "Diab Group",
      "exhibitorUrl": "https://udt-global.com/exhibitors/diab-group",
      "address": {
        "text": "Helsingborg\n252 21\nSweden",
        "iso2": "SE",
        "lat": 56.0482159,
        "lon": 12.6899616
      }
    },
    {
      "name": "ELWAVE",
      "exhibitorUrl": "https://udt-global.com/exhibitors/elwave",
      "address": {
        "text": "Carquefou\n44470\nFrance",
        "iso2": "FR",
        "lat": 47.29624099999999,
        "lon": -1.486812
      }
    },
    {
      "name": "EuroTorp",
      "exhibitorUrl": "https://udt-global.com/exhibitors/eurotorp",
      "address": {
        "text": "Vallauris\nPROVENCE-ALPES-CÔTE D'AZUR\n06220\nFrance",
        "iso2": "FR",
        "lat": 43.577244,
        "lon": 7.055041
      }
    },
    {
      "name": "Euroatlas",
      "exhibitorUrl": "https://udt-global.com/exhibitors/euroatlas",
      "address": {
        "text": "Bremen\n28307\nGermany",
        "iso2": "DE",
        "lat": 53.0385916,
        "lon": 8.939150399999999
      }
    },
    {
      "name": "EvoLogics GmbH",
      "exhibitorUrl": "https://udt-global.com/exhibitors/evologics-gmbh",
      "address": {
        "text": "Berlin\nBerlin\n12489\nGermany",
        "iso2": "DE",
        "lat": 52.4370179,
        "lon": 13.5470509
      }
    },
    {
      "name": "Exail",
      "exhibitorUrl": "https://udt-global.com/exhibitors/exail",
      "address": {
        "text": "Saint-Germain-en-Laye\nÎLE-DE-FRANCE\n78105\nFrance",
        "iso2": "FR",
        "lat": 48.8999714,
        "lon": 2.0885134
      }
    },
    {
      "name": "Fosstech AS",
      "exhibitorUrl": "https://udt-global.com/exhibitors/fosstech",
      "address": {
        "text": "Stokke\nVestfold\n3160\nNorway",
        "iso2": "NO",
        "lat": 59.2230474,
        "lon": 10.2985883
      }
    },
    {
      "name": "Frankie Robins",
      "exhibitorUrl": "https://udt-global.com/exhibitors/frankie-robins"
    },
    {
      "name": "Furkan Guldemir",
      "exhibitorUrl": "https://udt-global.com/exhibitors/furkan-guldemir"
    },
    {
      "name": "GISMA Steckverbinder GmbH",
      "exhibitorUrl": "https://udt-global.com/exhibitors/gisma-steckverbinder-gmbh",
      "address": {
        "text": "Neumünster\nSchleswig-Holstein\n24539\nGermany",
        "iso2": "DE",
        "lat": 54.0462788,
        "lon": 9.9930497
      }
    },
    {
      "name": "Galleon Embedded Computing",
      "exhibitorUrl": "https://udt-global.com/exhibitors/galleon-embedded-computing",
      "address": {
        "text": "Oslo\nOslo\nN-0275\nNorway",
        "iso2": "NO",
        "lat": 59.925508,
        "lon": 10.674286
      }
    },
    {
      "name": "Glenair",
      "exhibitorUrl": "https://udt-global.com/exhibitors/glenair",
      "address": {
        "text": "Solna\nS-16927\nSweden",
        "iso2": "SE",
        "lat": 59.36887909999999,
        "lon": 18.0084334
      }
    },
    {
      "name": "HAVELSAN",
      "exhibitorUrl": "https://udt-global.com/exhibitors/havelsan",
      "address": {
        "text": "HAVELSAN Hava Elektronik San. Tic. AS.\nSehit Ogretmen Senay Aybuke Yalcin Cad. 39\nMustafa Kemal Mah. Cankaya\nAnkara\nTurkiye\n06510\nTurkey",
        "iso2": "TR",
        "lat": 39.9138411,
        "lon": 32.7758291
      }
    },
    {
      "name": "HBK",
      "exhibitorUrl": "https://udt-global.com/exhibitors/hbk",
      "address": {
        "text": "Virum\nVirum\n2830\nDenmark",
        "iso2": "DK",
        "lat": 55.7891391,
        "lon": 12.4631498
      }
    },
    {
      "name": "HENSOLDT",
      "exhibitorUrl": "https://udt-global.com/exhibitors/hensoldt",
      "address": {
        "text": "Munich\nDistrict Court of Munich\n82024\nGermany",
        "iso2": "DE",
        "lat": 48.0389787,
        "lon": 11.6265608
      }
    },
    {
      "name": "Helsing",
      "exhibitorUrl": "https://udt-global.com/exhibitors/helsing",
      "address": {
        "text": "München\n81671\nGermany",
        "iso2": "DE",
        "lat": 48.1234082,
        "lon": 11.6120973
      }
    },
    {
      "name": "INDRA",
      "exhibitorUrl": "https://udt-global.com/exhibitors/indra",
      "address": {
        "text": "Arroyo De La Vega, Alcobendas\nMadrid\n28108\nSpain",
        "iso2": "ES",
        "lat": 40.5312746,
        "lon": -3.657254199999999
      }
    },
    {
      "name": "Image Soft Oy",
      "exhibitorUrl": "https://udt-global.com/exhibitors/image-soft-oy",
      "address": {
        "text": "Uusimaa\nUusimaa\n00400\nFinland",
        "iso2": "FI",
        "lat": 60.2245812,
        "lon": 24.8974177
      }
    },
    {
      "name": "Irina Vasilets",
      "exhibitorUrl": "https://udt-global.com/exhibitors/irina-vasilets"
    },
    {
      "name": "KONGSBERG",
      "exhibitorUrl": "https://udt-global.com/exhibitors/kongsberg",
      "address": {
        "text": "Kongsberg\nNO-3601\nNorway",
        "iso2": "NO",
        "lat": 59.6721147,
        "lon": 9.6460432
      }
    },
    {
      "name": "Kadesha Silva",
      "exhibitorUrl": "https://udt-global.com/exhibitors/kadesha-silva"
    },
    {
      "name": "MCT Brattberg",
      "exhibitorUrl": "https://udt-global.com/exhibitors/mct-brattberg",
      "address": {
        "text": "Karlskrona\nSE 37192\nSweden",
        "iso2": "SE",
        "lat": 56.161224,
        "lon": 15.5869
      }
    },
    {
      "name": "MURO-CCR",
      "exhibitorUrl": "https://udt-global.com/exhibitors/muro-ccr",
      "address": {
        "text": "Tjele\nTjele\n8830\nDenmark",
        "iso2": "DK",
        "lat": 56.51081,
        "lon": 9.6116569
      }
    },
    {
      "name": "MacArtney Norge AS",
      "exhibitorUrl": "https://udt-global.com/exhibitors/macartney-norge",
      "address": {
        "text": "Stavanger\n4033\nNorway",
        "iso2": "NO",
        "lat": 58.897172,
        "lon": 5.694627
      }
    },
    {
      "name": "Matrix Composites & Engineering Ltd",
      "exhibitorUrl": "https://udt-global.com/exhibitors/matrix-composites-engineering",
      "address": {
        "text": "Perth\nWestern Australia\n6151\nAustralia",
        "iso2": "AU",
        "lat": -31.9797919,
        "lon": 115.8699209
      }
    },
    {
      "name": "Moog Inc.",
      "exhibitorUrl": "https://udt-global.com/exhibitors/moog",
      "address": {
        "text": "East Aurora\nNew York\n14052\nUnited States",
        "iso2": "US",
        "lat": 42.7678376,
        "lon": -78.6133589
      }
    },
    {
      "name": "Myriad Technologies Pty Ltd",
      "exhibitorUrl": "https://udt-global.com/exhibitors/myriad-technologies-pty",
      "address": {
        "text": "Eight Mile Plains\nQueensland\n4113\nAustralia",
        "iso2": "AU",
        "lat": -27.5889518,
        "lon": 153.0795213
      }
    },
    {
      "name": "NOVACAVI",
      "exhibitorUrl": "https://udt-global.com/exhibitors/novacavi-srl",
      "address": {
        "text": "Milan\nMILANO\n20068\nItaly",
        "iso2": "IT",
        "lat": 45.4392174,
        "lon": 9.3037435
      }
    },
    {
      "name": "OSI Maritime Systems",
      "exhibitorUrl": "https://udt-global.com/exhibitors/osi-maritime-systems",
      "address": {
        "text": "Burnaby\nBritish Columbia\nV5G 4L6\nCanada",
        "iso2": "CA",
        "lat": 49.2551584,
        "lon": -122.9966658
      }
    },
    {
      "name": "Ocean Sonics",
      "exhibitorUrl": "https://udt-global.com/exhibitors/ocean-sonics",
      "address": {
        "text": "Great Village\nNova Scotia\nB0M 1L0\nCanada",
        "iso2": "CA",
        "lat": 45.4236468,
        "lon": -63.60329429999999
      }
    },
    {
      "name": "PHOTOSPACE",
      "exhibitorUrl": "https://udt-global.com/exhibitors/photospace",
      "address": {
        "text": "Dammarie-les-Lys\n77190\nFrance",
        "iso2": "FR",
        "lat": 48.515451,
        "lon": 2.634831
      }
    },
    {
      "name": "PMB Defence Pty Ltd",
      "exhibitorUrl": "https://udt-global.com/exhibitors/pmb-defence-pty",
      "address": {
        "text": "North Haven\nSouth Australia\n5018\nAustralia",
        "iso2": "AU",
        "lat": -34.7773088,
        "lon": 138.4937213
      }
    },
    {
      "name": "PYTHEAS TECHNOLOGY",
      "exhibitorUrl": "https://udt-global.com/exhibitors/pytheas-technology",
      "address": {
        "text": "La Ciotat\nPROVENCE-ALPES-CÔTE D'AZUR\n13600\nFrance",
        "iso2": "FR",
        "lat": 43.17365299999999,
        "lon": 5.605155
      }
    },
    {
      "name": "Pete Sandeman",
      "exhibitorUrl": "https://udt-global.com/exhibitors/pete-sandeman"
    },
    {
      "name": "PrioriAnalytica",
      "exhibitorUrl": "https://udt-global.com/exhibitors/priorianalytica"
    },
    {
      "name": "Q-CTRL PTY LTD",
      "exhibitorUrl": "https://udt-global.com/exhibitors/q-ctrl-pty",
      "address": {
        "text": "Chippendale\nNew South Wales\n2008\nAustralia",
        "iso2": "AU",
        "lat": -33.8878872,
        "lon": 151.1964025
      }
    },
    {
      "name": "RADIXON GROUP PTY LTD",
      "exhibitorUrl": "https://udt-global.com/exhibitors/radixon-group-pty",
      "address": {
        "text": "Collingwood\nVictoria\n3066\nAustralia",
        "iso2": "AU",
        "lat": -37.799283,
        "lon": 144.9873447
      }
    },
    {
      "name": "RBC Bearings",
      "exhibitorUrl": "https://udt-global.com/exhibitors/rbc-bearings",
      "address": {
        "text": "Oxford\nConnecticut\n06478\nUnited States",
        "iso2": "US",
        "lat": 41.4274087,
        "lon": -73.1467619
      }
    },
    {
      "name": "RTSYS",
      "exhibitorUrl": "https://udt-global.com/exhibitors/rt-sys",
      "address": {
        "text": "CAUDAN\nfrance\n56850\nFrance",
        "iso2": "FR",
        "lat": 47.8040149,
        "lon": -3.3444365
      }
    },
    {
      "name": "Renate Hermanns",
      "exhibitorUrl": "https://udt-global.com/exhibitors/renate-hermanns"
    },
    {
      "name": "Richie Enzmann",
      "exhibitorUrl": "https://udt-global.com/exhibitors/richie-enzmann"
    },
    {
      "name": "Richmond Defence Systems Ltd",
      "exhibitorUrl": "https://udt-global.com/exhibitors/richmond-defence-systems",
      "address": {
        "text": "Armtec Estate\nThe Street\nNorth Lopham\nNorfolk\nIP222LR\nUnited Kingdom",
        "iso2": "GB",
        "lat": 52.4048808,
        "lon": 0.9923141
      }
    },
    {
      "name": "Roketsan",
      "exhibitorUrl": "https://udt-global.com/exhibitors/roketsan",
      "address": {
        "text": "ANKARA\nELMADAG\n06780\nTurkey",
        "iso2": "TR",
        "lat": 39.9276163,
        "lon": 33.2340974
      }
    },
    {
      "name": "Rolls-Royce Power Systems AG",
      "exhibitorUrl": "https://udt-global.com/exhibitors/rolls-royce-power-systems-ag",
      "address": {
        "text": "Friedrichshafen\nBaden-Württemberg\n88045\nGermany",
        "iso2": "DE",
        "lat": 47.6409837,
        "lon": 9.453159399999999
      }
    },
    {
      "name": "SAAB",
      "exhibitorUrl": "https://udt-global.com/exhibitors/saab-ab",
      "address": {
        "text": "Östersund\nÖstersund\nSE-831 29\nSweden",
        "iso2": "SE",
        "lat": 63.1766832,
        "lon": 14.6360681
      }
    },
    {
      "name": "SEA",
      "exhibitorUrl": "https://udt-global.com/exhibitors/sea",
      "address": {
        "text": "Frome\nSomerset\nBA11 6TA\nUnited Kingdom",
        "iso2": "GB",
        "lat": 51.2622803,
        "lon": -2.2880437
      }
    },
    {
      "name": "SEABER",
      "exhibitorUrl": "https://udt-global.com/exhibitors/seaber",
      "address": {
        "text": "Lorient\nFrance\n56100\nFrance",
        "iso2": "FR",
        "lat": 47.7482524,
        "lon": -3.3702449
      }
    },
    {
      "name": "STL Systems AG",
      "exhibitorUrl": "https://udt-global.com/exhibitors/stl-systems-ag",
      "address": {
        "text": "Hauptstrasse 137E\nTägerwilen\n8274\nSwitzerland",
        "iso2": "CH",
        "lat": 47.65226879999999,
        "lon": 9.148676499999999
      }
    },
    {
      "name": "STM",
      "exhibitorUrl": "https://udt-global.com/exhibitors/stm",
      "address": {
        "text": "Cankaya\nCankaya\n2151\nTurkey",
        "iso2": "TR",
        "lat": 39.88933850000001,
        "lon": 32.8620343
      }
    },
    {
      "name": "SUEX",
      "exhibitorUrl": "https://udt-global.com/exhibitors/suex",
      "address": {
        "text": "Villorba\nTREVISO\n31020\nItaly",
        "iso2": "IT",
        "lat": 45.739363,
        "lon": 12.2328266
      }
    },
    {
      "name": "Safran Electronics & Defense",
      "exhibitorUrl": "https://udt-global.com/exhibitors/safran-electronics-defense",
      "address": {
        "text": "Paris\nParis\n75015\nFrance",
        "iso2": "FR",
        "lat": 48.8421616,
        "lon": 2.2927665
      }
    },
    {
      "name": "Sarah Barclay",
      "exhibitorUrl": "https://udt-global.com/exhibitors/sarah-barclay"
    },
    {
      "name": "Scanmatic AS",
      "exhibitorUrl": "https://udt-global.com/exhibitors/scanmatic",
      "address": {
        "text": "Arendal\n4841\nNorway",
        "iso2": "NO",
        "lat": 58.47633659999999,
        "lon": 8.813879199999999
      }
    },
    {
      "name": "School of Information Operations",
      "exhibitorUrl": "https://udt-global.com/exhibitors/school-information-operations",
      "address": {
        "text": "Prospect East\nSouth Australia\n5082\nAustralia",
        "iso2": "AU",
        "lat": -34.8929055,
        "lon": 138.5944961
      }
    },
    {
      "name": "Shark Marine Technologies",
      "exhibitorUrl": "https://udt-global.com/exhibitors/shark-marine-technologies",
      "address": {
        "text": "St. Catharines\nOntario\nL2N 1L2\nCanada",
        "iso2": "CA",
        "lat": 43.1833979,
        "lon": -79.2502248
      }
    },
    {
      "name": "Sonartech Atlas Pty Ltd",
      "exhibitorUrl": "https://udt-global.com/exhibitors/sonartech-atlas-pty",
      "address": {
        "text": "Macquarie Park\nNew South Wales\n2113\nAustralia",
        "iso2": "AU",
        "lat": -33.7810467,
        "lon": 151.122968
      }
    },
    {
      "name": "Syncrolift: Shiplift",
      "exhibitorUrl": "https://udt-global.com/exhibitors/syncrolift-shiplift",
      "address": {
        "text": "Vestby\n1543\nNorway",
        "iso2": "NO",
        "lat": 59.6171563,
        "lon": 10.7487723
      }
    },
    {
      "name": "TEST EXHIBITOR",
      "exhibitorUrl": "https://udt-global.com/exhibitors/test-exhibitor"
    },
    {
      "name": "TKMS Meeting room",
      "exhibitorUrl": "https://udt-global.com/exhibitors/tkms-meeting-room",
      "address": {
        "text": "Kiel\nSchleswig-Holstein\n24124\nGermany",
        "iso2": "DE",
        "lat": 54.3232927,
        "lon": 10.1227652
      }
    },
    {
      "name": "TODS Technology",
      "exhibitorUrl": "https://udt-global.com/exhibitors/tods-defence",
      "address": {
        "text": "Portland\nDorset\nDT5 2JP\nUnited Kingdom",
        "iso2": "GB",
        "lat": 50.5486217,
        "lon": -2.4442478
      }
    },
    {
      "name": "Tanya Casey",
      "exhibitorUrl": "https://udt-global.com/exhibitors/tanya-casey"
    },
    {
      "name": "Thales",
      "exhibitorUrl": "https://udt-global.com/exhibitors/thales",
      "address": {
        "text": "Cesson-Sévigné\n35510\nFrance",
        "iso2": "FR",
        "lat": 48.1237782,
        "lon": -1.6052733
      }
    },
    {
      "name": "Thyssenkrupp Marine Systems GMBH",
      "exhibitorUrl": "https://udt-global.com/exhibitors/thyssenkrupp-marine-systems-gmbh",
      "address": {
        "text": "Kiel\nSchleswig-Holstein\n24124\nGermany",
        "iso2": "DE",
        "lat": 54.3232927,
        "lon": 10.1227652
      }
    },
    {
      "name": "UDT Media Partners",
      "exhibitorUrl": "https://udt-global.com/exhibitors/udt-media-partners"
    },
    {
      "name": "UWIS Oy",
      "exhibitorUrl": "https://udt-global.com/exhibitors/uwis",
      "address": {
        "text": "Littoinen\nVarsinais-Suomi\n20660\nFinland",
        "iso2": "FI",
        "lat": 60.4461299,
        "lon": 22.3834279
      }
    },
    {
      "name": "Water Linked AS",
      "exhibitorUrl": "https://udt-global.com/exhibitors/water-linked",
      "address": {
        "text": "Trondheim\n7041\nNorway",
        "iso2": "NO",
        "lat": 63.4432231,
        "lon": 10.4653553
      }
    },
    {
      "name": "William James",
      "exhibitorUrl": "https://udt-global.com/exhibitors/william-james"
    },
    {
      "name": "Xavier Vavasseur",
      "exhibitorUrl": "https://udt-global.com/exhibitors/xavier-vavasseur"
    }
  ]
}
